     2.11           OBSERVATION DATA    G (GPS)             RINEX VERSION / TYPE
teqc  2013Mar15                         20170905 02:30:37UTCPGM / RUN BY / DATE
Linux 2.4.21-27.ELsmp|Opteron|gcc -static|Linux x86_64|=+   COMMENT
     2.11           OBSERVATION DATA    M (MIXED)           COMMENT
teqc  2009Mar23                         20170902 01:05:02UTCCOMMENT
Linux 2.4.20-8|Pentium IV|gcc -static|Linux|486/DX+         COMMENT
BIT 2 OF LLI FLAGS DATA COLLECTED UNDER A/S CONDITION       COMMENT
WINN RACS-GSD 974000 Winnipeg MB Canada                     MARKER NAME
OPERATOR            NRCan/GEODETIC SURVEY OF CANADA         OBSERVER / AGENCY
618-02361           TPS NET-G3A         3.6 Dec,04,2012 p1  REC # / TYPE / VERS
523                 AOAD/M_T        SCIS                    ANT # / TYPE
  -520168.9400 -4083473.0800  4855843.7200                  APPROX POSITION XYZ
        0.0000        0.0000        0.0000                  ANTENNA: DELTA H/E/N
     1     1                                                WAVELENGTH FACT L1/2
     8    L1    L2    C1    C2    P1    P2    S1    S2      # / TYPES OF OBSERV
    30.0000                                                 INTERVAL
    18                                                      LEAP SECONDS
RINEXED from Topcon TPS-binary: ken.macleod@nrcan.gc.ca     COMMENT
Forced Modulo Decimation to 30 seconds                      COMMENT
This data is subject to the Open Government Licence -Canada COMMENT
http://open.canada.ca/en/open-government-licence-canada     COMMENT
 SNR is mapped to RINEX snr flag value [0-9]                COMMENT
  L1 & L2: min(max(int(snr_dBHz/6), 0), 9)                  COMMENT
pseudorange smoothing corrections not applied               COMMENT
teqc edited: all GLONASS satellites excluded                COMMENT
  2017     9     2     0     0    0.0000000     GPS         TIME OF FIRST OBS
                                                            END OF HEADER
 17  9  2  0  0  0.0000000  0 11G18G04G10G20G24G32G21G08G13G15G27
 108092374.25647  84227833.76346  20569284.895                    20569283.294
  20569279.050          47.750          41.500
 119488118.89947  93107627.55045  22737830.353                    22737829.310
  22737826.708          44.000          30.750
 113509350.08148  88448857.21447  21600099.584    21600098.177    21600098.980
  21600097.938          50.500          47.000
 119079674.14046  92789364.13444  22660098.858                    22660097.569
  22660094.327          41.250          26.000
 119681454.44646  93258285.39147  22774616.707    22774616.168    22774616.228
  22774616.303          41.000          42.000
 130182836.05046 101441175.09546  24772968.340    24772968.761    24772968.416
  24772969.095          40.500          38.000
 111013535.32948  86504069.65147  21125166.123                    21125164.495
  21125160.474          51.000          43.000
 126515723.32447  98583687.82546  24075138.838    24075138.033    24075138.236
  24075136.499          43.750          37.000
 125097073.04846  97478255.56843  23805172.624                    23805171.552
  23805167.991          39.750          19.000
 112764437.29648  87868405.14347  21458349.024    21458344.706    21458348.189
  21458344.265          50.750          44.000
 117728869.18347  91736785.26146  22403053.403    22403050.450    22403052.305
  22403050.269          45.500          41.000
 17  9  2  0  0 30.0000000  0 11G18G04G10G20G24G32G21G08G13G15G27
 108075926.02848  84215016.97046  20566154.813                    20566153.525
  20566148.967          48.500          41.500
 119530301.12047  93140496.80144  22745857.399                    22745855.445
  22745853.428          45.500          29.750
 113442399.16748  88396687.70247  21587359.620    21587357.539    21587359.109
  21587357.744          49.750          47.000
 119168788.62446  92858803.96844  22677057.027                    22677054.968
  22677052.582          41.250          26.000
 119605558.99647  93199146.14047  22760174.666    22760174.021    22760174.571
  22760174.478          42.000          42.000
 130071297.45546 101354262.05046  24751743.153    24751743.849    24751743.074
  24751743.684          40.250          38.000
 111045361.15048  86528868.98347  21131222.294                    21131220.823
  21131216.575          50.250          42.500
 126458166.20047  98538838.17046  24064186.211    24064184.629    24064185.093
  24064184.706          43.500          36.000
 125199024.70446  97557698.50542  23824573.323                    23824572.129
  23824568.451          39.250          17.250
 112834314.91848  87922855.22547  21471646.346    21471641.656    21471645.585
  21471641.512          52.000          43.000
 117733304.16147  91740241.08646  22403897.392    22403894.130    22403896.675
  22403894.078          45.500          41.000
 17  9  2  0  1  0.0000000  0 11G18G04G10G20G24G32G21G08G13G15G27
 108059761.63448  84202421.35347  20563078.937                    20563077.573
  20563072.999          48.500          42.000
 119573007.96247  93173774.85944  22753983.557                    22753981.706
  22753979.606          42.500          29.000
 113375694.10548  88344709.76447  21574666.178    21574663.915    21574665.754
  21574663.789          50.750          47.000
 119258069.37746  92928373.36544  22694046.396                    22694045.059
  22694041.474          41.250          26.000
 119530061.88547  93140317.27847  22745808.482    22745807.292    22745807.973
  22745806.372          42.750          42.000
 129959854.23846 101267423.32646  24730536.578    24730536.659    24730536.219
  24730536.282          40.500          38.000
 111077621.64048  86554007.02047  21137361.165                    21137359.575
  21137355.513          50.250          42.250
 126401102.42747  98494372.96346  24053327.551    24053327.690    24053326.561
  24053326.176          43.500          37.000
 125301191.26246  97637308.85842  23844014.810                    23844013.947
  23844010.808          40.000          17.250
 112904605.14648  87977626.82547  21485021.881    21485017.725    21485021.349
  21485017.278          49.750          44.000
 117738353.76947  91744175.84346  22404858.667    22404855.299    22404857.790
  22404854.347          46.250          41.000
 17  9  2  0  1 30.0000000  0 11G18G04G10G20G24G32G21G08G13G15G27
 108043881.13048  84190046.94746  20560056.947                    20560055.609
  20560051.105          49.500          41.750
 119616237.53247  93207460.22944  22762210.133                    22762208.883
  22762205.175          43.500          28.250
 113309235.74448  88292924.05247  21562019.504    21562017.051    21562019.153
  21562016.962          50.750          47.000
 119347515.31246  92998071.47944  22711067.594                    22711065.514
  22711063.597          40.500          26.000
 119454965.84847  93081800.93847  22731518.221    22731517.075    22731517.875
  22731516.878          43.250          42.000
 129848508.18046 101180660.29746  24709348.507    24709348.560    24709348.956
  24709347.486          40.750          38.000
 111110316.87548  86579483.82447  21143582.809                    21143581.266
  21143577.461          50.750          42.250
 126344533.63547  98450293.44346  24042562.891    24042562.775    24042562.400
  24042561.924          44.750          38.000
 125403570.50746  97717084.97842  23863496.729                    23863496.415
  23863492.349          40.000          17.250
 112975305.57448  88032718.06947  21498475.752    21498471.618    21498475.088
  21498471.237          50.750          43.000
 117744017.60347  91748589.21446  22405936.484    22405932.784    22405935.791
  22405931.917          46.750          41.000
 17  9  2  0  2  0.0000000  0 11G18G04G10G20G24G32G21G08G13G15G27
 108028285.11048  84177894.21646  20557089.047                    20557087.582
  20557083.254          49.500          41.250
 119659988.21647  93241551.66344  22770535.736                    22770534.412
  22770531.922          42.250          28.000
 113243025.41548  88241331.60947  21549419.800    21549417.313    21549419.349
  21549417.494          49.250          46.000
 119437126.20846  93067898.12444  22728119.715                    22728118.041
  22728115.806          40.500          26.000
 119380274.85847  93023600.20547  22717304.550    22717303.692    22717304.235
  22717303.359          43.000          42.000
 129737261.57846 101093974.77246  24688179.206    24688179.175    24688179.173
  24688177.586          41.250          38.000
 111143447.54348  86605299.92047  21149887.140                    21149885.533
  21149882.183          50.000          42.250
 126288462.50547  98406601.69346  24031893.629    24031891.379    24031891.957
  24031892.211          43.750          38.000
 125506159.98746  97797024.89543  23883018.971                    23883017.936
  23883013.836          39.250          18.000
 113046414.38548  88088127.52647  21512007.226    21512003.317    21512006.362
  21512002.693          51.000          44.000
 117750295.73147  91753481.28546  22407131.055    22407126.650    22407130.027
  22407126.750          44.750          40.000
 17  9  2  0  2 30.0000000  0 11G18G04G10G20G24G32G21G08G13G15G27
 108012974.17948  84165963.63046  20554175.587                    20554174.120
  20554169.813          49.500          41.000
 119704258.64447  93276048.08544  22778960.213                    22778958.748
  22778955.831          43.750          28.250
 113177064.34448  88189933.39147  21536868.086    21536865.185    21536867.451
  21536865.378          50.250          46.000
 119526901.64946  93137852.99244  22745203.443                    22745201.125
  22745200.107          40.500          26.250
 119305991.56447  92965717.17047  22703168.955    22703167.977    22703167.953
  22703166.973          42.000          42.000
 129626116.73946 101007368.54946  24667028.244    24667028.804    24667027.944
  24667027.881          39.750          38.000
 111177013.93948  86631455.54747  21156274.681                    21156273.025
  21156269.396          50.000          42.000
 126232891.23047  98363299.43646  24021317.331    24021317.054    24021316.583
  24021316.202          43.750          38.000
 125608958.01146  97877127.30443  23902580.648                    23902579.106
  23902576.308          40.250          18.000
 113117929.53548  88143853.60747  21525616.157    21525612.101    21525615.629
  21525611.420          49.250          43.000
 117757188.16947  91758852.02847  22408442.474    22408439.059    22408441.753
  22408438.718          47.250          42.000
 17  9  2  0  3  0.0000000  0 11G18G04G10G20G24G32G21G08G13G15G27
 107997949.31048  84154255.95346  20551316.217                    20551315.063
  20551310.759          49.500          41.500
 119749047.59247  93310948.56044  22787483.448                    22787481.365
  22787479.177          44.750          28.500
 113111353.96348  88138730.51247  21524363.729    21524361.427    21524363.046
  21524361.673          50.500          47.000
 119616840.83346  93207935.44344  22762317.500                    22762316.240
  22762315.338          39.000          26.000
 119232119.59547  92908154.65146  22689111.827    22689109.443    22689111.191
  22689109.434          43.250          41.000
 129515075.78546 100920843.29446  24645897.550    24645897.758    24645896.386
  24645897.459          39.250          39.000
 111211016.48948  86657951.03247  21162745.239                    21162743.588
  21162739.898          50.750          42.500
 126177822.08147  98320388.45346  24010837.924    24010838.697    24010837.324
  24010836.884          42.750          38.000
 125711962.44446  97957390.54443  23922181.277                    23922180.850
  23922176.745          39.750          18.500
 113189848.88248  88199894.65547  21539302.002    21539297.932    21539301.420
  21539297.437          49.250          43.000
 117764694.93347  91764701.44547  22409870.703    22409868.364    22409869.169
  22409868.355          45.500          42.000
 17  9  2  0  3 30.0000000  0 11G18G04G10G20G24G32G21G08G13G15G27
 107983209.76448  84142770.60146  20548511.499                    20548510.150
  20548505.688          49.250          41.250
 119794351.75247  93346250.50644  22796104.016                    22796103.516
  22796100.735          43.250          28.750
 113045894.03348  88087722.79747  21511907.290    21511904.906    21511906.622
  21511905.329          50.750          47.000
 119706941.51446  93278143.73044  22779463.502                    22779462.183
  22779460.296          40.500          25.500
 119158661.13247  92850914.33546  22675133.303    22675131.344    22675133.013
  22675130.801          43.000          41.000
 129404139.66746 100834399.70446  24624786.741    24624788.320    24624786.568
  24624788.237          38.750          39.000
 111245453.40648  86684784.98746  21169298.305                    21169296.914
  21169292.818          50.250          41.750
 126123256.24946  98277869.67946  24000453.809    24000454.009    24000451.889
  24000452.701          40.500          37.000
 125815169.80346  98037811.88843  23941821.086                    23941820.093
  23941816.830          39.750          18.500
 113262169.32648  88256248.24147  21553064.174    21553060.004    21553063.349
  21553059.421          50.250          43.000
 117772814.46947  91771028.35947  22411415.847    22411414.056    22411414.942
  22411413.234          46.250          43.000
 17  9  2  0  4  0.0000000  0 11G18G04G10G20G24G32G21G08G13G15G27
 107968756.41248  84131508.25146  20545761.174                    20545759.667
  20545755.394          48.500          41.500
 119840169.76647  93381952.83844  22804823.234                    22804822.335
  22804819.945          43.000          28.750
 112980685.87648  88036911.25547  21499498.631    21499496.336    21499497.844
  21499496.519          50.750          47.000
 119797203.45947  93348477.66644  22796639.887                    22796637.891
  22796636.949          42.250          25.500
 119085619.05847  92793998.48347  22661233.723    22661231.438    22661233.162
  22661232.316          43.000          42.000
 129293310.72346 100748039.63846  24603695.343    24603697.630    24603695.839
  24603696.937          37.000          39.000
 111280325.55048  86711958.07947  21175934.463                    21175932.865
  21175928.583          51.000          42.000
 126069195.61846  98235744.55346  23990165.594    23990167.024    23990165.058
  23990165.562          38.750          37.000
 125918577.97446  98118389.65343  23961499.176                    23961498.363
  23961494.621          39.500          18.250
 113334888.99348  88312912.91747  21566902.358    21566897.550    21566901.645
  21566897.369          50.000          43.000
 117781546.79747  91777832.77147  22413077.576    22413075.810    22413076.798
  22413075.539          46.250          43.000
 17  9  2  0  4 30.0000000  0 11G18G04G10G20G24G32G21G08G13G15G27
 107954588.85347  84120468.59646  20543065.198                    20543063.671
  20543059.465          47.000          41.500
 119886498.98447  93418053.52944  22813639.502                    22813638.509
  22813635.899          44.000          28.750
 112915729.79148  87986296.11747  21487137.706    21487135.435    21487137.110
  21487135.651          51.500          47.000
 119887625.50847  93418936.36044  22813847.531                    22813845.910
  22813844.517          42.500          26.000
 119012996.10947  92737409.23047  22647413.609    22647412.726    22647413.330
  22647412.575          43.750          43.000
 129182590.12445 100661763.99146  24582626.188    24582627.431    24582624.892
  24582628.124          35.500          39.000
 111315632.01648  86739469.60346  21182652.841                    21182651.356
  21182647.328          49.250          41.750
 126015641.55646  98194014.16646  23979974.754    23979975.171    23979972.787
  23979974.900          39.250          38.000
 126022184.09346  98199121.71443  23981214.698                    23981213.673
  23981210.178          39.750          18.000
 113408004.73348  88369886.22247  21580815.927    21580811.482    21580815.266
  21580810.941          49.250          43.000
 117790890.79347  91785113.82847  22414855.402    22414853.629    22414854.943
  22414853.115          44.750          43.000
 17  9  2  0  5  0.0000000  0 11G18G04G10G20G24G32G21G08G13G15G27
 107940707.07148  84109651.63046  20540423.448                    20540422.240
  20540417.807          50.750          41.500
 119933337.27947  93454550.88844  22822552.323                    22822551.343
  22822548.746          43.250          29.000
 112851026.49548  87935877.96647  21474825.206    21474823.062    21474824.589
  21474823.094          51.250          47.000
 119978206.29447  93489518.75644  22831084.222                    22831083.608
  22831080.515          43.250          27.000
 118940794.46047  92681148.24947  22633673.950    22633673.271    22633673.754
  22633673.328          43.250          43.000
 129071979.39045 100575573.96446  24561576.197    24561578.444    24561577.107
  24561577.780          35.250          37.000
 111351372.52648  86767319.34447  21189454.114                    21189452.481
  21189448.864          52.000          42.000
 125962595.72846  98152679.80746  23969880.161    23969882.254    23969879.187
  23969881.081          39.500          38.000
 126125985.52046  98280005.97043  24000967.683                    24000966.391
  24000962.377          40.500          18.000
 113481514.06448  88427166.22247  21594804.510    21594799.985    21594803.689
  21594799.362          52.000          43.000
 117800845.71547  91792870.92247  22416749.945    22416747.289    22416748.706
  22416747.681          46.750          43.000
 17  9  2  0  5 30.0000000  0 11G18G04G10G20G24G32G21G08G13G15G27
 107927111.75448  84099057.88446  20537836.380                    20537834.933
  20537830.791          48.750          41.500
 119980683.05747  93491443.70444  22831562.012                    22831561.215
  22831558.942          43.750          29.000
 112786577.16648  87885657.73047  21462560.730    21462558.571    21462560.215
  21462558.579          51.250          47.000
 120068945.09347  93560224.28344  22848352.138                    22848350.215
  22848348.106          45.000          27.250
 118869017.83446  92625218.45247  22620015.460    22620014.802    22620014.423
  22620014.452          41.750          44.000
 128961480.89046 100489471.36946  24540550.022    24540550.496    24540549.348
  24540550.377          36.250          37.000
 111387547.39848  86795507.54546  21196338.057                    21196336.517
  21196332.557          50.500          41.750
 125910060.27046  98111743.10546  23959883.380    23959884.458    23959883.203
  23959883.525          39.250          38.000
 126229979.78346  98361040.46042  24020757.553                    24020756.589
  24020751.599          40.500          17.000
 113555414.94748  88484751.31347  21608867.335    21608862.699    21608866.743
  21608862.513          50.250          43.000
 117811411.33647  91801103.88247  22418760.966    22418758.492    22418759.725
  22418758.172          46.500          43.000
 17  9  2  0  6  0.0000000  0 11G18G04G10G20G24G32G21G08G13G15G27
 107913801.53848  84088686.28746  20535303.635                    20535302.132
  20535297.775          49.500          41.500
 120028532.58547  93528729.04444  22840666.653                    22840665.617
  22840664.190          43.500          29.000
 112722381.07948  87835634.83547  21450344.772    21450342.302    21450344.007
  21450342.164          52.000          47.000
 120159839.49147  93631051.03744  22865649.292                    22865647.376
  22865644.336          44.500          27.500
 118797667.26147  92569620.61947  22606437.460    22606437.109    22606436.793
  22606437.217          43.250          44.000
 128851094.72946 100403456.31146  24519544.522    24519544.901    24519544.269
  24519543.679          36.750          36.000
 111424154.78348  86824032.77547  21203304.255                    21203302.404
  21203298.718          50.500          42.000
 125858035.66946  98071204.50346  23949984.199    23949984.356    23949984.090
  23949984.127          40.250          39.000
 126334163.18246  98442222.31442  24040583.496                    24040581.733
  24040577.029          40.500          17.000
 113629703.75048  88542638.70147  21623003.956    21622999.223    21623003.197
  21622998.906          50.000          43.000
 117822585.42847  91809810.97447  22420887.228    22420885.122    22420886.625
  22420884.362          45.750          43.000
 17  9  2  0  6 30.0000000  0 11G18G04G10G20G24G32G21G08G13G15G27
 107900777.30348  84078537.53646  20532825.023                    20532823.558
  20532819.478          49.000          41.250
 120076884.54747  93566405.90444  22849868.026                    22849866.790
  22849865.604          44.250          28.500
 112658439.97648  87785810.61747  21438177.221    21438174.192    21438176.702
  21438174.765          51.500          47.000
 120250888.93447  93701998.62544  22882974.838                    22882974.012
  22882970.465          43.750          27.000
 118726746.57147  92514357.79047  22592941.671    22592941.321    22592941.055
  22592940.948          43.250          44.000
 128740823.49346 100317530.81246  24498561.241    24498561.799    24498560.659
  24498561.254          38.500          37.000
 111461195.21148  86852895.44346  21210352.853                    21210351.105
  21210347.220          49.750          41.500
 125806523.87646  98031065.50246  23940182.483    23940182.092    23940181.925
  23940181.753          40.500          39.000
 126438533.95946  98523550.19742  24060444.112                    24060442.910
  24060438.113          40.750          16.500
 113704378.48548  88600826.80047  21637213.913    21637209.556    21637213.516
  21637209.105          50.000          43.000
 117834368.08947  91818992.28347  22423129.246    22423127.203    22423128.080
  22423126.715          45.000          43.000
 17  9  2  0  7  0.0000000  0 11G18G04G10G20G24G32G21G08G13G15G27
 107888039.95148  84068612.33846  20530401.187                    20530399.867
  20530395.621          49.750          41.750
 120125737.39047  93604473.04544  22859164.855                    22859163.865
  22859161.018          44.000          28.750
 112594754.76248  87736185.79248  21426058.448    21426056.059    21426057.879
  21426056.238          51.000          48.000
 120342093.21547  93773066.85544  22900330.749                    22900329.186
  22900326.068          43.000          25.750
 118656258.23847  92459431.86347  22579528.222    22579527.388    22579528.272
  22579527.040          42.750          43.000
 128630669.35546 100231696.55746  24477599.475    24477600.628    24477599.478
  24477599.730          39.250          37.000
 111498668.62648  86882095.49746  21217483.611                    21217482.170
  21217478.056          52.000          41.750
 125755527.46246  97991328.07346  23930479.308    23930477.935    23930478.101
  23930476.128          40.750          39.000
 126543089.90546  98605022.39942  24080340.008                    24080340.050
  24080334.929          39.750          16.500
 113779437.07548  88659314.00947  21651497.003    21651491.977    21651496.216
  21651492.107          49.750          43.000
 117846759.00947  91828647.55147  22425487.308    22425485.184    22425486.522
  22425485.387          46.250          43.000
 17  9  2  0  7 30.0000000  0 11G18G04G10G20G24G32G21G08G13G15G27
 107875589.78448  84058910.92246  20528032.021                    20528030.767
  20528026.245          48.250          41.500
 120175089.07047  93642928.89044  22868556.554                    22868555.116
  22868552.191          44.500          28.500
 112531326.85148  87686761.46247  21413988.472    21413985.950    21413987.828
  21413986.186          50.000          47.000
 120433451.54447  93844255.13544  22917715.311                    22917713.605
  22917711.458          42.500          25.750
 118586206.08547  92404845.79847  22566197.634    22566196.841    22566197.636
  22566196.835          43.250          43.000
 128520634.46146 100145955.21246  24456660.409    24456661.999    24456659.680
  24456660.700          39.250          37.000
 111536575.28348  86911633.14646  21224697.189                    21224695.641
  21224691.388          50.000          41.750
 125705048.21046  97951993.65846  23920872.229    23920871.516    23920871.159
  23920871.690          39.250          39.000
 126647828.94146  98686637.30042  24100271.274                    24100270.720
  24100265.247          40.000          14.750
 113854877.43548  88718098.72147  21665853.005    21665848.578    21665852.489
  21665848.269          50.250          43.000
 117859757.86947  91838776.54247  22427960.633    22427958.525    22427959.467
  22427958.450          45.250          43.000
 17  9  2  0  8  0.0000000  0 11G18G04G10G20G24G32G21G08G13G15G27
 107863427.80148  84049434.05747  20525717.801                    20525716.413
  20525712.008          49.250          42.000
 120224938.21447  93681772.38344  22878042.494                    22878041.044
  22878038.106          44.000          28.250
 112468157.51748  87637538.63547  21401967.650    21401965.074    21401966.782
  21401965.138          51.250          47.000
 120524963.33147  93915562.99844  22935129.510                    22935128.020
  22935124.811          42.250          24.500
 118516592.87447  92350601.76747  22552950.340    22552949.594    22552950.708
  22552948.730          43.000          42.000
 128410721.10146 100060308.56046  24435743.634    24435746.145    24435742.700
  24435745.535          39.250          38.000
 111574915.56948  86941508.68447  21231993.010                    21231991.617
  21231987.571          50.750          42.000
 125655088.47746  97913064.05146  23911364.134    23911364.833    23911364.023
  23911363.844          38.250          39.000
 126752749.18246  98768393.38042  24120237.313                    24120235.625
  24120230.209          40.000          14.750
 113930697.82148  88777179.54047  21680281.094    21680276.698    21680280.557
  21680276.159          50.000          43.000
 117873364.43647  91849379.07847  22430549.939    22430548.413    22430548.705
  22430547.626          45.500          43.000
 17  9  2  0  8 30.0000000  0 11G18G04G10G20G24G32G21G08G13G15G27
 107851554.63248  84040182.24446  20523458.480                    20523457.032
  20523452.421          48.500          41.500
 120275282.99847  93721002.07644  22887622.528                    22887620.816
  22887618.681          43.250          28.500
 112405248.01048  87588518.27047  21389995.857    21389993.302    21389995.298
  21389993.336          51.750          47.000
 120616628.15047  93986990.10343  22952572.511                    22952571.266
  22952568.207          43.250          23.750
 118447422.41047  92296702.73647  22539788.012    22539786.996    22539787.199
  22539786.429          43.250          42.000
 128300931.39646  99974758.26046  24414851.965    24414852.778    24414850.218
  24414852.339          39.750          37.000
 111613689.28048  86971721.95247  21239371.505                    21239370.132
  21239366.114          50.750          42.000
 125605650.32546  97874540.87346  23901956.693    23901957.036    23901955.240
  23901955.987          38.750          40.000
 126857848.37846  98850288.86842  24140237.417                    24140236.702
  24140230.830          40.000          14.750
 114006896.30948  88836554.97447  21694780.861    21694776.764    21694780.429
  21694776.240          49.000          43.000
 117887578.24047  91860454.77947  22433254.448    22433253.039    22433253.320
  22433252.386          46.250          43.000
 17  9  2  0  9  0.0000000  0 11G18G04G10G20G24G32G21G08G13G15G27
 107839969.54948  84031154.90746  20521253.725                    20521252.305
  20521248.094          48.500          41.500
 120326120.16847  93760615.44844  22897296.374                    22897295.248
  22897292.014          43.000          28.250
 112342598.17748  87539700.24347  21378073.966    21378071.270    21378073.112
  21378071.377          49.000          46.000
 120708444.10047  94058534.96244  22970044.650                    22970044.013
  22970040.382          43.250          24.000
 118378696.15347  92243149.83247  22526710.201    22526708.357    22526709.762
  22526708.692          43.500          42.000
 128191266.22146  99889304.98346  24393982.587    24393983.599    24393982.778
  24393982.946          40.000          37.000
 111652895.24648  87002272.05147  21246832.312                    21246830.440
  21246826.641          51.000          42.000
 125556734.38746  97836424.60246  23892648.919    23892647.816    23892647.907
  23892647.290          38.750          40.000
 126963122.99646  98932321.06042  24160270.757                    24160269.592
  24160264.001          41.000          14.250
 114083469.39748  88896222.31547  21709352.486    21709348.335    21709352.024
  21709347.681          49.500          43.000
 117902397.56147  91872002.30947  22436074.229    22436072.340    22436073.567
  22436072.397          45.000          43.000
 17  9  2  0  9 30.0000000  0 11G18G04G10G20G24G32G21G08G13G15G27
 107828671.30348  84022351.08046  20519103.708                    20519102.366
  20519097.951          49.250          41.250
 120377446.33747  93800609.86144  22907063.654                    22907061.719
  22907060.696          44.000          28.250
 112280207.64648  87491084.26547  21366201.627    21366199.188    21366200.937
  21366199.127          50.250          47.000
 120800409.10847  94130195.97944  22987545.352                    22987543.634
  22987539.611          44.500          24.500
 118310415.68547  92189944.29947  22513717.270    22513714.983    22513716.411
  22513714.226          43.000          42.000
 128081726.10046  99803949.14746  24373138.622    24373137.223    24373137.176
  24373138.836          40.250          36.000
 111692532.03148  87033157.85246  21254374.713                    21254373.107
  21254369.465          51.250          41.500
 125508340.76746  97798715.33746  23883439.339    23883439.050    23883439.545
  23883438.901          38.750          40.000
 127068569.56746  99014487.23942  24180336.536                    24180335.333
  24180329.946          40.250          14.250
 114160413.52048  88956178.77247  21723994.507    21723989.666    21723993.827
  21723989.936          49.750          43.000
 117917820.35647  91884020.07247  22439009.156    22439007.579    22439008.280
  22439007.065          46.000          43.000
 17  9  2  0 10  0.0000000  0 11G18G04G10G20G24G32G21G08G13G15G27
 107817661.30748  84013771.86446  20517008.704                    20517007.173
  20517002.942          49.750          41.250
 120429260.42847  93840984.47444  22916923.294                    22916921.223
  22916920.444          43.000          28.500
 112218078.24348  87442671.75847  21354379.162    21354376.739    21354378.596
  21354376.737          51.500          47.000
 120892522.91647  94201972.92644  23005074.346                    23005072.629
  23005068.390          43.750          24.500
 118242584.69047  92137089.00847  22500809.122    22500806.849    22500808.376
  22500806.725          44.250          42.000
 127972313.81346  99718692.93846  24352317.923    24352318.436    24352317.855
  24352318.700          40.750          36.000
 111732600.11748  87064379.72946  21261999.520                    21261997.960
  21261993.695          50.750          41.750
 125460472.35446  97761415.33546  23874330.948    23874329.750    23874329.832
  23874329.978          39.250          41.000
 127174186.63746  99096786.24942  24200434.416                    24200433.528
  24200428.501          38.750          15.000
 114237727.25048  89016423.23247  21738707.019    21738701.841    21738706.471
  21738702.171          48.750          42.000
 117933846.80147  91896508.20847  22442058.894    22442057.491    22442058.555
  22442056.942          45.250          43.000
 17  9  2  0 10 30.0000000  0 11G18G04G10G20G24G32G21G08G13G15G27
 107806940.35148  84005417.87646  20514968.512                    20514966.978
  20514962.536          49.750          41.500
 120481560.50947  93881737.77944  22926875.571                    22926874.106
  22926872.977          42.750          28.500
 112156211.12548  87394463.62847  21342606.120    21342603.493    21342605.449
  21342603.623          52.000          47.000
 120984784.89247  94273865.35444  23022630.970                    23022629.618
  23022625.468          44.250          24.750
 118175205.66047  92084585.89547  22487987.085    22487985.539    22487987.236
  22487985.083          44.000          42.000
 127863031.39447  99633537.92346  24331523.007    24331522.903    24331522.336
  24331522.729          42.000          36.000
 111773099.64648  87095937.79246  21269706.080                    21269704.577
  21269700.538          50.750          41.500
 125413130.76746  97724525.83246  23865321.751    23865321.486    23865320.708
  23865320.198          38.750          41.000
 127279972.41046  99179216.73042  24220564.460                    24220564.278
  24220559.243          38.000          15.000
 114315407.91648  89076953.62447  21753489.080    21753484.601    21753488.408
  21753484.294          50.500          42.000
 117950476.27947  91909466.25047  22445223.796    22445221.776    22445222.800
  22445221.521          45.500          43.000
 17  9  2  0 11  0.0000000  0 11G18G04G10G20G24G32G21G08G13G15G27
 107796508.39448  83997289.08346  20512983.431                    20512981.994
  20512977.626          48.750          41.750
 120534344.11747  93922867.84944  22936920.087                    22936919.489
  22936917.759          42.750          28.250
 112094607.07048  87346460.48847  21330882.881    21330880.133    21330882.166
  21330880.388          51.500          47.000
 121077194.19847  94345872.57844  23040215.672                    23040214.622
  23040211.218          43.250          24.750
 118108281.59947  92032437.29947  22475251.590    22475249.546    22475250.452
  22475249.039          43.000          42.000
 127753880.52647  99548485.42846  24310751.869    24310751.462    24310750.659
  24310750.527          42.000          36.000
 111814030.00648  87127831.56846  21277495.079                    21277493.505
  21277489.454          51.000          41.500
 125366318.18946  97688048.56346  23856413.856    23856413.710    23856412.650
  23856412.526          39.000          41.000
 127385923.75946  99261776.20042  24240726.477                    24240725.334
  24240721.812          37.500          15.500
 114393453.48048  89137768.34347  21768340.695    21768335.708    21768340.150
  21768335.555          49.500          42.000
 117967707.90747  91922893.49747  22448502.944    22448501.112    22448501.980
  22448500.608          44.750          43.000
 17  9  2  0 11 30.0000000  0 11G18G04G10G20G24G32G21G08G13G15G27
 107786365.70648  83989385.69246  20511053.433                    20511051.851
  20511047.543          50.000          41.500
 120587609.05147  93964372.97544  22947056.121                    22947055.203
  22947052.345          43.000          28.000
 112033266.89748  87298662.97047  21319210.220    21319207.067    21319209.354
  21319207.428          50.750          47.000
 121169749.73447  94417993.76344  23057829.008                    23057827.724
  23057824.206          42.500          24.000
 118041815.24347  91980645.34747  22462603.083    22462601.995    22462602.565
  22462601.112          42.750          42.000
 127644862.99646  99463536.83345  24290006.207    24290005.169    24290006.323
  24290004.343          41.750          35.000
 111855391.09548  87160060.97746  21285366.105                    21285364.543
  21285360.383          49.500          41.500
 125320035.67746  97651984.33546  23847605.349    23847605.872    23847604.834
  23847605.778          38.750          41.000
 127492038.41146  99344462.92542  24260919.148                    24260917.967
  24260914.760          37.500          15.500
 114471861.67448  89198865.64547  21783261.269    21783256.679    21783260.914
  21783256.288          48.250          42.000
 117985540.68647  91936789.18147  22451896.443    22451895.175    22451895.837
  22451894.623          45.750          44.000
 17  9  2  0 12  0.0000000  0 11G18G04G10G20G24G32G21G08G13G15G27
 107776512.53748  83981707.90346  20509178.071                    20509176.848
  20509172.594          48.250          41.750
 120641353.46847  94006251.73644  22957283.523                    22957282.588
  22957280.538          43.250          27.500
 111972191.70348  87251071.94047  21307588.201    21307585.666    21307587.334
  21307585.653          51.000          47.000
 121262450.85347  94490228.38443  23075468.996                    23075467.899
  23075464.156          42.000          23.500
 117975809.69047  91929212.45647  22450043.450    22450041.029    22450042.367
  22450040.777          42.750          42.000
 127535980.79047  99378693.65645  24269286.812    24269283.523    24269286.796
  24269284.085          42.000          34.000
 111897182.56248  87192625.74346  21293318.623                    21293317.049
  21293313.201          51.250          41.750
 125274285.18846  97616334.62746  23838899.668    23838900.207    23838899.668
  23838899.273          37.250          41.000
 127598314.46246  99427275.41642  24281143.120                    24281141.750
  24281138.264          37.000          16.250
 114550630.26348  89260243.77247  21798250.550    21798246.056    21798250.363
  21798245.631          49.750          42.000
 118003973.94047  91951152.76147  22455403.471    22455402.896    22455402.907
  22455402.358          44.750          44.000
 17  9  2  0 12 30.0000000  0 11G18G04G10G20G24G32G21G08G13G15G27
 107766949.13348  83974255.90146  20507358.136                    20507356.964
  20507352.752          49.250          41.500
 120695574.68047  94048502.00244  22967601.795                    22967600.139
  22967596.734          42.000          27.000
 111911382.12348  87203687.87947  21296016.907    21296013.882    21296016.326
  21296014.012          50.500          47.000
 121355296.72246  94562575.77443  23093136.656                    23093135.506
  23093133.565          40.750          23.500
 117910267.10247  91878140.32547  22437570.948    22437568.304    22437570.683
  22437568.675          43.250          42.000
 127427235.51046  99293957.19945  24248592.745    24248592.636    24248592.218
  24248590.626          41.750          34.000
 111939403.85848  87225525.43846  21301353.014                    21301351.621
  21301347.670          51.750          41.500
 125229068.12646  97581100.58546  23830296.275    23830295.868    23830294.579
  23830293.802          38.500          41.000
 127704749.14646  99510211.53642  24301396.117                    24301394.825
  24301392.707          36.250          16.250
 114629756.42948  89321900.51547  21813307.670    21813302.793    21813307.354
  21813302.653          49.750          42.000
 118023006.50347  91965983.32347  22459025.918    22459024.741    22459024.859
  22459024.018          43.750          44.000
 17  9  2  0 13  0.0000000  0 11G18G04G10G20G24G32G21G08G13G15G27
 107757675.77148  83967029.91046  20505593.562                    20505592.142
  20505587.855          50.000          41.500
 120750270.50747  94091122.09744  22978009.878                    22978008.510
  22978004.568          42.750          26.500
 111850839.03448  87156511.47048  21284495.478    21284493.186    21284494.887
  21284493.322          52.000          48.000
 121448285.52546  94635034.55743  23110831.932                    23110829.726
  23110828.673          40.500          23.250
 117845190.14547  91827431.02947  22425187.516    22425184.939    22425186.922
  22425184.624          43.750          42.000
 127318628.82946  99209328.70945  24227925.007    24227925.495    24227923.946
  24227924.473          41.500          34.000
 111982054.70448  87258759.85246  21309469.362                    21309467.802
  21309463.947          51.250          41.750
 125184385.63046  97546283.07946  23821792.512    23821791.598    23821792.234
  23821791.876          38.500          40.000
 127811339.88945  99593269.22942  24321679.301                    24321678.494
  24321676.031          35.750          16.000
 114709237.85548  89383834.09447  21828432.471    21828428.106    21828432.046
  21828427.877          50.000          42.000
 118042637.38147  91981280.11647  22462760.746    22462759.365    22462760.336
  22462759.185          44.750          43.000
 17  9  2  0 13 30.0000000  0 11G18G04G10G20G24G32G21G08G13G15G27
 107748692.41548  83960029.89846  20503884.233                    20503882.854
  20503878.522          48.250          41.500
 120805438.37247  94134110.03044  22988508.004                    22988506.228
  22988503.609          43.250          26.500
 111790563.12148  87109543.24048  21273025.148    21273023.396    21273024.526
  21273023.440          51.500          48.000
 121541416.78646  94707604.31843  23128554.318                    23128552.351
  23128551.129          40.000          23.250
 117780581.20947  91777086.44847  22412892.806    22412890.695    22412892.450
  22412890.758          44.500          42.000
 127210162.47046  99124809.58245  24207285.081    24207284.541    24207283.561
  24207284.033          40.500          35.000
 112025134.69348  87292328.66646  21317667.103                    21317665.638
  21317661.814          51.000          41.500
 125140239.25246  97511883.33446  23813391.940    23813391.597    23813391.228
  23813391.002          38.750          41.000
 127918084.27646  99676446.67842  24341992.940                    24341992.007
  24341988.609          36.250          16.000
 114789071.94348  89446042.45747  21843624.417    21843620.265    21843623.760
  21843619.487          48.250          42.000
 118062865.41847  91997042.21947  22466610.464    22466608.477    22466609.667
  22466608.037          45.000          43.000
 17  9  2  0 14  0.0000000  0 11G18G04G10G20G24G32G21G08G13G15G27
 107739999.04048  83953255.84146  20502229.838                    20502228.494
  20502224.339          48.500          41.750
 120861075.55947  94177463.64744  22999095.854                    22999094.323
  22999092.060          44.000          27.000
 111730554.73748  87062783.47348  21261605.954    21261603.990    21261605.339
  21261603.983          51.000          48.000
 121634688.93546  94780283.88443  23146302.709                    23146301.406
  23146299.278          39.500          23.500
 117716442.69647  91727108.42147  22400687.706    22400685.319    22400686.950
  22400685.411          43.000          43.000
 127101837.63846  99040400.73146  24186671.392    24186672.290    24186670.738
  24186671.215          40.500          36.000
 112068642.41048  87326230.77546  21325946.246                    21325944.903
  21325940.836          51.000          41.500
 125096629.72146  97477901.90846  23805091.840    23805092.504    23805091.362
  23805092.904          37.250          41.000
 128024979.56946  99759741.71542  24362334.537                    24362333.742
  24362329.864          36.500          16.000
 114869255.63348  89508523.24546  21858882.599    21858877.552    21858882.413
  21858877.880          48.750          41.000
 118083689.06847  92013268.42647  22470573.003    22470570.175    22470572.446
  22470570.013          44.500          42.000
 17  9  2  0 14 30.0000000  0 11G18G04G10G20G24G32G21G08G13G15G27
 107731596.57248  83946708.46646  20500630.786                    20500629.594
  20500625.482          49.000          41.250
 120917180.29347  94221181.60844  23009772.471                    23009771.000
  23009767.258          45.000          27.750
 111670815.33148  87016233.31248  21250238.232    21250235.736    21250237.510
  21250235.784          50.750          48.000
 121728101.76746  94853073.08843  23164078.325                    23164076.831
  23164075.579          39.250          23.500
 117652777.86747  91677499.49647  22388572.231    22388570.491    22388571.826
  22388570.397          44.500          43.000
 126993656.65746  98956103.96946  24166085.927    24166085.369    24166085.370
  24166084.134          41.000          36.000
 112112578.30148  87360466.52346  21334306.992                    21334305.478
  21334301.668          51.000          41.250
 125053559.41546  97444340.67946  23796895.965    23796897.156    23796894.244
  23796896.793          36.250          41.000
 128132023.77046  99843152.75742  24382704.809                    24382704.593
  24382700.542          36.250          16.000
 114949787.28348  89571275.17146  21874207.199    21874202.777    21874206.838
  21874202.642          48.750          41.000
 118105107.83347  92029958.36347  22474649.034    22474646.251    22474648.277
  22474646.290          44.750          42.000
 17  9  2  0 15  0.0000000  0 11G18G04G10G20G24G32G21G08G13G15G27
 107723484.99948  83940387.76546  20499087.270                    20499085.878
  20499081.592          49.250          41.500
 120973750.18447  94265262.03244  23020537.446                    23020535.740
  23020533.037          44.000          28.250
 111611345.49648  86969893.21048  21238921.185    21238918.984    21238920.774
  21238919.150          51.000          48.000
 121821653.90646  94925970.81943  23181881.367                    23181880.123
  23181878.260          38.750          23.500
 117589589.00747  91628261.46247  22376547.668    22376546.376    22376547.102
  22376546.147          45.000          43.000
 126885621.10547  98871920.54546  24145527.157    24145525.276    24145526.247
  24145525.867          42.000          36.000
 112156941.41848  87395035.16946  21342748.993                    21342747.589
  21342743.767          50.750          41.250
 125011029.51546  97411200.54446  23788802.933    23788803.283    23788801.174
  23788803.059          36.250          41.000
 128239214.56946  99926678.00642  24403102.612                    24403101.527
  24403096.591          37.000          16.000
 115030664.19048  89634296.12546  21889597.545    21889593.524    21889597.044
  21889592.941          49.000          41.000
 118127120.41947  92047111.01547  22478838.069    22478835.451    22478837.183
  22478834.834          44.000          42.000
 17  9  2  0 15 30.0000000  0 11G18G04G10G20G24G32G21G08G13G15G27
 107715663.81848  83934293.34546  20497598.987                    20497597.690
  20497593.363          48.250          41.750
 121030782.20747  94309702.57244  23031389.900                    23031388.281
  23031385.587          44.250          28.250
 111552145.70848  86923763.52548  21227656.006    21227653.732    21227655.353
  21227653.900          51.000          48.000
 121915344.10546  94998976.12943  23199710.287                    23199707.761
  23199706.303          38.750          23.000
 117526878.13047  91579395.88847  22364614.086    22364612.657    22364614.050
  22364612.584          44.250          44.000
 126777732.32046  98787851.48946  24124996.533    24124993.160    24124996.525
  24124993.638          41.750          36.000
 112201731.23348  87429936.31646  21351272.160                    21351270.529
  21351266.809          51.500          41.250
 124969041.00346  97378482.27646  23780812.698    23780814.051    23780811.639
  23780813.640          37.250          41.000
 128346548.83346 100010315.06642  24423527.819                    24423526.237
  24423522.245          37.250          15.500
 115111883.56348  89697583.95046  21905053.100    21905048.820    21905052.470
  21905048.558          48.750          41.000
 118149725.28747  92064725.18947  22483139.642    22483136.718    22483138.568
  22483136.613          45.500          42.000
 17  9  2  0 16  0.0000000  0 11G18G04G10G20G24G32G21G08G13G15G27
 107708133.41848  83928425.50446  20496166.082                    20496164.521
  20496160.303          49.750          41.500
 121088274.24947  94354501.55244  23042329.798                    23042328.898
  23042325.823          44.000          28.000
 111493217.04348  86877845.09448  21216441.978    21216439.863    21216441.331
  21216439.975          51.500          48.000
 122009171.76146  95072088.55343  23217564.850                    23217563.554
  23217561.594          38.250          23.000
 117464647.78547  91530904.74047  22352772.368    22352771.076    22352772.187
  22352770.892          45.000          44.000
 126669992.26546  98703898.31445  24104494.308    24104491.045    24104493.899
  24104490.078          41.500          35.000
 112246947.20848  87465169.53046  21359876.181                    21359874.643
  21359871.071          50.750          40.750
 124927595.36346  97346187.02646  23772926.195    23772927.767    23772925.032
  23772926.499          38.250          41.000
 128454024.59746 100094062.38942  24443980.012                    24443978.646
  24443973.720          37.750          15.500
 115193443.35148  89761137.02146  21920573.744    21920569.384    21920573.191
  21920568.710          49.750          41.000
 118172921.52147  92082800.17147  22487553.638    22487550.477    22487552.985
  22487551.198          45.000          42.000
 17  9  2  0 16 30.0000000  0 11G18G04G10G20G24G32G21G08G13G15G27
 107700894.29048  83922784.63746  20494788.289                    20494786.908
  20494782.846          49.250          41.250
 121146224.13947  94399657.31044  23053357.582                    23053356.676
  23053352.924          44.500          27.750
 111434560.52748  86832138.72548  21205280.094    21205277.736    21205279.236
  21205277.726          51.250          48.000
 122103135.84246  95145307.27943  23235445.815                    23235443.753
  23235442.430          37.750          21.250
 117402901.10347  91482790.46947  22341021.888    22341020.967    22341021.725
  22341020.554          44.500          44.000
 126562402.82746  98620062.49145  24084019.697    24084017.971    24084019.757
  24084017.182          41.000          34.000
 112292588.96648  87500734.52346  21368561.701                    21368559.971
  21368556.337          50.250          40.250
 124886694.26846  97314316.08346  23765144.051    23765143.261    23765142.741
  23765143.258          39.500          41.000
 128561639.51346 100177918.12342  24464458.922                    24464457.615
  24464451.137          38.500          15.750
 115275340.87648  89824953.27246  21936158.345    21936154.136    21936157.841
  21936152.987          49.000          41.000
 118196708.12847  92101335.18747  22492080.041    22492077.501    22492079.268
  22492076.896          46.250          42.000
 17  9  2  0 17  0.0000000  0 11G18G04G10G20G24G32G21G08G13G15G27
 107693947.46048  83917371.52846  20493466.408                    20493465.104
  20493461.122          49.250          41.750
 121204629.70147  94445168.13744  23064472.203                    23064471.242
  23064467.880          44.250          28.000
 111376177.20748  86786645.24748  21194170.147    21194167.738    21194169.587
  21194167.519          52.000          48.000
 122197235.49646  95218631.65743  23253351.916                    23253350.315
  23253349.033          38.000          20.500
 117341640.60447  91435055.03847  22329364.495    22329363.255    22329364.050
  22329363.754          45.000          45.000
 126454965.94846  98536345.55345  24063574.888    24063574.222    24063574.932
  24063572.733          40.250          34.000
 112338656.28248  87536631.12746  21377328.043                    21377326.338
  21377322.498          50.000          40.500
 124846339.02346  97282870.48846  23757465.110    23757464.468    23757463.394
  23757463.040          41.000          41.000
 128669391.52646 100261880.68042  24484963.605                    24484961.860
  24484956.916          39.000          15.750
 115357573.94848  89889030.98747  21951806.598    21951802.007    21951806.159
  21951802.070          48.750          42.000
 118221084.16547  92120329.50247  22496718.367    22496716.524    22496717.113
  22496716.010          44.250          42.000
 17  9  2  0 17 30.0000000  0 11G18G04G10G20G24G32G21G08G13G15G27
 107687292.94448  83912186.19746  20492200.260                    20492198.945
  20492194.697          49.000          41.500
 121263488.60647  94491032.21444  23075672.943                    23075671.629
  23075668.102          44.500          27.500
 111318068.11748  86741365.45848  21183112.466    21183109.903    21183111.877
  21183110.043          51.250          48.000
 122291470.25346  95292061.29443  23271284.167                    23271282.695
  23271279.985          37.500          20.500
 117280869.18647  91387700.70847  22317799.925    22317798.436    22317799.691
  22317798.398          44.750          44.000
 126347683.53746  98452748.98345  24043159.846    24043158.939    24043158.908
  24043158.538          40.000          35.000
 112385148.81548  87572859.06846  21386175.430                    21386173.854
  21386169.778          51.500          40.750
 124806531.51246  97251851.69646  23749889.850    23749888.168    23749889.095
  23749887.811          41.000          41.000
 128777278.67246 100345948.55442  24505494.650                    24505492.592
  24505486.557          39.250          15.250
 115440140.68148  89953368.69647  21967518.250    21967514.764    21967518.279
  21967514.077          48.750          42.000
 118246048.55147  92139782.25747  22501468.928    22501466.421    22501467.990
  22501466.684          44.250          42.000
 17  9  2  0 18  0.0000000  0 11G18G04G10G20G24G32G21G08G13G15G27
 107680930.55748  83907228.50046  20490989.425                    20490988.038
  20490983.860          49.000          41.500
 121322797.99547  94537247.32444  23086959.170                    23086958.154
  23086954.262          44.500          28.000
 111260233.74848  86696299.73548  21172106.934    21172104.173    21172106.293
  21172104.334          51.750          48.000
 122385839.01646  95365595.36543  23289241.965                    23289240.884
  23289238.598          38.750          19.750
 117220588.62447  91340728.85847  22306329.106    22306327.693    22306328.536
  22306327.716          44.750          44.000
 126240556.93146  98369273.81046  24022774.425    24022774.712    24022774.067
  24022773.098          40.250          36.000
 112432065.67248  87609417.65046  21395103.677                    21395102.077
  21395097.799          51.500          40.750
 124767272.33046  97221260.16446  23742419.287    23742417.836    23742417.980
  23742416.930          41.500          40.000
 128885298.30446 100430119.67742  24526049.047                    24526047.963
  24526041.878          38.750          15.250
 115523038.23948  90017964.18046  21983293.255    21983288.904    21983292.529
  21983288.583          48.500          41.000
 118271599.69547  92159692.23947  22506331.432    22506329.255    22506330.495
  22506328.855          45.000          42.000
 17  9  2  0 18 30.0000000  0 11G18G04G10G20G24G32G21G08G13G15G27
 107674860.21648  83902498.36746  20489834.202                    20489832.713
  20489828.497          49.500          41.250
 121382555.20447  94583811.38144  23098330.316                    23098329.642
  23098326.047          43.750          28.250
 111202674.61848  86651448.48048  21161153.604    21161151.135    21161153.215
  21161151.381          51.000          48.000
 122480340.47946  95439232.80943  23307225.542                    23307223.725
  23307222.752          39.250          20.250
 117160801.28647  91294141.35247  22294951.800    22294950.166    22294951.753
  22294950.129          45.500          43.000
 126133587.60546  98285921.18146  24002418.862    24002418.532    24002418.087
  24002417.642          40.500          37.000
 112479406.25048  87646306.39946  21404112.141                    21404110.718
  21404106.407          50.750          40.750
 124728562.61646  97191096.76646  23735052.727    23735051.338    23735051.744
  23735051.526          40.500          40.000
 128993447.47446 100514391.72842  24546629.178                    24546627.051
  24546621.380          38.500          15.500
 115606263.64348  90082815.13246  21999130.485    21999126.718    21999130.197
  21999126.020          48.000          41.000
 118297735.97747  92180058.17947  22511305.249    22511302.491    22511303.864
  22511302.355          45.750          43.000
 17  9  2  0 19  0.0000000  0 11G18G04G10G20G24G32G21G08G13G15G27
 107669082.86548  83897996.54246  20488734.861                    20488733.326
  20488729.283          50.250          41.750
 121442758.42647  94630722.96244  23109786.554                    23109785.571
  23109782.097          43.750          28.500
 111145392.25348  86606812.88748  21150253.402    21150250.937    21150252.604
  21150250.901          52.000          48.000
 122574973.63846  95512972.87343  23325233.603                    23325231.624
  23325230.751          39.250          20.250
 117101510.25047  91247940.58747  22283669.440    22283667.759    22283668.764
  22283667.396          45.250          43.000
 126026777.87546  98202692.92746  23982092.805    23982094.066    23982092.651
  23982094.343          40.750          38.000
 112527170.27548  87683525.11346  21413201.254                    21413199.648
  21413195.441          51.000          40.750
 124690403.99046  97161362.81146  23727791.093    23727790.777    23727790.859
  23727790.373          40.250          40.000
 129101724.64546 100598763.55142  24567232.546                    24567231.297
  24567226.350          38.000          16.000
 115689815.29848  90147920.31646  22015029.749    22015025.385    22015028.909
  22015025.437          48.250          41.000
 118324456.80547  92200879.59747  22516389.783    22516387.498    22516388.539
  22516386.742          45.000          42.000
 17  9  2  0 19 30.0000000  0 11G18G04G10G20G24G32G21G08G13G15G27
 107663599.13648  83893723.51546  20487691.342                    20487690.026
  20487685.980          49.250          41.750
 121503405.26347  94677980.22844  23121327.083                    23121325.354
  23121323.277          44.000          28.750
 111088387.65948  86562393.73748  21139406.068    21139403.412    21139405.404
  21139403.114          52.000          48.000
 122669738.31846  95586815.42743  23343267.079                    23343264.540
  23343263.717          41.000          22.000
 117042717.82647  91202128.35047  22272481.454    22272479.562    22272480.995
  22272478.901          44.250          43.000
 125920129.63546  98119590.51246  23961798.175    23961800.242    23961797.177
  23961799.517          40.750          39.000
 112575357.65148  87721073.70446  21422371.032                    21422369.482
  21422365.413          51.000          40.750
 124652798.31146  97132059.72546  23720635.261    23720634.116    23720634.073
  23720633.932          40.500          40.000
 129210127.47846 100683233.27842  24587860.958                    24587858.929
  24587855.346          37.750          16.000
 115773691.08848  90213278.08446  22030991.372    22030987.033    22030990.844
  22030986.630          49.250          41.000
 118351761.01247  92222155.59447  22521585.641    22521583.412    22521584.665
  22521583.673          44.500          43.000
 17  9  2  0 20  0.0000000  0 11G18G04G10G20G24G32G21G08G13G15G27
 107658408.87648  83889679.16146  20486703.594                    20486702.328
  20486697.844          48.250          41.500
 121564493.09947  94725581.13044  23132951.727                    23132950.572
  23132947.893          44.250          28.500
 111031661.49248  86518191.54648  21128611.094    21128608.425    21128610.478
  21128608.707          51.500          48.000
 122764633.36446  95660759.57443  23361325.002                    23361323.993
  23361321.623          41.250          23.750
 116984426.72147  91156706.75147  22261389.014    22261386.918    22261389.287
  22261386.564          44.750          43.000
 125813644.45246  98036615.13746  23941535.595    23941536.492    23941535.614
  23941535.713          41.000          40.000
 112623967.06948  87758951.16646  21431620.905                    21431619.412
  21431615.441          51.000          40.500
 124615746.25546  97103188.03746  23713583.771    23713583.839    23713582.691
  23713582.358          39.500          40.000
 129318653.62146 100767799.05542  24608512.169                    24608511.321
  24608506.510          38.250          15.000
 115857888.17348  90278886.22247  22047013.733    22047009.535    22047013.152
  22047008.880          48.500          42.000
 118379647.09647  92243884.99547  22526892.166    22526889.663    22526891.246
  22526888.888          44.250          42.000
 17  9  2  0 20 30.0000000  0 11G18G04G10G20G24G32G21G08G13G15G27
 107653512.28748  83885863.64146  20485771.950                    20485770.642
  20485765.985          48.750          41.500
 121626019.00947  94773523.38644  23144659.328                    23144657.977
  23144655.262          43.500          28.250
 110975214.23048  86474206.68348  21117869.581    21117867.138    21117869.034
  21117867.345          52.250          48.000
 122859657.26047  95734804.12144  23379407.625                    23379406.388
  23379402.975          42.500          24.250
 116926638.78947  91111677.22747  22250392.386    22250390.519    22250392.030
  22250390.704          44.000          43.000
 125707323.66647  97953767.88346  23921303.214    23921303.819    23921302.629
  23921303.983          42.000          40.000
 112672997.96348  87797157.05446  21440951.195                    21440949.675
  21440946.238          50.000          40.250
 124579248.96346  97074748.65046  23706638.595    23706638.472    23706637.218
  23706638.265          39.500          41.000
 129427300.59746 100852459.02342  24629187.586                    24629186.077
  24629179.831          38.500          15.000
 115942403.64048  90344742.43247  22063096.130    22063092.347    22063095.612
  22063091.990          48.750          42.000
 118408113.30647  92266066.44847  22532309.616    22532306.899    22532308.293
  22532306.997          45.250          43.000
 17  9  2  0 21  0.0000000  0 11G18G04G10G20G24G32G21G08G13G15G27
 107648907.85648  83882275.78046  20484895.746                    20484894.199
  20484889.887          49.250          41.500
 121687979.53647  94821804.30044  23156450.366                    23156448.977
  23156447.201          42.750          28.250
 110919045.66948  86430438.98948  21107180.971    21107178.575    21107180.421
  21107178.702          51.500          48.000
 122954808.11247  95808947.59744  23397513.993                    23397511.958
  23397510.327          43.000          24.250
 116869355.15047  91067040.65147  22239491.538    22239489.683    22239490.780
  22239490.261          44.500          44.000
 125601167.87847  97871049.17246  23901102.183    23901102.228    23901102.217
  23901101.772          42.000          40.000
 112722448.16448  87835689.67146  21450361.454                    21450359.995
  21450356.475          50.250          40.500
 124543306.61246  97046741.67546  23699798.427    23699799.335    23699797.826
  23699798.568          40.000          41.000
 129536064.76246 100937210.28742  24649883.594                    24649883.118
  24649877.578          38.000          14.750
 116027234.34148  90410844.26246  22079238.861    22079235.197    22079237.879
  22079234.443          48.750          41.000
 118437157.12347  92288697.99347  22537836.112    22537833.651    22537834.866
  22537833.627          45.000          43.000
 17  9  2  0 21 30.0000000  0 11G18G04G10G20G24G32G21G08G13G15G27
 107644597.68548  83878917.21346  20484075.603                    20484074.323
  20484069.752          48.750          41.500
 121750373.62247  94870423.04144  23168323.580                    23168322.139
  23168319.697          43.500          28.000
 110863158.32148  86386890.42248  21096545.746    21096543.857    21096545.182
  21096543.835          51.750          49.000
 123050086.72947  95883190.63144  23415644.709                    23415642.838
  23415640.250          43.000          25.000
 116812580.28347  91022800.51747  22228687.826    22228685.849    22228686.876
  22228685.624          43.750          44.000
 125495180.49947  97788461.69546  23880933.564    23880933.194    23880933.581
  23880932.855          42.500          39.000
 112772319.18448  87874550.19646  21459851.745                    21459850.321
  21459846.386          52.250          40.500
 124507921.52246  97019168.94346  23693065.178    23693065.509    23693064.993
  23693065.631          39.750          41.000
 129644945.43846 101022052.33642  24670603.647                    24670602.134
  24670598.129          37.500          14.750
 116112379.32148  90477190.99646  22095441.337    22095436.827    22095441.066
  22095437.048          49.000          41.000
 118466778.88847  92311779.88547  22543472.880    22543470.649    22543471.698
  22543470.265          45.000          43.000
 17  9  2  0 22  0.0000000  0 11G18G04G10G20G24G32G21G08G13G15G27
 107640582.23548  83875788.30346  20483311.468                    20483310.058
  20483305.808          49.000          41.500
 121813198.73547  94919377.65244  23180278.885                    23180277.588
  23180275.400          44.250          28.000
 110807552.91548  86343561.54448  21085964.741    21085962.151    21085963.924
  21085962.452          52.000          49.000
 123145491.94347  95957532.31444  23433800.381                    23433798.235
  23433794.759          43.000          24.750
 116756316.10547  90978958.33147  22217980.755    22217979.746    22217980.053
  22217978.806          43.500          44.000
 125389363.03847  97706006.63046  23860796.842    23860795.809    23860796.884
  23860795.557          43.000          39.000
 112822609.94748  87913737.79546  21469421.842                    21469420.390
  21469416.296          51.500          40.500
 124473095.08146  96992031.50046  23686437.777    23686438.239    23686436.100
  23686437.159          39.750          41.000
 129753940.28746 101106983.35542  24691344.530                    24691343.285
  24691339.703          37.750          14.000
 116197835.95848  90543780.58746  22111703.592    22111699.083    22111702.712
  22111698.659          49.000          40.000
 118496976.95947  92335310.84447  22549219.109    22549217.400    22549217.445
  22549216.778          44.250          43.000
 17  9  2  0 22 30.0000000  0 11G18G04G10G20G24G32G21G08G13G15G27
 107636861.43448  83872888.98147  20482603.327                    20482602.005
  20482597.766          49.250          42.000
 121876451.74647  94968665.69144  23192315.581                    23192314.154
  23192313.049          43.000          28.250
 110752229.87048  86300452.69048  21075436.666    21075434.642    21075436.026
  21075434.354          52.000          49.000
 123241022.46347  96031971.64643  23451979.353                    23451978.245
  23451973.355          42.750          23.500
 116700564.43847  90935515.50747  22207371.774    22207370.200    22207371.093
  22207369.730          45.000          45.000
 125283716.84447  97623685.00446  23840693.402    23840691.988    23840693.015
  23840691.856          43.500          39.000
 112873319.69148  87953251.86146  21479071.730                    21479070.399
  21479065.918          50.000          40.500
 124438827.91346  96965329.86446  23679916.092    23679916.083    23679916.113
  23679915.467          40.250          40.000
 129863046.77546 101192001.37742  24712105.918                    24712105.799
  24712101.218          36.750          14.000
 116283601.53448  90610610.92846  22128024.162    22128019.644    22128023.844
  22128019.154          48.750          40.000
 118527749.53647  92359289.47747  22555074.439    22555073.264    22555073.966
  22555072.565          43.500          43.000
 17  9  2  0 23  0.0000000  0 11G18G04G10G20G24G32G21G08G13G15G27
 107633435.22848  83870219.21447  20481951.395                    20481950.049
  20481945.752          49.000          42.000
 121940130.16947  95018285.22844  23204433.370                    23204432.200
  23204430.189          44.250          28.500
 110697190.02848  86257564.52748  21064962.684    21064960.561    21064962.153
  21064960.672          52.750          48.000
 123336677.38347  96106507.90743  23470182.254                    23470180.584
  23470176.027          43.250          23.500
 116645327.78347  90892473.98847  22196860.251    22196858.969    22196859.636
  22196858.545          45.000          45.000
 125178243.58147  97541498.13246  23820622.525    23820620.874    23820621.393
  23820621.960          43.750          39.000
 112924447.38248  87993091.60646  21488800.905                    21488799.466
  21488795.259          50.750          40.500
 124405121.00646  96939064.77246  23673502.787    23673501.610    23673501.297
  23673501.023          40.000          40.000
 129972262.57346 101277104.57342  24732889.296                    24732889.961
  24732884.917          36.250          13.000
 116369673.62048  90677680.11546  22144402.738    22144398.219    22144402.568
  22144397.808          48.250          41.000
 118559095.11747  92383714.60047  22561039.739    22561037.758    22561038.646
  22561037.832          44.500          44.000
 17  9  2  0 23 30.0000000  0 11G18G04G10G20G24G32G21G08G13G15G27
 107630303.28248  83867778.74446  20481355.352                    20481354.115
  20481349.603          49.250          41.500
 122004231.18047  95068234.02744  23216630.979                    23216629.821
  23216628.032          43.750          28.500
 110642434.01748  86214897.51948  21054543.716    21054540.798    21054542.983
  21054540.846          51.750          48.000
 123432455.62347  96181140.27143  23488408.163                    23488407.265
  23488401.692          42.000          22.250
 116590607.92247  90849835.18247  22186447.235    22186446.057    22186447.100
  22186446.052          45.000          45.000
 125072944.67347  97459447.11746  23800584.248    23800584.052    23800583.553
  23800583.472          43.750          40.000
 112975992.08848  88033256.29246  21498609.314                    21498607.827
  21498604.080          50.750          40.250
 124371975.20246  96913236.89646  23667194.753    23667194.063    23667194.338
  23667192.987          40.250          40.000
 130081585.25846 101362291.04742  24753693.143                    24753692.707
  24753687.711          36.500          13.000
 116456049.53647  90744986.04446  22160839.641    22160835.290    22160839.071
  22160835.374          47.750          41.000
 118591011.91047  92408584.81947  22567113.434    22567111.841    22567112.087
  22567111.216          44.750          43.000
 17  9  2  0 24  0.0000000  0 11G18G04G10G20G24G32G21G08G13G15G27
 107627465.92748  83865567.82046  20480815.583                    20480814.078
  20480809.836          49.500          41.500
 122068752.12047  95118510.06244  23228908.686                    23228907.288
  23228905.913          43.000          28.250
 110587962.65848  86172452.31748  21044177.792    21044175.318    21044177.161
  21044175.320          52.500          48.000
 123528356.14447  96255867.92343  23506657.616                    23506655.561
  23506652.013          42.250          19.750
 116536407.34047  90807601.00747  22176133.590    22176131.779    22176133.262
  22176131.330          45.500          44.000
 124967821.87847  97377533.35946  23780579.927    23780579.424    23780579.634
  23780579.323          44.500          40.000
 113027953.15448  88073745.42546  21508497.133                    21508495.530
  21508491.681          50.250          40.250
 124339391.52646  96887847.05446  23660994.168    23660994.713    23660993.496
  23660993.414          40.250          40.000
 130191012.25646 101447558.80442  24774516.391                    24774515.302
  24774511.984          38.000          12.750
 116542726.99148  90812526.92846  22177333.476    22177329.546    22177332.947
  22177329.686          48.000          41.000
 118623498.41047  92433898.97047  22573295.546    22573293.582    22573294.531
  22573292.969          44.750          43.000
 17  9  2  0 24 30.0000000  0 11G18G04G10G20G24G32G21G08G13G15G27
 107624923.28248  83863586.54446  20480331.648                    20480330.213
  20480325.776          49.000          41.500
 122133690.25047  95169111.18344  23241265.802                    23241265.551
  23241262.652          43.000          27.500
 110533776.69148  86130229.50748  21033866.279    21033863.965    21033865.775
  21033864.232          51.500          48.000
 123624377.61246  96330689.81743  23524929.412                    23524927.746
  23524923.584          41.000          19.750
 116482727.79347  90765772.82847  22165918.330    22165916.923    22165917.915
  22165916.103          44.750          44.000
 124862876.65047  97295757.94246  23760609.353    23760609.497    23760609.830
  23760609.387          43.750          40.000
 113080329.74248  88114558.34246  21518463.718                    21518462.271
  21518458.964          50.000          39.750
 124307370.93546  96862895.96846  23654901.701    23654901.647    23654900.689
  23654901.009          40.750          40.000
 130300541.41746 101532906.15442  24795360.183                    24795358.624
  24795354.267          37.000          12.750
 116629703.33547  90880300.69546  22193884.475    22193881.080    22193884.150
  22193879.854          46.750          41.000
 118656552.93947  92459655.75247  22579585.668    22579583.237    22579584.554
  22579582.470          44.250          42.000
 17  9  2  0 25  0.0000000  0 11G18G04G10G20G24G32G21G08G13G15G27
 107622676.09248  83861835.48946  20479904.013                    20479902.727
  20479898.221          48.250          41.500
 122199043.08946  95220035.44044  23253702.083                    23253700.600
  23253699.117          41.250          26.500
 110479877.19948  86088229.91148  21023609.863    21023607.318    21023609.163
  21023607.337          53.000          49.000
 123720519.65146  96405605.65842  23543224.232                    23543222.825
  23543218.258          39.750          17.250
 116429572.34047  90724353.03047  22155802.856    22155801.606    22155801.944
  22155801.658          44.750          44.000
 124758110.91647  97214122.39546  23740673.351    23740672.354    23740672.721
  23740672.567          43.500          40.000
 113133121.32848  88155694.63146  21528510.299                    21528508.525
  21528504.919          50.000          40.000
 124275914.38946  96838384.41246  23648916.146    23648916.293    23648915.262
  23648914.636          41.750          40.000
 130410170.72546 101618331.54942  24816221.512                    24816219.849
  24816214.946          36.500          12.250
 116716976.37947  90948305.66046  22210491.919    22210487.936    22210490.820
  22210487.745          46.250          41.000
 118690174.08347  92485854.03747  22585983.199    22585980.810    22585982.383
  22585980.914          44.250          42.000
 17  9  2  0 25 30.0000000  0 11G18G04G10G20G24G32G21G08G13G15G27
 107620725.66548  83860315.68546  20479533.037                    20479531.617
  20479526.944          49.500          41.500
 122264809.01946  95271281.57344  23266217.188                    23266215.677
  23266215.042          41.750          25.750
 110426265.76748  86046454.78048  21013408.063    21013404.771    21013407.567
  21013405.025          52.250          48.000
 123816781.89946  96480615.16042  23561542.665                    23561542.010
  23561536.500          38.000          17.250
 116376943.71247  90683343.73747  22145788.095    22145786.957    22145787.250
  22145786.735          44.000          44.000
 124653527.09847  97132628.60446  23720770.897    23720770.171    23720771.206
  23720770.130          43.000          40.000
 113186327.67648  88197154.11146  21538634.983                    21538633.319
  21538629.393          50.750          40.250
 124245023.90346  96814313.94546  23643037.500    23643037.168    23643035.804
  23643036.600          41.000          40.000
 130519898.87846 101703833.99042  24837102.257                    24837101.234
  24837096.610          38.000          12.250
 116804544.35547  91016540.44846  22227155.802    22227151.936    22227154.769
  22227151.176          46.750          41.000
 118724361.03847  92512493.21646  22592489.391    22592486.378    22592488.633
  22592486.160          44.250          41.000
 17  9  2  0 26  0.0000000  0 11G18G04G10G20G24G32G21G08G13G15G27
 107619071.79548  83859026.96546  20479218.072                    20479216.929
  20479212.264          49.250          41.750
 122330985.29146  95322847.44444  23278810.218                    23278809.853
  23278806.966          41.250          25.750
 110372943.37848  86004904.88748  21003261.236    21003257.635    21003260.457
  21003257.999          53.000          48.000
 123913163.50646  96555717.68742  23579882.993                    23579880.486
  23579877.077          37.250          15.250
 116324844.24247  90642746.78047  22135873.755    22135872.311    22135873.634
  22135872.228          45.000          44.000
 124549126.98547  97051277.96746  23700904.170    23700904.174    23700902.889
  23700904.509          43.000          39.000
 113239948.59948  88238936.63846  21548838.716                    21548837.098
  21548833.183          51.000          39.750
 124214700.47346  96790685.33046  23637266.612    23637266.852    23637265.668
  23637266.187          40.750          40.000
 130629723.41546 101789411.53041  24858001.610                    24857998.899
  24857995.366          37.500          11.500
 116892404.99547  91085003.28746  22243874.637    22243870.088    22243873.665
  22243869.671          46.000          41.000
 118759112.35947  92539572.16047  22599101.953    22599099.412    22599101.144
  22599098.785          44.000          42.000
 17  9  2  0 26 30.0000000  0 11G18G04G10G20G24G32G21G08G13G15G27
 107617713.20048  83857968.32846  20478959.473                    20478958.172
  20478953.763          48.500          41.750
 122397567.82546  95374729.89344  23291480.920                    23291479.381
  23291477.449          41.500          25.500
 110319909.39148  85963579.71948  20993168.843    20993165.832    20993168.149
  20993165.906          51.500          48.000
 124009662.21446  96630911.46542  23598245.952                    23598244.963
  23598240.718          36.750          15.250
 116273274.27647  90602562.41247  22126060.497    22126058.798    22126060.508
  22126058.687          43.500          44.000
 124444910.80047  96970070.64546  23681072.829    23681071.396    23681071.719
  23681072.182          43.250          39.000
 113293981.38348  88281040.09246  21559120.937                    21559119.660
  21559115.446          50.250          40.000
 124184943.81246  96767498.37346  23631604.382    23631603.936    23631602.712
  23631603.693          40.500          40.000
 130739640.59546 101875061.23441  24878918.683                    24878915.499
  24878911.735          37.250          10.250
 116980554.61747  91153691.32146  22260649.115    22260644.931    22260648.603
  22260644.462          46.500          40.000
 118794424.86847  92567088.39846  22605821.551    22605818.849    22605820.293
  22605818.583          44.250          41.000
 17  9  2  0 27  0.0000000  0 11G18G04G10G20G24G32G21G08G13G15G27
 107616651.46648  83857141.01446  20478757.714                    20478756.330
  20478751.633          49.250          41.500
 122464554.69046  95426927.39244  23304228.106                    23304226.957
  23304224.353          41.000          25.250
 110267165.41048  85922480.53148  20983132.191    20983129.208    20983131.605
  20983129.325          53.500          48.000
 124106277.83246  96706196.32742  23616631.426                    23616629.619
  23616627.154          38.250          14.750
 116222237.40547  90562793.45847  22116348.657    22116346.661    22116347.671
  22116347.303          45.250          44.000
 124340880.96847  96889008.52746  23661276.914    23661275.825    23661276.432
  23661275.629          43.750          39.000
 113348426.43048  88323464.79546  21569481.357                    21569479.899
  21569475.780          51.250          39.750
 124155755.35546  96744754.17646  23626050.132    23626049.675    23626049.473
  23626048.750          40.250          40.000
 130849649.21146 101960782.19141  24899851.811                    24899850.564
  24899847.053          36.250          10.250
 117068991.49747  91222603.16946  22277478.546    22277473.476    22277477.535
  22277473.995          46.750          41.000
 118830297.66747  92595041.22947  22612647.831    22612645.732    22612647.013
  22612645.095          45.000          42.000
 17  9  2  0 27 30.0000000  0 11G18G04G10G20G24G32G21G08G13G15G27
 107615886.02248  83856544.56447  20478611.891                    20478610.651
  20478606.163          48.250          42.000
 122531943.18746  95479437.87344  23317051.591                    23317050.076
  23317048.814          41.000          25.250
 110214712.22548  85881607.93048  20973150.719    20973147.589    20973150.041
  20973148.018          53.250          48.000
 124203009.29246  96781571.45742  23635038.607                    23635037.049
  23635034.208          38.000          17.000
 116171735.80247  90523441.59547  22106738.366    22106737.269    22106737.561
  22106736.724          46.250          44.000
 124237038.97647  96808092.78146  23641516.749    23641514.612    23641516.895
  23641515.348          44.500          39.000
 113403282.42448  88366209.72246  21579920.166                    21579918.550
  21579914.094          50.250          39.250
 124127135.93146  96722453.37346  23620603.702    23620603.844    23620603.708
  23620602.778          40.750          40.000
 130959747.10645 102046572.70741  24920802.192                    24920801.016
  24920797.025          35.750          10.000
 117157712.97647  91291736.77446  22294361.673    22294357.502    22294360.671
  22294356.813          46.750          41.000
 118866728.91847  92623429.21847  22619580.781    22619577.905    22619580.503
  22619578.466          45.750          43.000
 17  9  2  0 28  0.0000000  0 11G18G04G10G20G24G32G21G08G13G15G27
 107615417.43348  83856179.44046  20478522.328                    20478521.239
  20478517.031          49.000          41.750
 122599730.73046  95532259.28144  23329951.449                    23329949.750
  23329948.764          41.250          24.500
 110162550.88148  85840962.74648  20963224.356    20963221.595    20963223.806
  20963221.860          52.750          48.000
 124299855.99846  96857036.38442  23653467.498                    23653466.265
  23653464.992          37.250          17.000
 116121770.56747  90484507.67547  22097230.299    22097229.276    22097230.167
  22097228.793          46.250          45.000
 124133386.71147  96727324.87946  23621792.715    23621790.533    23621791.757
  23621790.693          43.500          39.000
 113458548.91148  88409274.51246  21590436.702                    21590435.339
  21590431.432          51.000          39.250
 124099086.61546  96700596.79346  23615265.162    23615265.721    23615263.544
  23615264.946          40.000          40.000
 131069931.73445 102132430.79541  24941768.612                    24941768.717
  24941764.762          35.500          10.000
 117246717.26347  91361090.75146  22311298.159    22311294.186    22311297.557
  22311294.527          44.750          40.000
 118903717.21947  92652251.26247  22626619.721    22626616.893    22626618.982
  22626617.591          45.750          43.000
 17  9  2  0 28 30.0000000  0 11G18G04G10G20G24G32G21G08G13G15G27
 107615246.32648  83856046.11346  20478490.090                    20478488.576
  20478484.297          49.000          41.500
 122667915.11546  95585389.94944  23342925.306                    23342924.351
  23342923.076          40.750          24.250
 110110682.57548  85800545.90148  20953354.265    20953351.715    20953353.606
  20953351.555          52.250          48.000
 124396817.14246  96932590.47043  23671919.076                    23671916.687
  23671915.902          37.250          19.500
 116072345.18447  90445994.42247  22087824.923    22087823.887    22087824.651
  22087823.615          45.500          45.000
 124029926.14347  96646706.34546  23602104.347    23602102.680    23602104.027
  23602102.291          43.500          39.000
 113514225.05148  88452658.50846  21601031.482                    21601029.889
  21601026.114          49.750          39.000
 124071608.49047  96679185.29146  23610037.899    23610036.624    23610037.613
  23610035.978          42.000          40.000
 131180201.90745 102218355.57241  24962753.937                    24962751.544
  24962748.929          34.750           8.500
 117336001.90747  91430663.21046  22328288.125    22328284.877    22328287.269
  22328284.488          45.750          41.000
 118941261.13447  92681506.24347  22633764.355    22633761.236    22633763.321
  22633761.566          45.500          43.000
 17  9  2  0 29  0.0000000  0 11G18G04G10G20G24G32G21G08G13G15G27
 107615371.96848  83856144.02446  20478513.804                    20478512.808
  20478508.185          48.250          41.750
 122736492.40146  95638826.75743  23355975.543                    23355974.818
  23355973.389          40.000          23.500
 110059106.94848  85760357.12748  20943539.691    20943536.823    20943539.184
  20943537.052          52.500          49.000
 124493890.61746  97008232.06843  23690391.184                    23690389.594
  23690388.571          37.250          19.500
 116023460.33347  90407902.35947  22078522.468    22078521.335    22078521.992
  22078521.352          44.500          45.000
 123926657.77147  96566237.56146  23582452.785    23582452.220    23582453.285
  23582451.010          43.250          38.000
 113570308.85748  88496360.17046  21611704.079                    21611702.559
  21611698.846          49.750          39.250
 124044701.14246  96658218.59346  23604917.360    23604917.009    23604916.758
  23604916.690          41.750          40.000
 131290553.96345 102304344.15641  24983752.423                    24983751.540
  24983748.904          34.750           8.500
 117425563.49447  91500451.48146  22345330.983    22345328.525    22345330.069
  22345328.171          45.250          41.000
 118979357.63647  92711191.82547  22641013.666    22641011.524    22641013.136
  22641011.063          44.500          43.000
 17  9  2  0 29 30.0000000  0 11G18G04G10G20G24G32G21G08G13G15G27
 107615795.94948  83856474.40946  20478594.572                    20478593.299
  20478588.919          49.250          41.750
 122805461.48546  95692568.86743  23369099.769                    23369099.141
  23369096.910          39.750          22.750
 110007826.55548  85720398.39948  20933781.428    20933778.963    20933780.791
  20933778.720          53.500          48.000
 124591077.54446  97083962.06843  23708885.220                    23708884.023
  23708882.076          37.250          20.250
 115975119.66747  90370234.33147  22069323.545    22069322.092    22069322.757
  22069321.872          45.000          45.000
 123823584.88547  96485921.10446  23562838.611    23562836.991    23562837.907
  23562835.720          42.500          38.000
 113626801.36948  88540380.29546  21622454.321                    21622452.885
  21622449.139          50.750          39.250
 124018366.87346  96637698.39546  23599904.945    23599906.020    23599904.112
  23599904.039          40.750          41.000
 131400987.48945 102390396.23541  25004767.413                    25004765.685
  25004763.465          34.500           8.500
 117515401.87247  91570455.40446  22362427.411    22362423.621    22362426.528
  22362422.736          46.250          41.000
 119018006.72447  92741307.98747  22648368.193    22648365.497    22648366.889
  22648365.378          44.750          43.000
 17  9  2  0 30  0.0000000  0 11G18G04G10G20G24G32G21G08G13G15G27
 107616518.08848  83857037.11746  20478732.036                    20478730.780
  20478726.369          50.250          41.750
 122874818.63246  95746613.36843  23382297.953                    23382297.087
  23382295.905          40.000          22.750
 109956841.34548  85680669.68448  20924079.244    20924076.640    20924078.761
  20924076.710          51.500          49.000
 124688375.98446  97159778.99243  23727400.887                    23727399.309
  23727397.460          38.250          21.000
 115927324.49047  90332991.36247  22060227.792    22060226.906    22060227.377
  22060226.701          45.000          44.000
 123720708.26947  96405757.59946  23543261.555    23543259.910    23543261.551
  23543259.611          42.000          38.000
 113683701.41948  88584717.98246  21633282.053                    21633280.588
  21633276.415          50.750          39.250
 123992606.07147  96617625.06846  23595003.610    23595004.287    23595002.936
  23595003.049          42.000          41.000
 131511499.37745 102476509.35941  25025796.649                    25025796.634
  25025793.284          34.000           8.500
 117605512.60147  91640671.55446  22379574.774    22379571.161    22379574.393
  22379570.088          47.000          40.000
 119057205.70847  92771852.63847  22655827.486    22655825.545    22655826.810
  22655824.832          45.750          43.000
 17  9  2  0 30 30.0000000  0 11G18G04G10G20G24G32G21G08G13G15G27
 107617537.63048  83857831.56946  20478926.104                    20478924.939
  20478920.419          49.500          41.750
 122944561.06346  95800958.08243  23395569.434                    23395567.568
  23395567.087          40.000          21.750
 109906151.90448  85641171.43748  20914433.539    20914430.960    20914432.992
  20914431.041          52.000          49.000
 124785784.60246  97235681.75243  23745937.279                    23745935.226
  23745933.597          38.000          21.000
 115880076.11147  90296174.46447  22051237.217    22051235.544    22051236.354
  22051235.824          45.750          44.000
 123618029.25747  96325748.04346  23523722.584    23523720.236    23523722.297
  23523720.342          42.000          38.000
 113741006.95848  88629371.63046  21644187.046                    21644185.742
  21644181.147          49.750          38.750
 123967418.78346  96597998.66446  23590210.414    23590210.447    23590209.218
  23590210.202          41.500          41.000
 131622087.29045 102562681.74341  25046840.671                    25046839.610
  25046837.232          34.250           9.000
 117695893.73747  91711098.44746  22396773.265    22396769.411    22396772.613
  22396769.141          46.500          40.000
 119096952.46247  92802824.12547  22663391.140    22663388.063    22663390.393
  22663387.740          45.250          43.000
 17  9  2  0 31  0.0000000  0 11G18G04G10G20G24G32G21G08G13G15G27
 107618856.10448  83858858.95846  20479177.010                    20479175.718
  20479171.197          50.000          41.750
 123014686.72446  95855601.43043  23408914.678                    23408913.299
  23408910.448          41.250          21.750
 109855760.00148  85601905.03948  20904844.442    20904841.654    20904843.903
  20904841.554          53.000          48.000
 124883303.64646  97311670.55543  23764495.279                    23764492.921
  23764491.942          38.000          21.000
 115833377.77947  90259786.19047  22042350.747    22042349.055    22042349.890
  22042349.023          45.750          43.000
 123515550.45147  96245894.50646  23504221.015    23504219.941    23504220.548
  23504218.338          42.500          38.000
 113798718.53148  88674341.66846  21655168.983                    21655167.286
  21655163.299          50.500          38.250
 123942806.73746  96578820.46246  23585526.176    23585526.629    23585524.268
  23585526.114          40.500          40.000
 131732749.79645 102648912.24141  25067899.939                    25067898.256
  25067896.778          33.500           9.000
 117786543.81347  91781734.88746  22414023.320    22414019.736    22414023.459
  22414019.642          46.750          39.000
 119137246.06747  92834221.71547  22671058.606    22671056.397    22671057.823
  22671055.589          45.500          43.000
 17  9  2  0 31 30.0000000  0 11G18G04G10G20G24G32G21G08G13G15G27
 107620473.05648  83860118.93046  20479485.085                    20479483.439
  20479478.928          49.500          41.750
 123085192.58446  95910541.02343  23422331.645                    23422330.556
  23422325.918          41.500          21.750
 109805665.84248  85562870.64548  20895311.705    20895308.460    20895311.224
  20895308.917          53.000          49.000
 124980931.22446  97387743.94743  23783073.138                    23783071.172
  23783069.201          38.500          20.750
 115787230.60947  90223827.39347  22033569.665    22033567.223    22033568.897
  22033567.502          46.750          43.000
 123413272.77847  96166197.69446  23484757.993    23484755.638    23484757.788
  23484754.987          42.250          38.000
 113856834.33148  88719626.69246  21666228.171                    21666226.416
  21666222.498          50.250          38.250
 123918770.06546  96560090.61746  23580952.574    23580952.123    23580952.546
  23580950.798          40.750          40.000
 131843484.28845 102735198.85341  25088970.826                    25088969.926
  25088968.856          33.000           9.000
 117877459.80747  91852578.53146  22431324.330    22431320.553    22431323.776
  22431320.369          45.750          39.000
 119178084.08647  92866043.53347  22678830.024    22678827.927    22678828.846
  22678827.177          45.000          43.000
 17  9  2  0 32  0.0000000  0 11G18G04G10G20G24G32G21G08G13G15G27
 107622388.68448  83861611.63146  20479849.210                    20479848.133
  20479843.377          49.000          41.750
 123156074.78847  95965773.86743  23435820.815                    23435819.821
  23435816.039          42.000          23.000
 109755869.51448  85524068.32148  20885835.596    20885832.836    20885834.941
  20885832.868          51.500          48.000
 125078666.03946  97463900.88443  23801670.931                    23801669.864
  23801667.927          37.500          20.750
 115741636.26847  90188299.37247  22024893.257    22024891.553    22024892.643
  22024891.307          44.750          44.000
 123311197.06946  96086658.26046  23465333.477    23465331.303    23465332.676
  23465329.663          41.750          38.000
 113915352.79448  88765225.47846  21677363.651                    21677362.035
  21677358.123          50.000          38.000
 123895308.94846  96541809.25346  23576488.539    23576488.033    23576487.735
  23576487.501          41.500          40.000
 131954287.99145 102821539.40441  25110057.108                    25110056.023
  25110053.820          33.750           9.000
 117968639.20047  91923627.41846  22448675.586    22448671.592    22448674.941
  22448670.682          47.250          39.000
 119219463.80047  92898287.45447  22686704.372    22686702.241    22686703.331
  22686701.528          44.750          43.000
 17  9  2  0 32 30.0000000  0 12G18G04G10G20G24G32G21G08G13G14G15G27
 107624602.72448  83863336.86046  20480270.556                    20480269.178
  20480264.776          48.500          41.500
 123227331.05647  96021298.19944  23449379.939                    23449379.002
  23449375.862          42.750          24.000
 109706372.44248  85485499.18748  20876416.435    20876414.199    20876415.938
  20876414.165          52.000          49.000
 125176507.08946  97540140.58943  23820290.598                    23820288.198
  23820286.179          38.000          19.750
 115696597.10647  90153203.94247  22016322.541    22016320.782    22016322.111
  22016320.635          46.750          44.000
 123209325.59047  96007277.96146  23445947.885    23445946.987    23445948.011
  23445945.770          42.000          39.000
 113974273.02748  88811137.34146  21688575.650                    21688574.172
  21688570.554          50.000          38.000
 123872424.31047  96523977.10246  23572133.631    23572132.922    23572134.188
  23572132.111          42.000          40.000
 132065159.18345 102907932.54041  25131153.665                    25131153.614
  25131152.122          32.500          10.000
 130987481.65245                  24926090.089
                        34.500
 118060079.11047  91994879.29846  22466076.080    22466073.014    22466075.587
  22466071.461          47.250          40.000
 119261383.85047  92930952.41947  22694681.288    22694679.649    22694680.673
  22694679.275          45.250          43.000
 17  9  2  0 33  0.0000000  0 12G18G04G10G20G24G32G21G08G13G14G15G27
 107627115.98048  83865295.24747  20480748.958                    20480747.490
  20480743.038          49.000          42.250
 123298959.13346  96077112.26644  23463010.676                    23463009.813
  23463006.536          41.500          24.750
 109657175.87248  85447164.21248  20867054.634    20867052.214    20867054.019
  20867052.391          53.250          49.000
 125274454.32446  97616463.05643  23838929.110                    23838927.301
  23838925.132          37.500          19.750
 115652114.93547  90118542.53447  22007858.050    22007856.134    22007857.456
  22007855.614          46.250          44.000
 123107660.25546  95928058.29546  23426601.706    23426600.092    23426601.486
  23426600.663          41.750          40.000
 114033594.87048  88857362.13846  21699864.430                    21699862.646
  21699859.471          49.500          38.500
 123850117.17646  96506594.96546  23567887.927    23567887.278    23567886.758
  23567886.401          40.750          39.000
 132176096.22545 102994376.97841  25152264.712                    25152264.687
  25152262.355          32.500          10.000
 130881243.22445 101985389.68141  24905874.736                    24905872.200
  24905874.003          35.750           9.750
 118151777.82547  92066332.85946  22483525.979    22483521.937    22483525.755
  22483521.190          47.000          40.000
 119303842.80247  92964037.28747  22702760.840    22702759.349    22702760.212
  22702759.235          44.250          43.000
 17  9  2  0 33 30.0000000  0 12G18G04G10G20G24G32G21G08G13G14G15G27
 107629929.26748  83867487.42146  20481284.144                    20481282.540
  20481278.274          49.250          41.750
 123370956.87247  96133214.36744  23476710.831                    23476709.413
  23476707.399          42.500          25.000
 109608281.28948  85409064.54848  20857750.470    20857747.714    20857749.949
  20857747.955          52.750          49.000
 125372507.47146  97692868.03843  23857587.813                    23857586.953
  23857584.275          37.500          18.750
 115608192.88947  90084317.58047  21999499.816    21999497.433    21999499.412
  21999497.371          46.500          44.000
 123006203.42047  95849001.10846  23407295.516    23407294.731    23407295.473
  23407293.825          43.500          41.000
 114093317.61748  88903899.33046  21711229.468                    21711227.856
  21711224.711          50.000          38.500
 123828388.90946  96489663.89046  23563753.774    23563752.001    23563752.653
  23563751.147          39.750          39.000
 132287097.59745 103080871.54441  25173387.654                    25173387.071
  25173386.009          33.750          10.500
 130775095.86746 101902677.58841  24885675.431                    24885673.012
  24885673.360          36.000          11.500
 118243733.90347  92137986.95746  22501024.139    22501020.295    22501023.663
  22501020.123          46.250          40.000
 119346839.29347  92997541.03247  22710943.304    22710942.105    22710942.261
  22710941.642          45.000          43.000
 17  9  2  0 34  0.0000000  0 11G18G04G10G20G24G32G21G08G14G15G27
 107633041.96248  83869912.90346  20481876.712                    20481875.407
  20481870.646          50.000          41.750
 123443320.55747  96189601.63344  23490480.673                    23490479.869
  23490477.950          42.000          25.000
 109559688.62348  85371200.14348  20848503.587    20848500.892    20848503.037
  20848500.909          53.500          49.000
 125470664.56246  97769354.02642  23876266.742                    23876265.163
  23876263.662          37.750          17.500
 115564831.40847  90050529.42447  21991248.051    21991246.466    21991247.838
  21991246.144          46.250          44.000
 122904955.64747  95770106.81146  23388029.184    23388027.833    23388028.519
  23388028.181          43.500          41.000
 114153439.54348  88950747.56446  21722670.382                    21722668.986
  21722665.464          50.500          38.000
 123807239.15846  96473183.62546  23559729.008    23559728.842    23559728.096
  23559727.981          40.750          39.000
 130669040.47946 101820037.17441  24865492.804                    24865492.012
  24865492.282          36.500          11.500
 118335943.89847  92209838.90046  22518571.644    22518567.852    22518571.327
  22518566.824          47.000          40.000
 119390370.39147  93031461.35547  22719226.667    22719225.497    22719225.367
  22719225.465          44.500          43.000
 17  9  2  0 34 30.0000000  0 11G18G04G10G20G24G32G21G08G14G15G27
 107636454.02848  83872571.66146  20482525.686                    20482524.562
  20482519.817          49.500          41.750
 123516046.90347  96246271.49644  23504319.914                    23504318.924
  23504317.289          42.000          24.750
 109511398.32548  85333571.34948  20839314.312    20839311.828    20839313.564
  20839311.597          52.750          49.000
 125568924.48446  97845920.16442  23894964.361                    23894962.302
  23894961.327          38.250          17.500
 115522032.47947  90017179.62647  21983103.740    21983102.026    21983103.679
  21983101.892          46.000          45.000
 122803918.10947  95691376.34246  23368802.054    23368801.460    23368801.537
  23368801.698          43.750          41.000
 114213959.36348  88997905.86246  21734186.778                    21734185.528
  21734181.554          50.500          37.500
 123786667.87246  96457154.08746  23555814.879    23555815.209    23555812.964
  23555813.658          41.750          41.000
 130563078.35946 101737469.43942  24845330.005                    24845326.857
  24845326.991          36.750          14.250
 118428405.05747  92281886.57646  22536166.000    22536161.614    22536165.209
  22536162.084          46.000          40.000
 119434433.79647  93065796.46047  22727611.335    22727610.521    22727610.483
  22727610.221          44.250          43.000
 17  9  2  0 35  0.0000000  0 11G18G04G10G20G24G32G21G08G14G15G27
 107640166.68648  83875464.64746  20483232.302                    20483230.919
  20483226.346          48.500          41.750
 123589134.00346  96303222.44844  23518228.213                    23518226.102
  23518224.414          41.250          24.250
 109463412.09548  85296179.49048  20830183.071    20830179.555    20830182.437
  20830179.890          52.500          49.000
 125667286.89846  97922566.17943  23913681.915                    23913680.192
  23913678.611          38.500          18.250
 115479798.17747  89984269.79847  21975066.970    21975065.073    21975066.332
  21975065.064          45.250          45.000
 122703093.34647  95612811.67746  23349615.387    23349614.681    23349614.954
  23349615.048          44.250          41.000
 114274877.00748  89045374.13346  21745778.969                    21745777.680
  21745773.593          48.500          37.000
 123766676.46346  96441576.37446  23552010.508    23552009.530    23552010.098
  23552008.533          41.750          41.000
 130457212.03346 101654976.36742  24825183.026                    24825182.107
  24825180.989          37.250          14.250
 118521116.01947  92354128.90046  22553807.861    22553804.946    22553807.749
  22553803.879          45.000          40.000
 119479028.31347  93100545.41247  22736097.612    22736096.214    22736097.111
  22736095.415          44.250          43.000
 17  9  2  0 35 30.0000000  0 11G18G04G10G20G24G32G21G08G14G15G27
 107644179.82847  83878591.77147  20483995.823                    20483994.361
  20483990.406          47.750          42.000
 123662578.83246  96360452.15244  23532204.381                    23532202.746
  23532201.326          40.750          24.000
 109415730.61648  85259025.10148  20821109.618    20821106.243    20821108.891
  20821106.378          53.000          49.000
 125765751.00946  97999291.43543  23932419.047                    23932417.657
  23932415.707          39.000          18.250
 115438130.41947  89951801.44347  21967137.167    21967135.936    21967136.970
  21967135.625          45.750          45.000
 122602482.74547  95534413.87946  23330470.264    23330468.432    23330470.168
  23330468.692          45.000          41.000
 114336191.50748  89093151.64546  21757446.766                    21757445.391
  21757441.168          49.000          36.750
 123747265.59346  96426451.05446  23548316.277    23548315.182    23548315.201
  23548314.316          41.250          40.000
 130351442.85946 101572558.99242  24805056.066                    24805055.030
  24805053.310          38.000          14.500
 118614074.33747  92426563.97346  22571497.526    22571493.879    22571496.982
  22571493.772          44.750          40.000
 119524151.75947  93135706.52547  22744684.564    22744682.761    22744683.328
  22744683.146          44.750          43.000
 17  9  2  0 36  0.0000000  0 11G18G04G10G20G24G32G21G08G14G15G27
 107648493.47648  83881953.05746  20484816.854                    20484815.389
  20484811.150          50.000          41.750
 123736378.40346  96417958.29843  23546247.923                    23546247.451
  23546245.004          40.500          23.750
 109368354.61348  85222108.74748  20812093.867    20812090.562    20812093.364
  20812090.825          53.000          48.000
 125864315.44446  98076094.86343  23951176.982                    23951175.273
  23951172.275          41.000          18.250
 115397031.11247  89919776.03647  21959316.862    21959315.157    21959316.635
  21959314.707          46.250          45.000
 122502087.80747  95456184.12146  23311365.464    23311363.878    23311365.170
  23311362.861          44.500          40.000
 114397901.18348  89141237.08046  21769189.977                    21769188.144
  21769184.191          50.000          37.250
 123728435.17346  96411778.03146  23544733.238    23544732.221    23544732.297
  23544731.421          41.500          41.000
 130245771.96346 101490218.20842  24784948.031                    24784947.162
  24784944.747          38.250          14.500
 118707277.56447  92499189.86746  22589233.447    22589229.549    22589232.776
  22589229.077          46.250          40.000
 119569801.95147  93171278.07347  22753371.487    22753369.897    22753369.836
  22753369.337          44.000          42.000
 17  9  2  0 36 30.0000000  0 11G18G04G10G20G24G32G21G08G14G15G27
 107653107.05848  83885548.06247  20485694.541                    20485693.379
  20485688.828          48.250          42.000
 123810529.27946  96475738.16143  23560358.481                    23560357.853
  23560355.867          41.000          23.750
 109321284.28148  85185430.57848  20803136.486    20803133.876    20803135.741
  20803133.821          52.250          49.000
 125962979.00446  98152975.52443  23969951.592                    23969950.772
  23969947.191          40.750          18.250
 115356500.96747  89888194.13947  21951604.107    21951602.583    21951603.529
  21951602.008          44.500          45.000
 122401909.56247  95378123.22946  23292301.676    23292299.889    23292301.182
  23292298.891          44.750          40.000
 114460004.58148  89189629.32246  21781007.778                    21781006.116
  21781002.430          50.750          37.750
 123710185.61846  96397557.62546  23541259.710    23541259.428    23541258.562
  23541259.244          40.250          41.000
 130140200.34046 101407954.78742  24764857.882                    24764856.812
  24764854.991          37.750          15.500
 118800722.76547  92572004.33346  22607015.781    22607012.639    22607015.406
  22607012.469          46.250          41.000
 119615976.31847  93207258.08647  22762157.820    22762156.369    22762156.729
  22762156.524          44.750          43.000
 17  9  2  0 37  0.0000000  0 11G18G04G10G20G24G32G21G08G14G15G27
 107658022.04348  83889377.92546  20486629.933                    20486628.582
  20486624.089          49.250          41.250
 123885029.67846  96533790.38843  23574535.747                    23574534.687
  23574532.301          41.500          23.250
 109274521.65848  85148992.18148  20794237.783    20794235.264    20794237.021
  20794235.286          52.750          49.000
 126061741.64946  98229933.39843  23988745.663                    23988743.949
  23988739.991          40.750          18.250
 115316542.86147  89857057.98147  21944000.558    21943998.641    21943999.944
  21943998.783          47.000          45.000
 122301950.40747  95300233.02846  23273279.670    23273278.256    23273279.483
  23273277.729          43.500          40.000
 114522501.48948  89238328.19346  21792900.619                    21792899.056
  21792895.379          50.500          38.500
 123692518.08646  96383790.74246  23537897.394    23537897.521    23537897.232
  23537897.874          41.000          41.000
 130034731.12746 101325771.16442  24744786.650                    24744786.063
  24744784.403          37.000          15.500
 118894408.43247  92645006.16946  22624843.562    22624840.748    22624842.935
  22624840.008          45.750          41.000
 119662673.66847  93243645.62047  22771044.339    22771042.731    22771043.850
  22771042.037          44.750          42.000
 17  9  2  0 37 30.0000000  0 11G18G04G10G20G24G32G21G08G14G15G27
 107663238.30448  83893442.55146  20487622.565                    20487621.162
  20487616.808          49.250          41.500
 123959876.50446  96592112.54943  23588778.424                    23588777.063
  23588774.974          40.750          23.500
 109228067.25148  85112793.95548  20785397.719    20785395.188    20785397.278
  20785395.375          52.000          49.000
 126160602.28546  98306967.61442  24007557.334                    24007556.548
  24007552.705          39.750          17.000
 115277158.46947  89826368.87547  21936505.784    21936503.774    21936505.142
  21936503.573          47.000          44.000
 122202211.81947  95222514.70046  23254299.845    23254298.257    23254298.838
  23254297.718          44.000          40.000
 114585390.55748  89287332.64246  21804867.865                    21804865.957
  21804863.130          49.250          38.500
 123675432.64546  96370477.44646  23534646.143    23534646.056    23534645.779
  23534645.305          41.000          41.000
 129929365.49946 101243668.25642  24724736.310                    24724734.699
  24724735.758          36.750          15.500
 118988332.02747  92718193.40746  22642716.354    22642713.584    22642715.247
  22642712.743          44.750          40.000
 119709891.74147  93280438.91147  22780030.002    22780027.992    22780029.308
  22780027.385          45.500          42.000
 17  9  2  0 38  0.0000000  0 11G18G04G10G20G24G32G21G08G14G15G27
 107668756.13448  83897742.16846  20488672.753                    20488671.387
  20488667.003          50.250          41.750
 124035067.08246  96650702.55843  23603086.870                    23603086.598
  23603082.684          41.500          23.250
 109181922.16448  85076836.75848  20776616.764    20776614.438    20776616.220
  20776614.467          52.750          49.000
 126259560.21446  98384077.64642  24026388.365                    24026387.267
  24026385.302          39.500          17.000
 115238349.58047  89796128.22747  21929120.505    21929118.478    21929119.907
  21929118.186          46.500          44.000
 122102695.53947  95144969.60146  23235362.458    23235362.029    23235361.834
  23235360.943          45.000          40.000
 114648671.12048  89336642.16346  21816909.815                    21816908.358
  21816905.250          50.000          38.500
 123658929.83546  96357618.14946  23531506.797    23531505.872    23531505.679
  23531505.434          41.500          41.000
 129824104.85446 101161647.17142  24704705.748                    24704704.888
  24704704.435          36.500          15.500
 119082491.59147  92791564.52946  22660634.021    22660630.951    22660633.911
  22660630.980          44.250          40.000
 119757628.58547  93317636.44346  22789113.977    22789111.664    22789113.445
  22789111.508          45.000          41.000
 17  9  2  0 38 30.0000000  0 11G18G04G10G20G24G32G21G08G14G15G27
 107674575.73548  83902276.92646  20489779.851                    20489778.677
  20489774.220          48.500          41.500
 124110597.95247  96709557.76443  23617459.912                    23617458.280
  23617455.445          42.500          23.250
 109136086.66948  85041120.79448  20767894.664    20767892.107    20767893.640
  20767892.196          52.250          49.000
 126358613.87246  98461262.28242  24045237.697                    24045236.261
  24045233.783          39.500          14.500
 115200117.46547  89766336.99847  21921845.233    21921843.882    21921844.528
  21921842.808          46.000          45.000
 122003402.57947  95067598.51146  23216468.028    23216466.696    23216467.220
  23216466.446          45.750          41.000
 114712341.93248  89386255.76546  21829026.090                    21829024.300
  21829021.007          50.750          38.500
 123643009.91846  96345213.03446  23528477.143    23528476.184    23528476.846
  23528474.493          41.750          41.000
 129718950.45946 101079708.86342  24684696.047                    24684695.156
  24684694.096          37.000          15.750
 119176884.30347  92865117.30846  22678596.507    22678592.560    22678596.458
  22678592.284          46.750          40.000
 119805881.57247  93355236.18046  22798296.197    22798294.101    22798295.559
  22798294.230          44.750          41.000
 17  9  2  0 39  0.0000000  0 11G18G04G10G20G24G32G21G08G14G15G27
 107680696.73848  83907046.54446  20490944.933                    20490943.483
  20490939.089          49.000          41.500
 124186466.19446  96768675.85143  23631897.484                    23631896.106
  23631893.386          41.750          23.750
 109090561.53748  85005646.68048  20759231.365    20759229.006    20759230.725
  20759229.160          51.750          50.000
 126457762.40046  98538520.83642  24064105.612                    24064102.478
  24064099.681          39.500          14.500
 115162463.58747  89736996.34247  21914679.915    21914678.140    21914678.975
  21914678.054          46.500          45.000
 121904334.39047  94990402.55446  23197616.413    23197615.091    23197616.048
  23197614.875          45.500          41.000
 114776400.85248  89436171.79046  21841216.304                    21841214.835
  21841210.932          50.000          38.250
 123627672.71146  96333261.98946  23525558.545    23525557.794    23525557.600
  23525557.348          41.500          40.000
 129613903.58646 100997854.33742  24664706.250                    24664705.508
  24664703.662          38.250          16.750
 119271507.59347  92938849.76746  22696603.369    22696599.745    22696602.971
  22696598.691          46.750          40.000
 119854648.40547  93393236.31047  22807576.297    22807574.414    22807575.344
  22807573.967          44.250          42.000
 17  9  2  0 39 30.0000000  0 11G18G04G10G20G24G32G21G08G14G15G27
 107687119.48748  83912051.29246  20492167.047                    20492165.570
  20492161.028          49.750          41.750
 124262668.98346  96828054.62944  23646398.107                    23646397.180
  23646394.681          41.500          24.500
 109045347.61448  84970415.06948  20750627.724    20750625.305    20750627.166
  20750625.324          52.750          50.000
 126557004.78046  98615852.53342  24082990.545                    24082988.160
  24082984.574          39.000          13.250
 115125389.72347  89708107.64147  21907624.820    21907623.483    21907624.264
  21907622.531          43.750          45.000
 121805492.55447  94913382.96346  23178807.497    23178806.190    23178806.860
  23178805.645          45.500          41.000
 114840847.17448  89486389.68446  21853479.991                    21853478.481
  21853474.189          50.750          37.500
 123612918.51946  96321765.24746  23522751.189    23522750.370    23522750.594
  23522749.120          41.750          41.000
 129508966.05446 100916084.99542  24644737.602                    24644736.289
  24644732.533          38.500          16.750
 119366359.37647  93012760.26446  22714653.067    22714649.620    22714652.600
  22714648.067          46.500          40.000
 119903926.90747  93431635.13346  22816953.248    22816951.893    22816952.908
  22816951.337          44.250          41.000
 17  9  2  0 40  0.0000000  0 11G18G04G10G20G24G32G21G08G14G15G27
 107693844.80548  83917291.80946  20493446.921                    20493445.515
  20493440.863          49.250          41.500
 124339203.76846  96887692.10244  23660962.186                    23660960.768
  23660958.963          41.500          24.750
 109000446.29648  84935427.05248  20742083.553    20742080.778    20742082.781
  20742080.917          52.500          50.000
 126656340.64946  98693257.07842  24101894.194                    24101892.504
  24101889.834          41.000          13.250
 115088897.74247  89679672.35747  21900680.703    21900679.126    21900680.058
  21900678.922          46.250          45.000
 121706879.17447  94836541.39846  23160041.777    23160040.790    23160041.217
  23160040.573          45.500          41.000
 114905680.21548  89536908.91846  21865817.106                    21865815.637
  21865811.344          49.500          37.000
 123598748.41846  96310723.62946  23520054.676    23520053.659    23520053.621
  23520053.408          40.750          40.000
 129404139.62646 100834402.21442  24624791.051                    24624788.585
  24624784.920          38.000          16.750
 119461437.86047  93086847.41346  22732745.438    22732741.923    22732745.395
  22732741.517          45.250          40.000
 119953715.47247  93470431.40447  22826427.771    22826426.279    22826426.473
  22826426.276          44.750          42.000
 17  9  2  0 40 30.0000000  0 11G18G04G10G20G24G32G21G08G14G15G27
 107700872.57548  83922767.99746  20494784.203                    20494782.763
  20494778.100          49.750          41.500
 124416067.45846  96947585.87944  23675588.564                    23675587.096
  23675585.939          41.750          24.750
 108955858.11248  84900683.03848  20733598.410    20733595.838    20733597.765
  20733595.871          52.750          50.000
 126755768.96746  98770733.66442  24120814.488                    24120811.646
  24120809.782          39.750          12.750
 115052988.65847  89651691.27747  21893847.189    21893845.764    21893846.800
  21893845.621          46.250          45.000
 121608495.43747  94759878.77446  23141319.594    23141318.783    23141318.709
  23141319.299          45.500          41.000
 114970898.68148  89587728.48046  21878228.134                    21878226.522
  21878221.764          50.500          37.000
 123585162.27046  96300137.05946  23517468.884    23517467.979    23517467.776
  23517467.706          41.250          40.000
 129299425.87946 100752807.22542  24604863.508                    24604862.793
  24604859.416          38.000          16.750
 119556740.32247  93161109.10346  22750880.978    22750876.929    22750880.139
  22750876.292          46.250          39.000
 120004011.52247  93509623.11547  22835998.861    22835997.642    22835997.822
  22835997.056          43.750          42.000
 17  9  2  0 41  0.0000000  0 11G18G04G10G20G24G32G21G08G14G15G27
 107708203.72448  83928480.58546  20496179.216                    20496177.869
  20496173.429          49.000          41.500
 124493257.94646  97007734.28544  23690277.233                    23690276.546
  23690273.282          41.500          25.000
 108911584.69948  84866184.30448  20725172.927    20725170.510    20725172.537
  20725170.609          53.250          50.000
 126855289.42546  98848282.06642  24139752.267                    24139750.356
  24139748.166          38.750          12.750
 115017665.26547  89624166.57647  21887125.394    21887123.587    21887124.813
  21887123.228          46.000          45.000
 121510343.71047  94683396.93946  23122641.832    23122641.370    23122640.712
  23122641.945          45.250          41.000
 115036502.00848  89638847.92546  21890711.825                    21890710.478
  21890705.992          49.750          37.250
 123572161.05246  96290006.27446  23514994.382    23514994.222    23514992.933
  23514992.920          40.250          40.000
 129194826.62746 100671301.45642  24584958.674                    24584956.813
  24584955.067          38.000          16.750
 119652265.18647  93235544.08246  22769058.726    22769053.732    22769058.567
  22769053.788          46.500          39.000
 120054813.58847  93549209.13147  22845666.203    22845665.104    22845664.929
  22845664.891          45.000          43.000
 17  9  2  0 41 30.0000000  0 11G18G04G10G20G24G32G21G08G14G15G27
 107715837.57548  83934429.04046  20497631.913                    20497630.367
  20497626.154          50.250          41.500
 124570771.73747  97068134.62044  23705028.363                    23705027.105
  23705026.139          42.000          25.000
 108867626.22948  84831930.97148  20716808.093    20716805.308    20716807.485
  20716805.654          52.750          49.000
 126954900.44546  98925901.01942  24158708.221                    24158705.913
  24158703.563          40.250          12.750
 114982928.55147  89597099.03147  21880514.936    21880513.526    21880514.504
  21880512.964          46.250          45.000
 121412424.83047  94607096.54746  23104008.833    23104007.718    23104008.137
  23104006.689          45.250          41.000
 115102488.19848  89690265.70546  21903268.878                    21903267.457
  21903263.057          51.250          37.000
 123559744.64346  96280331.18346  23512631.923    23512631.798    23512631.149
  23512630.637          40.500          41.000
 129090343.24446 100589885.97742  24565076.186                    24565074.412
  24565072.066          37.750          16.750
 119748009.93147  93310150.38146  22787278.609    22787274.011    22787278.297
  22787273.593          46.250          40.000
 120106118.82247  93589187.23547  22855429.424    22855428.059    22855428.693
  22855428.040          45.500          43.000
 17  9  2  0 42  0.0000000  0 11G18G04G10G20G24G32G21G08G14G15G27
 107723773.96948  83940613.24646  20499142.253                    20499140.791
  20499136.436          49.500          41.500
 124648605.18047  97128784.02844  23719839.927                    23719839.225
  23719836.726          42.500          25.000
 108823983.09348  84797923.35248  20708503.290    20708500.521    20708502.779
  20708500.588          52.500          49.000
 127054600.82646  99003589.59442  24177681.395                    24177679.497
  24177674.804          40.250          12.750
 114948779.16147  89570489.13247  21874016.445    21874014.766    21874016.069
  21874014.540          44.250          44.000
 121314739.84447  94530978.40046  23085419.929    23085418.530    23085419.482
  23085418.092          45.000          40.000
 115168855.88948  89741980.76946  21915898.074                    21915896.276
  21915892.332          49.000          37.000
 123547912.38246  96271111.28946  23510379.905    23510380.204    23510379.490
  23510379.309          40.750          41.000
 128985976.69846 100508561.54042  24545215.905                    24545213.434
  24545212.348          37.000          17.250
 119843971.56347  93384925.68346  22805539.479    22805535.112    22805538.656
  22805535.216          45.750          40.000
 120157924.44247  93629555.24347  22865287.914    22865286.126    22865286.714
  22865286.369          46.000          43.000
 17  9  2  0 42 30.0000000  0 11G18G04G10G20G24G32G21G08G14G15G27
 107732013.60448  83947033.74646  20500710.118                    20500708.731
  20500704.149          48.500          41.750
 124726755.65146  97189680.47044  23734711.598                    23734710.554
  23734708.566          41.250          24.750
 108780656.33948  84764162.26548  20700258.322    20700255.635    20700257.844
  20700255.748          52.250          49.000
 127154389.71646  99081347.14442  24196670.392                    24196668.153
  24196664.860          40.250          14.500
 114915218.81347  89544338.23247  21867629.930    21867628.686    21867629.657
  21867627.921          45.500          45.000
 121217290.48547  94455043.88346  23066875.708    23066874.208    23066875.205
  23066873.862          44.250          41.000
 115235604.12648  89793992.36046  21928599.803                    21928598.037
  21928594.320          49.750          36.750
 123536664.70646  96262346.90446  23508240.244    23508239.755    23508239.366
  23508237.917          41.500          41.000
 128881728.45046 100427329.28742  24525378.448                    24525376.403
  24525373.438          36.500          16.500
 119940148.01247  93459868.37346  22823841.237    22823836.864    22823840.312
  22823836.713          45.000          41.000
 120210228.39447  93670311.56447  22875241.138    22875239.276    22875240.192
  22875238.917          45.750          42.000
 17  9  2  0 43  0.0000000  0 11G18G04G10G20G24G32G21G08G14G15G27
 107740556.98148  83953690.92946  20502335.796                    20502334.313
  20502330.221          49.000          41.750
 124805220.77346  97250822.10544  23749642.536                    23749641.141
  23749639.351          40.750          24.000
 108737647.16648  84730648.64248  20692074.003    20692071.486    20692073.296
  20692071.278          52.250          49.000
 127254266.69146  99159173.31942  24215675.723                    24215673.961
  24215669.867          39.500          15.750
 114882249.33947  89518647.75647  21861356.257    21861355.009    21861355.949
  21861354.656          44.750          45.000
 121120078.64047  94379294.44146  23048376.937    23048375.515    23048376.651
  23048375.473          45.000          41.000
 115302731.87648  89846299.67346  21941373.521                    21941372.050
  21941368.471          49.500          36.500
 123526002.16247  96254038.44746  23506211.343    23506209.825    23506210.014
  23506209.254          42.000          41.000
 128777600.59846 100346190.84442  24505562.680                    24505560.889
  24505558.556          36.000          16.500
 120036537.04147  93534976.69146  22842183.479    22842178.974    22842182.207
  22842177.929          45.000          40.000
 120263028.70447  93711454.66147  22885288.082    22885286.259    22885287.404
  22885285.845          45.250          42.000
 17  9  2  0 43 30.0000000  0 11G18G04G10G20G24G32G21G08G14G15G27
 107749404.09548  83960584.78546  20504019.229                    20504017.929
  20504013.585          49.500          41.500
 124883997.77146  97312206.75243  23764633.390                    23764632.280
  23764628.646          41.000          22.250
 108694956.74148  84697383.38548  20683950.245    20683947.670    20683949.546
  20683947.723          53.750          50.000
 127354230.94946  99237067.50342  24234697.929                    24234696.306
  24234693.038          38.250          15.750
 114849872.36147  89493418.95247  21855195.155    21855193.822    21855194.347
  21855193.371          47.750          44.000
 121023106.10147  94303731.48546  23029924.336    23029922.636    23029923.667
  23029922.796          44.000          41.000
 115370238.21848  89898901.98846  21954219.620                    21954217.939
  21954214.331          49.750          36.000
 123515925.51846  96246186.54046  23504293.380    23504292.697    23504292.474
  23504291.705          41.000          40.000
 128673595.40745 100265147.97542  24485770.336                    24485769.507
  24485768.013          34.750          16.500
 120133137.17947  93610249.54646  22860565.769    22860561.960    22860565.352
  22860561.717          44.500          40.000
 120316323.34247  93752982.95447  22895429.574    22895428.880    22895428.635
  22895428.831          45.250          43.000
 17  9  2  0 44  0.0000000  0 11G18G04G10G20G24G32G21G08G14G15G27
 107758556.51248  83967716.54147  20505760.954                    20505759.845
  20505755.281          49.500          42.000
 124963084.37946  97373832.66543  23779682.994                    23779680.935
  23779679.225          40.250          22.250
 108652586.69248  84664367.77548  20675887.691    20675885.002    20675887.116
  20675885.236          53.250          50.000
 127454282.33046  99315029.56642  24253737.641                    24253735.624
  24253733.023          37.500          15.750
 114818090.43648  89468653.84247  21849147.161    21849146.048    21849146.277
  21849145.311          48.000          44.000
 120926375.18947  94228356.78646  23011516.306    23011514.601    23011515.872
  23011514.450          44.750          41.000
 115438122.64348  89951798.91445  21967137.683                    21967136.059
  21967131.929          49.250          35.750
 123506435.15446  96238791.49546  23502486.493    23502486.004    23502485.913
  23502486.319          41.250          40.000
 128569714.22145 100184201.75242  24466003.159                    24466000.801
  24465998.789          35.500          16.500
 120229946.92147  93685685.71546  22878988.080    22878984.137    22878987.424
  22878983.645          44.750          40.000
 120370110.80147  93794895.25647  22905664.581    22905663.990    22905663.920
  22905663.441          43.750          43.000
 17  9  2  0 44 30.0000000  0 11G18G04G10G20G24G32G21G08G14G15G27
 107768013.04148  83975085.27146  20507560.427                    20507559.267
  20507554.591          48.750          41.500
 125042476.86546  97435696.93443  23794790.181                    23794788.709
  23794786.084          38.500          20.750
 108610536.83948  84631601.67148  20667885.895    20667883.137    20667885.114
  20667883.395          53.000          50.000
 127554419.01146  99393058.09842  24272794.645                    24272792.307
  24272787.715          38.000          15.750
 114786904.14248  89444352.85847  21843212.745    21843210.862    21843212.285
  21843210.380          48.500          44.000
 120829886.39147  94153170.76646  22993154.802    22993153.452    22993154.776
  22993153.803          44.750          41.000
 115506383.02648  90004988.81145  21980127.217                    21980125.396
  21980121.016          49.500          35.500
 123497530.19147  96231852.58646  23500792.380    23500790.923    23500790.781
  23500790.067          42.000          39.000
 128465958.19845 100103353.04142  24446258.204                    24446257.280
  24446256.307          35.000          15.750
 120326962.83447  93761282.55146  22897449.207    22897445.385    22897449.214
  22897445.027          45.500          40.000
 120424387.73347  93837188.95747  22915993.732    22915992.974    22915992.610
  22915992.782          44.750          43.000
 17  9  2  0 45  0.0000000  0 11G18G04G10G20G24G32G21G08G14G15G27
 107777773.26448  83982690.64146  20509417.949                    20509416.461
  20509412.004          49.500          41.250
 125122171.42546  97497796.59843  23809955.814                    23809953.730
  23809951.031          39.250          20.750
 108568807.31748  84599085.17948  20659944.788    20659942.297    20659944.204
  20659942.514          52.500          50.000
 127654639.48246  99471151.92042  24291864.818                    24291864.407
  24291859.859          37.500          15.250
 114756313.91748  89420516.35147  21837391.830    21837389.635    21837391.020
  21837389.185          48.250          44.000
 120733640.50047  94078174.01347  22974840.271    22974839.419    22974839.454
  22974838.717          45.250          42.000
 115575017.10848  90058469.88145  21993188.001                    21993186.439
  21993182.238          48.250          35.250
 123489210.28646  96225369.57846  23499210.012    23499207.513    23499209.304
  23499207.397          41.750          39.000
 128362327.76945 100022602.18942  24426537.560                    24426536.840
  24426536.715          34.500          15.750
 120424182.09047  93837037.83146  22915949.328    22915946.292    22915949.030
  22915945.051          46.250          40.000
 120479151.03047  93879861.64547  22926414.836    22926414.276    22926414.012
  22926414.157          44.750          44.000
 17  9  2  0 45 30.0000000  0 11G18G04G10G20G24G32G21G08G14G15G27
 107787837.67948  83990533.04546  20511332.986                    20511331.581
  20511327.100          49.750          41.250
 125202165.72446  97560129.84343  23825178.731                    23825177.045
  23825173.480          39.000          20.000
 108527399.53848  84566819.38748  20652065.164    20652062.326    20652064.444
  20652062.771          52.500          50.000
 127754943.55745  99549310.90242  24310951.597                    24310951.267
  24310946.642          35.250          15.250
 114726321.00048  89397145.27647  21831684.151    21831681.929    21831683.557
  21831681.703          48.750          44.000
 120637639.52847  94003368.10947  22956571.605    22956570.264    22956570.935
  22956570.235          44.250          42.000
 115644024.32148  90112241.70145  22006319.474                    22006317.961
  22006313.942          48.500          34.750
 123481475.56047  96219342.53246  23497738.001    23497735.692    23497737.414
  23497735.155          42.250          40.000
 128258825.30145  99941951.05742  24406840.326                    24406839.413
  24406838.937          33.750          15.500
 120521602.84947  93912950.12446  22934488.044    22934484.176    22934488.403
  22934484.130          45.000          40.000
 120534398.80547  93922911.85147  22936928.008    22936927.499    22936927.271
  22936926.981          45.250          44.000
 17  9  2  0 46  0.0000000  0 11G18G04G10G20G24G32G21G08G14G15G27
 107798207.20848  83998613.20146  20513306.291                    20513304.988
  20513300.407          50.000          41.750
 125282456.73946  97622694.28743  23840457.348                    23840455.991
  23840453.865          39.500          20.250
 108486314.40248  84534805.00548  20644247.108    20644244.304    20644246.496
  20644244.621          53.500          50.000
 127855330.02545  99627534.05342  24330053.354                    24330053.072
  24330049.695          31.500          15.000
 114696927.45548  89374241.23647  21826091.046    21826088.636    21826090.190
  21826088.235          48.000          44.000
 120541885.01647  93928754.25147  22938350.205    22938348.904    22938349.789
  22938348.873          45.000          42.000
 115713403.52148  90166303.36645  22019522.028                    22019520.438
  22019516.106          49.750          34.750
 123474326.52347  96213771.87846  23496377.476    23496376.000    23496376.994
  23496374.839          42.500          40.000
 128155452.18545  99861400.71442  24387171.090                    24387168.924
  24387167.468          34.750          15.500
 120619222.96947  93989017.76146  22953064.372    22953060.144    22953063.943
  22953059.545          44.750          40.000
 120590128.84247  93966337.83247  22947533.015    22947532.652    22947532.528
  22947532.200          44.750          43.000
 17  9  2  0 46 30.0000000  0 11G18G04G10G20G24G32G21G08G14G15G27
 107808882.13848  84006931.33347  20515337.953                    20515336.402
  20515331.844          50.250          42.250
 125363042.15846  97685488.12943  23855791.890                    23855791.255
  23855789.031          39.500          20.250
 108445553.48049  84503043.25048  20636490.433    20636487.695    20636490.003
  20636487.901          54.250          50.000
 127955799.27744  99705821.70142  24349172.391                    24349170.580
  24349168.890          29.500          15.000
 114668134.79348  89351805.42847  21820611.774    21820609.350    21820611.105
  21820609.393          49.250          44.000
 120446379.15347  93854334.14947  22920176.140    22920174.692    22920175.338
  22920174.100          45.750          42.000
 115783153.94347  90220654.31145  22032794.841                    22032793.676
  22032789.689          47.500          34.250
 123467763.52446  96208657.87346  23495128.498    23495126.287    23495127.178
  23495125.352          41.750          40.000
 128052210.93145  99780953.11242  24367524.166                    24367523.136
  24367519.505          35.750          14.750
 120717041.14647  94065239.74046  22971678.582    22971674.351    22971677.905
  22971673.755          44.000          40.000
 120646339.31247  94010138.17447  22958229.853    22958228.527    22958228.973
  22958228.574          43.000          43.000
 17  9  2  0 47  0.0000000  0 11G18G04G10G20G24G32G21G08G14G15G27
 107819862.84148  84015487.72746  20517427.129                    20517425.909
  20517421.490          49.000          41.750
 125443919.14946  97748509.15143  23871182.212                    23871180.515
  23871179.399          39.250          20.750
 108405117.51948  84471534.71348  20628795.709    20628792.877    20628795.092
  20628792.954          53.250          49.000
 128056349.68444  99784172.60641  24368308.123                    24368304.764
  24368303.445          28.500           9.250
 114639945.02548  89329839.39647  21815247.552    21815245.963    21815247.161
  21815245.106          51.000          45.000
 120351123.38047  93780108.92747  22902049.453    22902048.084    22902049.055
  22902047.141          45.750          42.000
 115853274.41148  90275293.61545  22046138.324                    22046136.968
  22046133.210          48.000          34.250
 123461786.64547  96204000.58546  23493990.283    23493989.286    23493989.618
  23493989.428          42.000          40.000
 127949102.65745  99700609.12342  24347903.038                    24347901.894
  24347899.957          35.250          14.500
 120815055.23747  94141614.39046  22990329.650    22990326.194    22990329.425
  22990326.229          43.750          39.000
 120703027.83547  94054311.01847  22969017.536    22969015.349    22969017.201
  22969015.591          43.500          43.000
 17  9  2  0 47 30.0000000  0 10G18G04G10G24G32G21G08G14G15G27
 107831148.53048  84024281.76646  20519574.811                    20519573.126
  20519568.981          49.500          41.750
 125525083.63646  97811754.18943  23886627.743                    23886626.848
  23886624.659          40.000          21.250
 108365006.40348  84440279.30048  20621162.797    20621159.985    20621162.314
  20621160.032          53.250          49.000
 114612357.58448  89308342.71247  21809998.007    21809995.866    21809997.441
  21809995.551          50.000          45.000
 120256118.19547  93706078.97747  22883970.769    22883968.826    22883969.872
  22883968.247          46.500          43.000
 115923762.29947  90330219.21745  22059551.742                    22059549.978
  22059547.077          47.500          34.000
 123456394.78246  96199799.15246  23492964.914    23492964.020    23492964.062
  23492963.792          41.750          41.000
 127846128.09346  99620369.34442  24328307.203                    24328306.086
  24328304.562          36.250          14.500
 120913261.86847  94218139.08146  23009017.768    23009013.809    23009017.129
  23009013.377          43.750          39.000
 120760190.86747  94098853.61347  22979895.613    22979893.226    22979894.278
  22979893.174          43.500          42.000
 17  9  2  0 48  0.0000000  0 10G18G04G10G24G32G21G08G14G15G27
 107842740.09448  84033314.15747  20521780.806                    20521779.506
  20521774.970          49.000          42.000
 125606533.39746  97875221.51743  23902127.694                    23902126.059
  23902124.008          40.750          21.250
 108325221.72048  84409278.25448  20613592.160    20613588.880    20613591.439
  20613589.170          53.250          50.000
 114585374.76448  89287317.16547  21804863.241    21804861.660    21804862.674
  21804860.882          49.250          45.000
 120161365.77047  93632245.97747  22865940.085    22865938.167    22865939.399
  22865937.806          45.000          43.000
 115994617.48047  90385431.02445  22073035.194                    22073033.809
  22073029.511          47.750          34.000
 123451588.39946  96196053.94346  23492050.281    23492050.530    23492049.914
  23492048.925          41.750          41.000
 127743289.15046  99540235.22742  24308738.449                    24308736.341
  24308734.775          36.500          14.750
 121011659.53447  94294812.59546  23027742.320    23027738.571    23027741.638
  23027737.858          44.250          39.000
 120817826.76646  94143764.69147  22990862.154    22990860.766    22990861.472
  22990860.834          41.750          42.000
 17  9  2  0 48 30.0000000  0 10G18G04G10G24G32G21G08G14G15G27
 107854637.07048  84042584.53546  20524044.729                    20524043.431
  20524039.074          49.000          41.750
 125688264.96046  97938908.41443  23917680.429                    23917679.310
  23917676.364          40.000          21.500
 108285763.65448  84378531.71748  20606083.532    20606080.478    20606082.897
  20606080.928          53.500          50.000
 114558997.19048  89266763.21747  21799843.666    21799841.972    21799842.962
  21799841.308          50.750          45.000
 120066866.93647  93558610.58547  22847957.339    22847955.562    22847957.254
  22847955.208          46.750          42.000
 116065837.58247  90440927.17445  22086587.895                    22086586.448
  22086583.074          47.000          33.750
 123447367.06347  96192764.60346  23491247.849    23491246.168    23491246.406
  23491245.535          43.250          41.000
 127640586.91046  99460207.63642  24289194.221                    24289192.741
  24289191.709          36.250          14.750
 121110245.18547  94371632.58346  23046503.210    23046498.178    23046502.956
  23046498.324          44.750          39.000
 120875932.35346  94189041.75147  23001919.114    23001918.354    23001918.197
  23001917.830          41.500          42.000
 17  9  2  0 49  0.0000000  0 10G18G04G10G24G32G21G08G14G15G27
 107866839.46548  84052092.89946  20526366.715                    20526365.138
  20526361.123          48.500          41.750
 125770274.77246  98002812.13843  23933285.590                    23933285.266
  23933283.923          39.250          22.500
 108246632.79349  84348040.13648  20598637.197    20598634.330    20598636.541
  20598634.470          54.500          50.000
 114533225.49048  89246681.38347  21794939.649    21794937.282    21794938.793
  21794937.185          50.500          45.000
 119972622.88847  93485173.74447  22830022.769    22830021.266    22830022.937
  22830020.848          46.500          43.000
 116137421.03248  90496706.45045  22100210.015                    22100208.601
  22100204.668          48.500          34.250
 123443730.16947  96189930.66446  23490555.939    23490554.107    23490555.291
  23490554.232          43.500          40.000
 127538022.79746  99380287.65042  24269676.165                    24269674.770
  24269673.967          36.500          15.500
 121209016.72047  94448597.43946  23065299.169    23065293.863    23065298.715
  23065293.616          46.500          39.000
 120934504.92346  94234682.69247  23013065.083    23013064.401    23013064.144
  23013064.448          41.250          42.000
 17  9  2  0 49 30.0000000  0 10G18G04G10G24G32G21G08G14G15G27
 107879347.26448  84061839.23946  20528746.620                    20528745.259
  20528741.274          49.000          41.750
 125852560.16746  98066930.59743  23948944.638                    23948944.002
  23948941.410          39.250          22.500
 108207830.11148  84317804.28348  20591253.142    20591250.533    20591252.548
  20591250.685          53.750          50.000
 114508061.23148  89227072.89847  21790151.046    21790149.168    21790149.779
  21790148.751          49.000          45.000
 119878635.17547  93411936.64147  22812137.429    22812136.620    22812137.005
  22812136.286          46.500          43.000
 116209366.34447  90552767.68545  22113900.741                    22113898.983
  22113894.948          47.000          34.250
 123440677.50647  96187551.96646  23489974.599    23489972.679    23489973.384
  23489972.573          43.250          40.000
 127435598.05046  99300476.25242  24250185.562                    24250184.036
  24250182.419          37.000          15.500
 121307972.02747  94525705.49946  23084129.878    23084124.079    23084128.917
  23084123.828          47.250          38.000
 120993542.02747  94280685.61647  23024300.317    23024298.255    23024298.579
  23024298.626          42.250          42.000
 17  9  2  0 50  0.0000000  0 10G18G04G10G24G32G21G08G14G15G27
 107892161.59448  84071824.43146  20531185.035                    20531183.618
  20531179.494          48.500          41.500
 125935118.70946  98131261.88443  23964655.219                    23964653.751
  23964652.483          38.750          22.500
 108169357.02048  84287825.25548  20583931.972    20583929.294    20583931.404
  20583929.490          53.000          50.000
 114483505.82247  89207938.83447  21785478.090    21785476.277    21785477.243
  21785476.039          47.250          45.000
 119784905.83547  93338900.86247  22794301.233    22794299.823    22794301.042
  22794300.003          45.250          43.000
 116281673.01648  90609110.50245  22127660.279                    22127658.229
  22127654.542          48.500          33.750
 123438209.50547  96185628.86246  23489504.461    23489502.337    23489504.358
  23489502.638          43.000          39.000
 127333314.73746  99220775.06542  24230721.415                    24230721.164
  24230719.359          37.250          16.250
 121407109.28447  94602955.34646  23102994.879    23102990.031    23102994.743
  23102989.077          47.500          38.000
 121053041.78947  94327049.03947  23035623.154    23035621.677    23035622.585
  23035620.934          43.250          42.000
 17  9  2  0 50 30.0000000  0 10G18G04G10G24G32G21G08G14G15G27
 107905282.35048  84082048.40046  20533682.159                    20533680.826
  20533676.058          50.750          41.750
 126017947.24346  98195803.56743  23980417.340                    23980415.344
  23980414.163          38.750          22.000
 108131214.29548  84258103.65448  20576673.727    20576670.693    20576673.023
  20576670.969          53.000          50.000
 114459560.59248  89189280.23747  21780921.446    21780919.493    21780920.668
  21780919.169          49.500          45.000
 119691436.27447  93266067.48647  22776514.827    22776513.138    22776514.400
  22776513.005          46.500          42.000
 116354339.55648  90665733.71545  22141488.364                    22141486.666
  22141482.257          48.750          34.000
 123436326.21847  96184161.38646  23489146.369    23489144.199    23489145.945
  23489144.210          43.750          39.000
 127231174.23146  99141185.13442  24211285.592                    24211283.812
  24211282.467          38.750          16.250
 121506426.38047  94680345.34246  23121894.237    23121888.964    23121893.909
  23121889.076          46.000          38.000
 121113001.57947  94373770.93847  23047032.981    23047031.242    23047032.142
  23047031.108          43.000          42.000
 17  9  2  0 51  0.0000000  0 10G18G04G10G24G32G21G08G14G15G27
 107918709.73248  84092511.29946  20536237.193                    20536235.864
  20536231.351          49.000          41.500
 126101043.22246  98260553.63843  23996229.500                    23996229.011
  23996226.586          37.750          21.250
 108093403.00848  84228640.31748  20569478.556    20569475.687    20569477.949
  20569475.851          53.750          50.000
 114436226.36548  89171097.73247  21776480.867    21776479.119    21776480.121
  21776478.894          48.250          45.000
 119598228.08447  93193437.79647  22758777.316    22758776.011    22758777.298
  22758775.709          46.000          42.000
 116427364.70548  90722636.37945  22155384.782                    22155383.162
  22155378.657          48.500          34.250
 123435027.47847  96183149.39846  23488898.881    23488897.781    23488896.918
  23488896.513          43.000          40.000
 127129178.68146  99061708.15542  24191877.371                    24191876.013
  24191871.429          39.250          16.750
 121605921.32647  94757873.91646  23140827.026    23140822.712    23140826.640
  23140821.693          45.500          39.000
 121173419.04847  94420849.46747  23058530.632    23058528.094    23058530.335
  23058528.926          43.250          42.000
 17  9  2  0 51 30.0000000  0 11G18G04G10G20G24G32G21G08G14G15G27
 107932443.76348  84103213.14247  20538850.589                    20538849.170
  20538844.813          49.500          42.000
 126184402.81846  98325509.11843  24012091.257                    24012090.392
  24012089.312          37.250          21.250
 108055923.47649  84199435.49548  20562346.372    20562343.638    20562345.781
  20562343.604          54.250          50.000
 128964750.31345                  24541177.933
                        35.500
 114413504.09648  89153392.08847  21772157.319    21772155.174    21772156.553
  21772154.993          50.500          45.000
 119505282.20247  93121012.49747  22741090.807    22741088.995    22741090.055
  22741088.685          46.000          42.000
 116500746.48447  90779816.93445  22169348.869                    22169347.386
  22169343.750          47.750          34.500
 123434312.32747  96182592.13646  23488762.549    23488761.833    23488761.933
  23488760.082          42.250          40.000
 127027328.63546  98982344.53342  24172495.758                    24172494.926
  24172491.477          39.750          16.750
 121705591.53947  94835539.05946  23159793.995    23159789.634    23159794.227
  23159789.409          46.500          39.000
 121234291.15447  94468282.25447  23070113.745    23070111.504    23070112.650
  23070112.092          42.750          42.000
 17  9  2  0 52  0.0000000  0 11G18G04G10G20G24G32G21G08G14G15G27
 107946485.03048  84114154.38947  20541522.691                    20541521.308
  20541516.709          50.000          42.000
 126268023.36346  98390667.93543  24028003.156                    24028002.032
  24028001.606          36.000          20.250
 108018776.65248  84170489.92848  20555277.263    20555274.695    20555276.787
  20555274.653          53.500          50.000
 129066058.89446 100570961.2924   24560455.955                    24560455.048
  24560451.253          37.500           1.000
 114391394.46148  89136163.83047  21767949.706    21767947.545    21767948.503
  21767947.469          48.250          44.000
 119412600.17847  93048792.80847  22723453.931    22723452.067    22723453.307
  22723451.983          46.750          42.000
 116574483.59047  90837274.37445  22183380.651                    22183379.184
  22183375.274          47.750          34.750
 123434180.43047  96182489.37746  23488737.737    23488737.356    23488737.065
  23488736.437          42.750          40.000
 126925625.89346  98903095.69242  24153142.134                    24153140.582
  24153137.464          38.250          16.750
 121805435.16047  94913339.31346  23178793.784    23178788.331    23178793.107
  23178788.274          45.500          39.000
 121295615.41547  94516067.37246  23081783.615    23081781.111    23081782.156
  23081780.820          43.250          41.000
 17  9  2  0 52 30.0000000  0 11G18G04G10G20G24G32G21G08G14G15G27
 107960834.08448  84125335.47246  20544253.296                    20544251.833
  20544247.236          50.000          41.750
 126351902.70946  98456028.41343  24043966.492                    24043964.908
  24043964.207          36.750          20.250
 107981964.32748  84141805.01548  20548272.330    20548269.384    20548271.678
  20548269.360          53.750          50.000
 129167439.13646 100649958.83341  24579746.887                    24579745.778
  24579744.626          37.750           6.750
 114369899.88548  89119414.84947  21763859.209    21763857.277    21763858.373
  21763857.174          49.250          44.000
 119320184.36847  92976780.56347  22705868.001    22705866.388    22705868.033
  22705865.880          47.000          42.000
 116648575.61748  90895008.39045  22197480.015                    22197478.575
  22197474.824          48.500          34.500
 123434632.81547  96182841.88146  23488823.956    23488822.535    23488823.132
  23488821.703          43.000          40.000
 126824072.53546  98823963.26142  24133816.759                    24133815.709
  24133811.674          38.500          16.000
 121905450.93047  94991273.70746  23197825.622    23197820.776    23197825.153
  23197820.524          45.000          39.000
 121357390.21247  94564203.56746  23093538.524    23093535.838    23093537.203
  23093536.947          42.000          41.000
 17  9  2  0 53  0.0000000  0 11G18G04G10G20G24G32G21G08G14G15G27
 107975491.14947  84136756.56846  20547042.277                    20547041.039
  20547036.394          47.250          41.750
 126436037.70046  98521588.12643  24059977.257                    24059975.446
  24059973.291          38.250          20.250
 107945487.15948  84113381.26148  20541330.909    20541327.668    20541330.238
  20541327.965          52.250          49.000
 129268890.28746 100729011.62241  24599053.263                    24599049.721
  24599050.579          36.500           6.750
 114349021.26547  89103145.82147  21759886.385    21759884.139    21759885.531
  21759883.887          46.750          44.000
 119228036.00147  92904976.71347  22688332.364    22688330.604    22688332.172
  22688330.607          46.250          42.000
 116723020.97648  90953017.73245  22211646.439                    22211644.809
  22211641.520          48.500          34.750
 123435668.69747  96183649.07046  23489021.462    23489019.584    23489020.886
  23489019.285          43.250          40.000
 126722670.05746  98744948.39142  24114519.965                    24114519.582
  24114516.303          38.000          16.000
 122005636.66247  95069340.55546  23216890.496    23216885.958    23216890.272
  23216885.415          45.000          39.000
 121419612.67646  94612688.59046  23105378.648    23105375.988    23105377.674
  23105376.005          41.750          40.000
 17  9  2  0 53 30.0000000  0 11G18G04G10G20G24G32G21G08G14G15G27
 107990455.09248  84148416.79446  20549889.720                    20549888.308
  20549884.203          49.250          41.750
 126520424.29546  98587343.87943  24076035.618                    24076033.495
  24076030.429          38.750          20.750
 107909345.02448  84085218.57448  20534453.276    20534450.229    20534452.630
  20534450.179          53.750          50.000
 129370410.30246 100808118.08842  24618371.529                    24618369.413
  24618369.148          37.250          15.500
 114328758.02048  89087356.29547  21756030.312    21756028.726    21756029.721
  21756027.995          50.000          44.000
 119136155.48447  92833381.56547  22670847.980    22670846.611    22670847.648
  22670846.321          47.250          42.000
 116797816.98948  91011300.29945  22225879.841                    22225878.061
  22225874.414          48.000          34.750
 123437287.03747  96184910.13146  23489329.356    23489327.143    23489328.029
  23489326.665          43.750          40.000
 126621419.08846  98666051.56942  24095253.053                    24095251.405
  24095249.859          38.250          15.250
 122105988.84347  95147537.08446  23235986.683    23235982.326    23235986.029
  23235981.146          44.250          40.000
 121482279.24147  94661519.67646  23117304.345    23117301.413    23117303.300
  23117301.231          42.750          40.000
 17  9  2  0 54  0.0000000  0 11G18G04G10G20G24G32G21G08G14G15G27
 108005727.10148  84160317.06946  20552795.906                    20552794.593
  20552790.102          49.750          41.750
 126605060.11446  98653293.83843  24092139.759                    24092139.011
  24092137.478          38.000          20.750
 107873539.37549  84057318.08448  20527639.774    20527636.730    20527639.135
  20527636.719          55.500          50.000
 129471999.20346 100887278.21342  24637702.511                    24637700.710
  24637700.344          36.250          15.500
 114309111.93048  89072047.65847  21752291.748    21752289.614    21752291.011
  21752289.793          50.500          45.000
 119044544.88747  92761996.74347  22653414.586    22653413.582    22653414.011
  22653413.419          46.750          42.000
 116872962.97948  91069855.57845  22240179.351                    22240177.974
  22240174.284          48.500          34.250
 123439487.82047  96186625.04046  23489747.644    23489747.122    23489746.218
  23489746.229          42.250          40.000
 126520321.42646  98587274.21542  24076014.663                    24076013.118
  24076011.185          37.250          15.250
 122206506.52847  95225862.58346  23255114.757    23255110.274    23255113.851
  23255109.857          45.500          40.000
 121545388.01047  94710695.32646  23129313.697    23129310.832    23129313.045
  23129310.235          42.750          39.000
 17  9  2  0 54 30.0000000  0 11G18G04G10G20G24G32G21G08G14G15G27
 108021307.39948  84172457.56746  20555760.790                    20555759.566
  20555755.123          50.750          41.750
 126689942.56946  98719435.97043  24108293.140                    24108291.739
  24108289.725          37.500          20.000
 107838071.35048  84029680.67448  20520890.541    20520887.543    20520889.873
  20520887.695          53.750          50.000
 129573655.80046 100966491.13042  24657046.902                    24657045.802
  24657045.105          36.250          15.000
 114290084.23948  89057220.90347  21748671.022    21748669.392    21748670.281
  21748669.276          49.250          45.000
 118953205.89047  92690823.55647  22636033.446    22636031.977    22636033.246
  22636032.377          47.000          43.000
 116948457.67347  91128682.58345  22254545.296                    22254543.814
  22254539.984          47.500          33.750
 123442270.81247  96188793.60246  23490277.578    23490276.018    23490276.371
  23490276.164          42.000          40.000
 126419378.79946  98508617.68242  24056806.779                    24056803.869
  24056802.501          37.500          16.250
 122307187.54247  95304315.35546  23274273.273    23274268.937    23274272.684
  23274268.426          43.750          39.000
 121608936.53947  94760213.64246  23141406.645    23141402.875    23141406.081
  23141402.385          43.000          39.000
 17  9  2  0 55  0.0000000  0 11G18G04G10G20G24G32G21G08G14G15G27
 108037195.66048  84184838.03147  20558784.507                    20558783.117
  20558778.670          49.250          42.000
 126775067.88646  98785767.37643  24124490.820                    24124490.542
  24124489.601          38.500          20.250
 107802941.09549  84002306.46248  20514205.564    20514202.846    20514204.874
  20514202.599          55.000          50.000
 129675379.04646 101045755.97442  24676405.047                    24676403.166
  24676402.485          36.000          15.000
 114271674.72948  89042875.84447  21745168.001    21745165.663    21745167.047
  21745165.668          50.250          45.000
 118862139.21347  92619862.56647  22618704.487    22618702.497    22618703.623
  22618702.315          47.000          43.000
 117024299.05347  91187779.70845  22268977.530                    22268976.199
  22268972.507          46.500          33.500
 123445635.01247  96191415.04646  23490917.620    23490916.888    23490916.943
  23490916.088          43.500          41.000
 126318591.91246  98430082.51142  24037627.308                    24037625.038
  24037622.985          37.500          16.500
 122408029.08547  95382893.23846  23293462.389    23293457.934    23293461.907
  23293458.374          42.500          39.000
 121672921.49347  94810072.02346  23153582.658    23153579.398    23153582.081
  23153578.969          42.750          39.000
 17  9  2  0 55 30.0000000  0 11G18G04G10G20G24G32G21G08G14G15G27
 108053392.15848  84197458.69046  20561866.538                    20561865.293
  20561860.804          48.500          41.750
 126860433.28446  98852285.85643  24140736.908                    24140735.949
  24140735.372          39.750          20.250
 107768149.67148  83975196.27848  20507584.794    20507581.953    20507584.217
  20507582.051          53.250          50.000
 129777168.22946 101125072.16742  24695775.627                    24695772.629
  24695772.377          36.000          13.750
 114253884.62848  89029013.44447  21741782.250    21741780.838    21741781.691
  21741780.695          50.250          46.000
 118771346.43747  92549114.99647  22601426.862    22601424.994    22601426.559
  22601424.867          47.000          43.000
 117100485.80548  91247145.95745  22283475.818                    22283474.452
  22283470.244          48.000          33.750
 123449580.34547  96194489.34846  23491668.348    23491668.038    23491667.974
  23491666.944          43.750          41.000
 126217962.76546  98351670.27242  24018477.998                    24018476.317
  24018473.154          37.250          16.500
 122509029.25946  95461594.72846  23312681.694    23312677.969    23312681.253
  23312678.018          41.750          39.000
 121737340.40547  94860268.55446  23165840.966    23165838.498    23165840.757
  23165838.189          42.000          39.000
 17  9  2  0 56  0.0000000  0 11G18G04G10G20G24G32G21G08G14G15G27
 108069896.78848  84210319.44546  20565007.294                    20565005.814
  20565001.289          48.000          41.750
 126946035.09046  98918988.53643  24157026.960                    24157026.160
  24157025.527          40.750          21.750
 107733697.36648  83948350.34148  20501028.610    20501025.777    20501027.729
  20501025.896          53.250          50.000
 129879021.78146 101204438.49842  24715158.425                    24715155.548
  24715154.073          36.750          12.500
 114236714.39548  89015634.04147  21738515.278    21738512.962    21738514.633
  21738513.095          49.000          46.000
 118680828.37347  92478581.48547  22584201.723    22584200.468    22584201.446
  22584199.759          46.750          42.000
 117177015.89648  91306779.74745  22298038.911                    22298037.310
  22298033.461          49.250          33.250
 123454105.62647  96198015.56546  23492529.731    23492528.241    23492528.214
  23492527.257          43.500          40.000
 126117492.12846  98273381.54642  23999358.049                    23999356.849
  23999355.282          36.750          17.000
 122610185.54846  95540417.82946  23331931.914    23331928.503    23331931.278
  23331927.273          41.750          39.000
 121802190.13746  94910800.78546  23178181.796    23178180.103    23178181.558
  23178178.231          41.750          39.000
 17  9  2  0 56 30.0000000  0 11G18G04G10G20G24G32G21G08G14G15G27
 108086709.60548  84223420.35046  20568206.381                    20568205.093
  20568200.800          48.750          41.500
 127031870.55346  98985873.30443  24173360.867                    24173360.629
  24173358.497          41.250          23.000
 107699585.29148  83921769.51948  20494537.250    20494534.454    20494536.565
  20494534.536          53.250          50.000
 129980939.21546 101283854.62142  24734552.557                    24734550.150
  24734547.658          36.000          12.500
 114220165.23148  89002738.59747  21735366.024    21735363.527    21735365.040
  21735363.665          49.000          46.000
 118590586.72547  92408263.37547  22567029.429    22567027.957    22567028.747
  22567027.456          47.750          43.000
 117253888.05948  91366680.09545  22312667.577                    22312666.220
  22312662.128          48.000          33.000
 123459210.90646  96201993.72046  23493500.625    23493499.633    23493499.113
  23493498.575          41.750          40.000
 126017181.75346  98195217.68342  23980268.549                    23980267.914
  23980266.326          36.500          17.000
 122711496.12547  95619361.18646  23351210.454    23351205.420    23351210.960
  23351205.882          42.500          39.000
 121867468.18446  94961666.77446  23190603.433    23190601.424    23190602.255
  23190601.325          41.000          40.000
 17  9  2  0 57  0.0000000  0 11G18G04G10G20G24G32G21G08G14G15G27
 108103832.36148  84236762.75346  20571464.866                    20571463.595
  20571459.020          50.500          41.250
 127117938.36646  99052939.11743  24189738.555                    24189737.495
  24189735.223          41.500          23.000
 107665815.90248  83895455.72148  20488111.079    20488108.503    20488110.493
  20488108.468          53.500          50.000
 130082921.20445 101363321.09341  24753957.082                    24753956.818
  24753954.594          34.500          11.000
 114204239.32648  88990328.82247  21732335.058    21732333.323    21732334.321
  21732333.280          49.250          46.000
 118500624.45448  92338162.95747  22549910.334    22549908.623    22549909.908
  22549908.098          48.250          43.000
 117331102.11748  91426846.82745  22327360.582                    22327359.188
  22327355.612          48.250          32.750
 123464896.89047  96206424.36846  23494582.625    23494580.351    23494581.613
  23494579.793          42.000          38.000
 125917034.48246  98117180.92642  23961211.015                    23961210.286
  23961209.536          36.250          17.000
 122812960.66447  95698424.48746  23370519.620    23370514.636    23370518.476
  23370513.654          42.750          39.000
 121933173.44446  95012865.64846  23203106.151    23203105.077    23203105.455
  23203103.845          41.000          40.000
 17  9  2  0 57 30.0000000  0 11G18G04G10G20G24G32G21G08G14G15G27
 108121264.33248  84250346.11347  20574781.971                    20574780.544
  20574776.146          49.500          42.000
 127204234.49846  99120182.83943  24206160.584                    24206158.869
  24206156.452          40.250          22.750
 107632388.83848  83869408.67248  20481750.008    20481747.386    20481749.426
  20481747.580          53.250          50.000
 130184965.62545 101442836.21241  24773375.227                    24773372.807
  24773372.462          32.250          11.000
 114188936.28248  88978404.38747  21729423.031    21729421.578    21729422.282
  21729421.282          48.250          46.000
 118410941.79448  92268280.40847  22532844.200    22532842.344    22532843.612
  22532841.691          48.000          43.000
 117408655.71647  91487278.15045  22342118.887                    22342117.239
  22342113.411          47.250          33.250
 123471161.70947  96211306.05846  23495776.018    23495773.253    23495775.039
  23495772.995          43.000          38.000
 125817050.57346  98039271.44842  23942185.482                    23942184.713
  23942182.932          36.500          17.000
 122914575.92846  95777605.24746  23389855.654    23389851.354    23389855.381
  23389849.831          41.750          39.000
 121999302.07846  95064394.43946  23215689.955    23215688.864    23215688.682
  23215687.673          41.000          39.000
 17  9  2  0 58  0.0000000  0 11G18G04G10G20G24G32G21G08G14G15G27
 108139004.63748  84264169.72746  20578157.761                    20578156.347
  20578151.956          49.250          41.750
 127290754.83546  99187601.24643  24222625.242                    24222622.842
  24222621.007          40.500          21.500
 107599304.18348  83843628.43848  20475454.364    20475451.396    20475453.732
  20475451.783          53.500          50.000
 130287070.95045 101522398.77241  24792806.388                    24792803.744
  24792801.098          31.750           8.250
 114174255.46048  88966964.80647  21726629.596    21726627.347    21726628.987
  21726627.401          49.500          46.000
 118321539.26947  92198616.14447  22515831.340    22515829.786    22515831.115
  22515829.049          47.250          42.000
 117486546.67047  91547972.34645  22356940.727                    22356938.254
  22356935.462          46.000          32.500
 123478004.33947  96216638.01646  23497078.447    23497074.585    23497077.952
  23497075.035          44.000          38.000
 125717230.86846  97961489.92142  23923190.269                    23923189.019
  23923189.252          37.750          17.250
 123016338.94847  95856901.14046  23409221.545    23409216.046    23409219.701
  23409215.980          42.250          38.000
 122065850.61846  95116250.43146  23228353.663    23228351.694    23228352.553
  23228351.069          41.000          39.000
 17  9  2  0 58 30.0000000  0 11G18G04G10G20G24G32G21G08G14G15G27
 108157053.71448  84278233.94146  20581592.243                    20581590.894
  20581586.800          50.250          41.250
 127377496.34046  99255192.00743  24239130.676                    24239129.440
  24239128.409          40.250          21.500
 107566562.75149  83818115.65248  20469223.867    20469220.961    20469223.342
  20469221.030          54.000          50.000
 130389236.14245 101602007.99141  24812249.528                    24812246.221
  24812244.017          34.250           8.250
 114160198.44748  88956011.31047  21723954.293    21723952.366    21723953.717
  21723952.118          48.500          46.000
 118232418.20647  92129171.19647  22498872.125    22498870.692    22498871.768
  22498869.901          47.250          43.000
 117564772.61247  91608927.58145  22371826.544                    22371824.891
  22371821.382          46.250          32.000
 123485424.03547  96222419.60346  23498489.210    23498488.060    23498488.922
  23498486.384          42.000          39.000
 125617576.66046  97883837.35343  23904227.039                    23904226.802
  23904224.076          39.250          18.750
 123118247.74047  95936310.64346  23428613.737    23428608.553    23428613.856
  23428607.932          42.500          38.000
 122132816.26046  95168431.42746  23241097.451    23241094.549    23241095.800
  23241094.056          41.750          38.000
 17  9  2  0 59  0.0000000  0 11G18G04G10G20G24G32G21G08G14G15G27
 108175412.23648  84292539.28446  20585086.027                    20585084.605
  20585080.417          50.500          41.750
 127464457.03246  99322953.56443  24255678.797                    24255676.856
  24255675.810          39.250          20.250
 107534166.06248  83792871.49348  20463058.962    20463055.747    20463058.497
  20463055.973          53.750          50.000
 130491461.11045 101681663.79141  24831701.446                    24831698.431
  24831696.342          33.750           6.250
 114146766.04848  88945544.48847  21721398.453    21721396.361    21721397.607
  21721396.264          49.000          45.000
 118143580.66247  92059947.16247  22481967.204    22481965.331    22481966.736
  22481964.891          47.000          43.000
 117643332.91547  91670143.34245  22386775.671                    22386773.615
  22386771.143          45.000          31.500
 123493420.80146  96228650.84446  23500010.566    23500010.076    23500008.309
  23500008.907          41.250          40.000
 125518090.30746  97806315.58643  23885294.851                    23885294.214
  23885291.934          39.000          18.750
 123220300.99147  96015832.69946  23448034.013    23448028.485    23448032.157
  23448027.211          42.000          37.000
 122200196.98547  95220935.87546  23253919.353    23253916.214    23253918.696
  23253915.419          42.500          38.000
 17  9  2  0 59 30.0000000  0 11G18G04G10G20G24G32G21G08G14G15G27
 108194081.99548  84307087.14746  20588638.768                    20588637.471
  20588632.860          50.000          41.750
 127551634.86146  99390884.30743  24272267.356                    24272266.040
  24272264.323          38.500          18.250
 107502116.32049  83767897.68548  20456960.177    20456957.291    20456959.559
  20456957.356          54.500          50.000
 130593745.97645 101761366.25241  24851164.811                    24851162.767
  24851161.562          33.000           6.250
 114133960.47948  88935566.14047  21718961.586    21718959.580    21718960.942
  21718959.123          49.000          45.000
 118055029.40547  91990946.21847  22465116.257    22465114.905    22465115.847
  22465114.452          46.750          44.000
 117722227.66347  91731619.71645  22401788.900                    22401786.866
  22401784.457          45.750          31.000
 123501995.29747  96235332.29046  23501642.462    23501641.597    23501642.179
  23501640.174          43.250          40.000
 125418774.65546  97728926.82643  23866395.795                    23866394.394
  23866391.494          39.500          19.750
 123322497.85647  96095466.64446  23467480.559    23467476.044    23467479.816
  23467474.532          42.500          37.000
 122267991.34947  95273762.62746  23266820.348    23266817.552    23266819.921
  23266817.252          42.750          39.000
 17  9  2  1  0  0.0000000  0 11G18G04G10G20G24G32G21G08G14G15G27
 108213061.66348  84321876.50246  20592250.473                    20592249.239
  20592244.590          50.000          41.750
 127639025.86646  99458981.17643  24288897.561                    24288896.512
  24288893.466          38.250          18.250
 107470413.20048  83743193.96948  20450927.121    20450924.278    20450926.463
  20450924.630          53.000          50.000
 130696089.24845 101841114.20641  24870639.746                    24870637.609
  24870635.924          34.250           7.250
 114121780.74848  88926075.46047  21716644.315    21716642.005    21716643.526
  21716641.648          49.250          45.000
 117966764.58347  91922168.46547  22448320.002    22448318.545    22448319.531
  22448318.315          47.750          44.000
 117801454.08347  91793354.53745  22416865.536                    22416863.443
  22416861.429          45.000          30.750
 123511146.06947  96242462.79946  23503384.173    23503383.029    23503383.071
  23503383.062          43.500          40.000
 125319629.20346  97651670.68943  23847528.510                    23847527.553
  23847524.382          40.000          19.750
 123424835.41347  96175210.24346  23486954.723    23486948.415    23486953.807
  23486949.560          42.500          37.000
 122336195.44347  95326908.64746  23279799.033    23279797.404    23279798.873
  23279797.875          43.000          39.000
 17  9  2  1  0 30.0000000  0 11G18G04G10G20G24G32G21G08G14G15G27
 108232351.13748  84336907.25746  20595921.048                    20595919.755
  20595915.497          49.750          41.500
 127726626.59146  99527241.46742  24305567.974                    24305566.596
  24305565.171          39.250          17.000
 107439057.25448  83718760.77648  20444960.374    20444957.845    20444959.661
  20444957.683          53.750          50.000
 130798489.66245 101920906.70041  24890127.070                    24890124.127
  24890123.043          34.750           7.250
 114110227.37048  88917072.84347  21714445.638    21714443.354    21714444.973
  21714443.272          49.500          45.000
 117878787.26248  91853614.73147  22431578.436    22431577.023    22431577.998
  22431576.077          48.500          44.000
 117881010.26047  91855346.32145  22432004.780                    22432003.618
  22432000.416          46.500          30.750
 123520871.73147  96250041.25346  23505234.513    23505234.055    23505233.341
  23505233.820          42.000          41.000
 125220655.57346  97574548.42243  23828695.312                    23828694.470
  23828691.030          39.750          20.000
 123527310.90147  96255061.33946  23506455.121    23506449.461    23506454.603
  23506449.234          43.500          36.000
 122404806.22547  95380371.57346  23292855.489    23292853.567    23292854.829
  23292853.999          42.250          40.000
 17  9  2  1  1  0.0000000  0 11G18G04G10G20G24G32G21G08G14G15G27
 108251949.75948  84352178.90746  20599650.637                    20599649.319
  20599644.772          49.750          41.750
 127814433.34846  99595662.29842  24322277.143                    24322276.873
  24322273.442          39.000          17.000
 107408048.41848  83694598.05648  20439059.576    20439056.863    20439058.956
  20439056.985          52.750          50.000
 130900945.44745 102000742.33341  24909625.227                    24909621.448
  24909618.507          35.500           9.500
 114099300.23648  88908558.21847  21712366.072    21712364.586    21712365.613
  21712363.971          49.250          45.000
 117791097.86948  91785285.36547  22414891.614    22414889.783    22414891.325
  22414889.352          48.000          43.000
 117960893.67747  91917593.10945  22447206.139                    22447204.474
  22447200.576          45.000          30.750
 123531170.82047  96258066.51946  23507194.614    23507193.561    23507193.744
  23507192.430          42.000          40.000
 125121854.34046  97497560.49643  23809894.420                    23809893.052
  23809889.196          40.000          19.750
 123629921.97947  96335018.03946  23525981.603    23525975.877    23525980.812
  23525975.879          44.000          36.000
 122473820.08847  95434148.58646  23305988.173    23305987.299    23305987.766
  23305986.294          42.750          40.000
 17  9  2  1  1 30.0000000  0 11G18G04G10G20G24G32G21G08G14G15G27
 108271858.17548  84367691.95846  20603438.934                    20603437.644
  20603433.108          49.500          41.250
 127902443.68346  99664241.74042  24339024.928                    24339024.036
  24339020.426          38.500          17.000
 107377388.08449  83670706.89748  20433225.018    20433222.255    20433224.368
  20433222.585          54.250          50.000
 131003456.20945 102080620.80241  24929132.250                    24929128.920
  24929127.180          35.250           9.500
 114089000.44148  88900532.43047  21710406.302    21710404.078    21710405.543
  21710404.033          51.250          45.000
 117703698.25748  91717181.78847  22398260.301    22398257.630    22398259.685
  22398257.222          48.500          43.000
 118041103.19647  91980094.01445  22462469.613                    22462468.205
  22462464.720          45.750          30.750
 123542043.21746  96266538.53146  23509263.753    23509262.933    23509262.725
  23509261.645          41.250          41.000
 125023227.31246  97420708.32943  23791126.524                    23791125.049
  23791121.118          40.500          19.750
 123732667.19847  96415079.32545  23545532.881    23545526.866    23545532.291
  23545527.143          44.500          35.000
 122543234.68647  95488237.85446  23319196.901    23319195.908    23319195.830
  23319195.707          42.500          40.000
 17  9  2  1  2  0.0000000  0 11G18G04G10G20G24G32G21G08G14G15G27
 108292076.64048  84383446.61146  20607286.440                    20607284.922
  20607280.533          49.500          41.500
 127990654.57746  99732977.46642  24355810.956                    24355810.839
  24355805.966          38.750          17.000
 107347077.25848  83647088.07948  20427457.193    20427454.493    20427456.518
  20427454.498          53.500          50.000
 131106021.52145 102160541.76441  24948649.594                    24948645.208
  24948644.727          35.500           9.000
 114079328.77948  88892996.08447  21708565.914    21708563.645    21708565.261
  21708563.334          50.000          45.000
 117616589.94647  91649305.19647  22381683.696    22381682.013    22381683.071
  22381681.984          47.000          44.000
 118121637.31547  92042847.82545  22477794.579                    22477793.045
  22477790.284          46.000          30.750
 123553488.30447  96275456.78146  23511440.996    23511440.390    23511440.101
  23511440.242          42.000          41.000
 124924776.30346  97343993.31943  23772392.061                    23772390.584
  23772386.626          41.250          20.750
 123835544.59647  96495243.59345  23565110.136    23565105.052    23565109.111
  23565103.523          44.750          35.000
 122613047.50247  95542637.43746  23332482.531    23332482.146    23332481.223
  23332481.360          42.250          41.000
 17  9  2  1  2 30.0000000  0 11G18G04G10G20G24G32G21G08G14G15G27
 108312606.06148  84399443.56346  20611193.058                    20611191.675
  20611187.244          50.250          41.250
 128079063.71146  99801867.66142  24372635.334                    24372633.024
  24372631.019          38.500          16.000
 107317117.47548  83623742.80048  20421755.948    20421753.004    20421755.379
  20421753.241          53.500          50.000
 131208640.83245 102240504.81541  24968175.502                    24968172.791
  24968171.782          33.000           9.000
 114070285.70748  88885949.55647  21706845.228    21706843.195    21706844.637
  21706842.870          50.250          45.000
 117529774.94947  91581657.16547  22365163.090    22365162.189    22365163.052
  22365161.548          47.500          44.000
 118202495.34547  92105854.05345  22493181.592                    22493179.612
  22493176.924          45.500          30.750
 123565505.78846  96284821.05746  23513728.491    23513726.793    23513726.815
  23513726.607          41.750          41.000
 124826503.03647  97267416.81543  23753691.396                    23753689.882
  23753686.980          42.250          22.000
 123938552.89047  96575509.82145  23584711.609    23584706.906    23584711.204
  23584705.180          44.250          35.000
 122683256.31547  95597345.58147  23345842.758    23345841.932    23345841.804
  23345840.945          42.000          42.000
 17  9  2  1  3  0.0000000  0 11G18G04G10G20G24G32G21G08G14G15G27
 108333447.25248  84415683.44546  20615159.245                    20615157.782
  20615153.271          50.500          41.250
 128167668.48946  99870910.31242  24389494.823                    24389493.864
  24389492.147          37.250          16.000
 107287510.05149  83600672.07848  20416122.027    20416119.183    20416121.407
  20416119.209          54.750          51.000
 131311313.99145 102320509.80241  24987712.471                    24987711.235
  24987710.794          30.500           9.500
 114061872.85448  88879394.10747  21705244.045    21705242.176    21705243.367
  21705241.893          50.000          45.000
 117443255.07947  91514239.09347  22348699.132    22348698.026    22348698.607
  22348697.638          47.250          44.000
 118283675.75147  92169111.48245  22508629.854                    22508628.350
  22508624.276          46.750          31.000
 123578095.57346  96294631.28146  23516124.524    23516122.565    23516123.574
  23516122.574          41.750          40.000
 124728409.76146  97190980.55143  23735024.023                    23735022.954
  23735020.119          40.750          22.000
 124041690.30147  96655876.70246  23604337.564    23604333.200    23604336.795
  23604333.154          44.250          36.000
 122753858.82647  95652360.51047  23359278.050    23359277.265    23359276.672
  23359277.189          43.250          42.000
 17  9  2  1  3 30.0000000  0 11G18G04G10G20G24G32G21G08G14G15G27
 108354599.43148  84432165.65746  20619184.188                    20619182.816
  20619178.461          50.250          41.250
 128256465.04046  99940102.39142  24406392.368                    24406391.610
  24406390.351          36.500          15.250
 107258254.74148  83577875.74148  20410554.677    20410552.142    20410554.082
  20410552.056          53.500          50.000
 131414038.94445 102400555.14441  25007261.088                    25007259.830
  25007258.753          31.500           9.500
 114054088.88148  88873328.69647  21703762.709    21703760.649    21703761.922
  21703760.418          49.500          45.000
 117357030.51947  91447051.13747  22332291.401    22332289.996    22332290.886
  22332289.708          47.500          44.000
 118365176.07147  92232618.18345  22524139.105                    22524137.066
  22524133.485          46.750          30.750
 123591255.67346  96304885.90946  23518628.159    23518626.127    23518626.828
  23518626.465          41.500          39.000
 124630496.53846  97114684.58843  23716391.407                    23716390.834
  23716386.757          41.000          22.250
 124144954.98947  96736342.76345  23623988.395    23623984.105    23623986.405
  23623982.581          45.000          35.000
 122824851.09647  95707679.11547  23372787.331    23372786.505    23372786.993
  23372785.601          42.750          42.000
 17  9  2  1  4  0.0000000  0 11G18G04G10G20G24G32G21G08G14G15G27
 108376062.44648  84448890.08946  20623268.487                    20623267.040
  20623262.716          49.750          41.250
 128345450.59346 100009441.73842  24423326.257                    24423325.400
  24423322.460          37.250          15.000
 107229352.79149  83555354.75148  20405054.767    20405051.931    20405054.130
  20405052.046          54.000          50.000
 131516815.15245 102480640.46141  25026818.955                    25026817.902
  25026815.609          32.500           9.000
 114046935.34048  88867754.53147  21702401.128    21702399.011    21702400.779
  21702399.213          48.500          46.000
 117271102.99447  91380094.60847  22315939.468    22315938.280    22315938.953
  22315937.474          47.500          44.000
 118446995.01947  92296373.19645  22539708.198                    22539706.477
  22539703.148          45.750          30.500
 123604985.63346  96315584.57846  23521239.742    23521239.534    23521238.999
  23521238.455          40.000          40.000
 124532765.27146  97038530.40243  23697793.769                    23697792.982
  23697789.791          40.500          21.750
 124248344.12747  96816905.78445  23643662.746    23643657.780    23643661.495
  23643657.545          44.750          35.000
 122896230.76447  95763299.61047  23386370.522    23386369.360    23386369.689
  23386369.377          42.500          42.000
 17  9  2  1  4 30.0000000  0 11G18G04G10G20G24G32G21G08G14G15G27
 108397836.69848  84465857.04346  20627411.576                    20627410.402
  20627406.089          49.500          41.500
 128434621.69646 100078925.66042  24440296.606                    24440295.131
  24440291.965          38.000          15.000
 107200804.54848  83533109.37348  20399622.157    20399619.499    20399621.461
  20399619.305          53.250          50.000
 131619641.64345 102560764.94641  25046387.640                    25046384.839
  25046383.174          34.500           9.000
 114040411.66148  88862671.17347  21701159.970    21701158.233    21701159.386
  21701157.905          49.750          46.000
 117185473.44248  91313370.29647  22299644.899    22299643.113    22299644.707
  22299642.578          48.250          44.000
 118529130.41747  92360374.77545  22555338.110                    22555336.439
  22555333.599          46.000          31.000
 123619284.18246  96326726.28646  23523961.657    23523959.892    23523960.387
  23523958.413          39.250          40.000
 124435216.76046  96962518.63143  23679231.074                    23679229.495
  23679225.888          41.000          21.750
 124351855.52847  96897564.09345  23663360.238    23663355.917    23663360.282
  23663355.064          44.250          35.000
 122967994.47247  95819219.34647  23400026.638    23400025.396    23400025.957
  23400024.300          42.000          42.000
 17  9  2  1  5  0.0000000  0 10G18G04G10G24G32G21G08G14G15G27
 108419921.18448  84483065.73146  20631614.397                    20631613.093
  20631608.638          49.750          41.250
 128523974.53246 100148551.18042  24457299.633                    24457298.965
  24457294.347          38.500          16.250
 107172609.94049  83511139.55348  20394257.040    20394254.150    20394256.402
  20394254.343          54.500          50.000
 114034517.75448  88858078.52747  21700038.064    21700036.566    21700037.372
  21700036.272          50.000          46.000
 117100142.22148  91246878.51247  22283406.983    22283404.769    22283406.682
  22283404.459          48.500          44.000
 118611579.77647  92424620.97945  22571027.857                    22571026.050
  22571022.952          47.000          31.000
 123634149.37646  96338309.56346  23526789.798    23526789.026    23526788.312
  23526788.219          39.750          40.000
 124337851.55246  96886649.67243  23660702.740                    23660700.491
  23660698.831          40.250          21.000
 124455486.48347  96978315.51046  23683080.822    23683076.390    23683081.048
  23683075.546          44.750          36.000
 123040138.46246  95875435.40647  23413755.177    23413753.438    23413754.082
  23413753.546          41.000          42.000
 17  9  2  1  5 30.0000000  0 10G18G04G10G24G32G21G08G14G15G27
 108442318.45648  84500518.15446  20635876.608                    20635875.284
  20635870.678          49.250          41.750
 128613508.15946 100218317.55142  24474336.601                    24474336.194
  24474332.209          37.000          16.250
 107144772.01348  83489447.67148  20388959.686    20388956.911    20388958.908
  20388957.051          53.000          51.000
 114029255.67848  88853978.21847  21699036.794    21699035.043    21699035.776
  21699035.091          48.000          46.000
 117015112.73848  91180621.84247  22267226.245    22267224.558    22267225.788
  22267223.880          48.000          44.000
 118694343.37247  92489112.05145  22586777.754                    22586776.254
  22586771.684          46.750          31.000
 123649582.41446  96350335.30046  23529727.390    23529726.541    23529726.888
  23529725.759          40.000          40.000
 124240673.23246  96810926.36743  23642209.831                    23642208.855
  23642206.893          40.750          20.750
 124559237.57147  97059160.58646  23702823.985    23702818.599    23702824.091
  23702818.117          44.500          36.000
 123112662.03346  95931947.23247  23427556.379    23427554.896    23427555.637
  23427554.247          41.500          42.000
 17  9  2  1  6  0.0000000  0 10G18G04G10G24G32G21G08G14G15G27
 108465026.55248  84518212.78246  20640197.746                    20640196.450
  20640192.285          49.750          41.500
 128703217.75546 100288221.05142  24491408.718                    24491407.558
  24491402.945          37.750          16.750
 107117289.72548  83468032.91348  20383729.799    20383727.205    20383729.190
  20383727.342          52.500          50.000
 114024624.20948  88850369.30647  21698155.419    21698153.558    21698154.659
  21698153.276          49.250          46.000
 116930384.44448  91114599.86547  22251103.176    22251101.229    22251102.740
  22251100.962          48.250          44.000
 118777417.89447  92553845.40445  22602586.138                    22602584.661
  22602580.059          46.500          30.750
 123665580.63747  96362801.45546  23532771.229    23532770.746    23532770.334
  23532771.111          42.000          40.000
 124143681.34746  96735348.32043  23623752.805                    23623751.466
  23623748.888          40.750          20.750
 124663104.85947  97140096.17946  23722589.554    23722582.925    23722588.922
  23722583.081          44.000          36.000
 123185560.45446  95988751.13746  23441428.716    23441426.338    23441426.904
  23441425.963          41.000          41.000
 17  9  2  1  6 30.0000000  0 10G18G04G10G24G32G21G08G14G15G27
 108488045.24548  84536149.43246  20644577.900                    20644576.802
  20644572.683          51.000          41.750
 128793100.28446 100358259.30542  24508512.398                    24508510.930
  24508508.115          37.500          16.750
 107090163.89548  83446895.92048  20378568.049    20378565.161    20378567.339
  20378565.389          52.500          51.000
 114020623.53848  88847251.92047  21697394.086    21697392.579    21697393.465
  21697392.088          49.250          46.000
 116845958.60748  91048813.56647  22235037.273    22235035.459    22235036.886
  22235035.128          48.500          44.000
 118860802.10747  92618820.07245  22618453.438                    22618451.653
  22618448.255          46.250          30.250
 123682143.28246  96375707.41646  23535923.530    23535922.690    23535922.374
  23535922.367          40.500          41.000
 124046877.10146  96659916.48243  23605332.459                    23605329.690
  23605328.665          40.500          21.000
 124767086.79847  97221121.12446  23742376.225    23742371.465    23742375.888
  23742370.148          44.250          36.000
 123258830.91646  96045844.97146  23455371.747    23455369.465    23455370.005
  23455369.726          40.750          41.000
 17  9  2  1  7  0.0000000  0 10G18G04G10G24G32G21G08G14G15G27
 108511376.11048  84554329.33246  20649017.800                    20649016.278
  20649012.472          49.500          41.750
 128883154.08546 100428431.02042  24525648.338                    24525647.071
  24525644.655          36.500          17.250
 107063396.68448  83426038.36248  20373474.420    20373471.710    20373473.703
  20373471.750          53.000          50.000
 114017254.83448  88844626.97347  21696753.158    21696750.879    21696752.608
  21696750.946          49.000          46.000
 116761837.77548  90983264.93647  22219029.704    22219028.167    22219029.049
  22219027.680          49.250          44.000
 118944494.41647  92684034.80045  22634379.575                    22634377.328
  22634374.575          46.000          30.000
 123699270.39347  96389053.23046  23539182.531    23539180.575    23539181.801
  23539181.040          42.000          40.000
 123950263.27446  96584633.04243  23586947.616                    23586945.670
  23586942.983          40.500          21.250
 124871182.21847  97302234.48346  23762183.994    23762180.159    23762184.344
  23762177.889          42.750          36.000
 123332471.82046  96103227.45246  23469384.463    23469382.823    23469383.641
  23469382.309          39.500          40.000
 17  9  2  1  7 30.0000000  0 10G18G04G10G24G32G21G08G14G15G27
 108535019.59248  84572752.83246  20653516.867                    20653515.693
  20653511.350          50.000          41.750
 128973376.12946 100498733.84142  24542816.944                    24542815.381
  24542812.646          36.750          16.500
 107036988.68548  83405460.71348  20368449.053    20368446.264    20368448.557
  20368446.607          52.750          50.000
 114014518.41248  88842494.70347  21696232.571    21696230.418    21696232.036
  21696230.122          48.500          46.000
 116678023.00748  90917954.78447  22203080.351    22203078.353    22203079.562
  22203077.920          48.750          44.000
 119028493.65047  92749488.70944  22650363.971                    22650362.092
  22650358.702          44.000          29.750
 123716960.86647  96402838.02946  23542548.957    23542548.549    23542549.042
  23542547.226          42.250          39.000
 123853841.25546  96509499.07043  23568599.614                    23568598.324
  23568595.631          41.250          21.250
 124975389.10547  97383434.69746  23782013.691    23782010.168    23782014.434
  23782008.839          42.750          36.000
 123406480.04746  96160896.14746  23483467.436    23483466.329    23483465.918
  23483466.000          40.000          41.000
 17  9  2  1  8  0.0000000  0 10G18G04G10G24G32G21G08G14G15G27
 108558974.36248  84591418.89546  20658075.613                    20658074.390
  20658069.831          50.500          41.750
 129063762.05146 100569164.34242  24560017.539                    24560016.132
  24560013.469          37.250          16.500
 107010939.67349  83385162.80448  20363491.958    20363489.549    20363491.418
  20363489.708          54.000          50.000
 114012413.50548  88840854.53847  21695832.208    21695829.353    21695831.330
  21695829.194          50.500          46.000
 116594514.55147  90852883.33047  22187188.713    22187187.127    22187188.275
  22187186.819          47.000          44.000
 119112796.94247  92815179.52044  22666406.385                    22666404.073
  22666401.492          44.250          29.500
 123735212.42146  96417060.01846  23546022.292    23546021.900    23546021.720
  23546020.745          40.750          40.000
 123757611.02346  96434514.56543  23550286.867                    23550286.175
  23550283.513          41.250          22.500
 125079704.79147  97464719.67146  23801864.929    23801860.963    23801864.805
  23801860.121          42.500          36.000
 123480851.61346  96218847.97846  23497619.911    23497618.281    23497618.710
  23497617.367          39.750          40.000
 17  9  2  1  8 30.0000000  0 10G18G04G10G24G32G21G08G14G15G27
 108583241.59348  84610328.43846  20662693.363                    20662692.150
  20662687.238          50.000          41.250
 129154309.31346 100639720.56342  24577247.615                    24577246.702
  24577244.716          36.500          16.750
 106985250.83448  83365145.54048  20358603.611    20358600.915    20358602.783
  20358601.111          53.000          50.000
 114010940.60048  88839706.83947  21695551.503    21695548.851    21695550.873
  21695548.755          49.250          45.000
 116511313.92548  90788051.73047  22171356.533    22171354.001    22171356.210
  22171354.176          48.500          44.000
 119197402.87047  92881106.12744  22682505.944                    22682504.780
  22682501.575          43.750          29.250
 123754024.62046  96431718.87146  23549602.131    23549601.605    23549600.977
  23549600.403          41.250          41.000
 123661574.34146  96359680.86643  23532012.010                    23532010.890
  23532008.220          41.250          23.250
 125184127.57447  97546088.09346  23821736.292    23821731.111    23821735.381
  23821729.709          42.500          37.000
 123555584.00446  96277080.97446  23511841.370    23511840.424    23511839.932
  23511840.153          40.000          40.000
 17  9  2  1  9  0.0000000  0 10G18G04G10G24G32G21G08G14G15G27
 108607820.76948  84629481.05046  20667370.458                    20667369.263
  20667364.582          50.500          41.500
 129245015.16446 100710400.36442  24594507.941                    24594506.350
  24594506.217          37.000          16.750
 106959923.09349  83345409.65348  20353783.896    20353781.186    20353783.233
  20353781.337          54.750          51.000
 114010100.04148  88839051.87947  21695391.284    21695389.089    21695390.696
  21695388.973          50.750          45.000
 116428422.52948  90723461.07547  22155582.480    22155580.045    22155581.983
  22155579.615          49.000          43.000
 119282310.31447  92947267.75044  22698663.742                    22698662.561
  22698658.286          44.250          29.000
 123773396.21046  96446813.62646  23553287.863    23553287.447    23553286.613
  23553286.761          41.250          40.000
 123565732.72546  96284999.15243  23513773.845                    23513772.566
  23513768.878          41.500          23.500
 125288655.66647  97627538.55746  23841626.982    23841622.183    23841626.899
  23841621.313          42.500          37.000
 123630674.41446  96335592.94846  23526130.667    23526129.363    23526129.907
  23526129.148          40.500          40.000
 17  9  2  1  9 30.0000000  0 10G18G04G10G24G32G21G08G14G15G27
 108632712.26348  84648877.02846  20672107.254                    20672105.807
  20672101.477          50.500          41.250
 129335876.52046 100781201.31542  24611798.984                    24611797.303
  24611796.227          37.250          17.500
 106934957.27248  83325955.78048  20349033.020    20349030.180    20349032.442
  20349030.356          53.750          51.000
 114009891.39048  88838889.30547  21695351.719    21695349.368    21695351.176
  21695349.525          50.250          45.000
 116345841.64548  90659112.40247  22139867.993    22139864.847    22139867.494
  22139865.419          48.500          43.000
 119367517.03047  93013662.59044  22714877.786                    22714875.975
  22714873.943          43.000          28.500
 123793326.52346  96462343.74046  23557080.706    23557080.201    23557079.566
  23557079.212          41.250          40.000
 123470087.57446  96210470.52443  23495573.366                    23495571.869
  23495568.760          41.250          23.500
 125393287.56346  97709069.93446  23861537.595    23861533.424    23861535.960
  23861533.404          41.500          37.000
 123706119.91046  96394381.61446  23540487.122    23540484.373    23540487.015
  23540485.033          41.000          39.000
 17  9  2  1 10  0.0000000  0 10G18G04G10G24G32G21G08G14G15G27
 108657916.44748  84668516.65446  20676903.417                    20676901.881
  20676897.535          49.500          41.500
 129426890.70146 100852121.38642  24629119.077                    24629118.212
  24629115.434          38.250          17.500
 106910354.47448  83306784.78248  20344351.474    20344348.375    20344350.793
  20344348.544          53.250          50.000
 114010315.54548  88839219.83747  21695432.345    21695430.342    21695431.663
  21695430.459          48.500          45.000
 116263572.72848  90595006.79547  22124212.725    22124210.415    22124212.473
  22124210.082          49.250          44.000
 119453021.33647  93080289.32844  22731149.057                    22731147.458
  22731143.980          43.750          28.250
 123813814.19846  96478308.17246  23560979.759    23560978.430    23560979.118
  23560977.469          41.750          40.000
 123374640.51746  96136096.25443  23477409.898                    23477408.827
  23477407.033          41.500          23.250
 125498021.44646  97790680.77446  23881467.451    23881463.739    23881467.028
  23881462.705          41.250          37.000
 123781917.84746  96453444.90746  23554911.371    23554907.891    23554911.147
  23554907.628          41.000          38.000
 17  9  2  1 10 30.0000000  0 10G18G04G10G24G32G21G08G14G15G27
 108683432.39548  84688399.21746  20681758.959                    20681757.779
  20681752.994          50.500          41.500
 129518053.67246 100923157.41743  24646466.417                    24646465.385
  24646463.978          38.000          18.000
 106886114.43048  83287896.44848  20339738.499    20339735.607    20339737.740
  20339735.919          52.250          51.000
 114011371.44148  88840042.63347  21695633.078    21695631.803    21695632.524
  21695631.600          49.500          45.000
 116181615.94948  90531144.40647  22108616.986    22108614.847    22108616.636
  22108614.388          49.000          44.000
 119538820.62447  93147145.92544  22747475.955                    22747474.413
  22747471.492          43.250          28.500
 123834857.33947  96494705.43146  23564983.761    23564982.317    23564984.053
  23564981.390          42.750          40.000
 123279391.62646  96061876.39444  23459285.217                    23459282.678
  23459280.762          41.000          24.000
 125602854.74946  97872369.09146  23901416.080    23901412.406    23901414.773
  23901411.575          41.000          37.000
 123858064.21946  96512779.70146  23569402.553    23569398.627    23569402.037
  23569399.245          41.000          38.000
 17  9  2  1 11  0.0000000  0 10G18G04G10G24G32G21G08G14G15G27
 108709260.52248  84708525.03746  20686673.894                    20686672.379
  20686667.861          50.000          41.250
 129609362.69946 100994307.25142  24663841.950                    24663840.474
  24663838.568          36.250          17.250
 106862238.34248  83269291.70748  20335194.853    20335192.537    20335194.311
  20335192.639          52.750          51.000
 114013059.32048  88841357.87847  21695954.341    21695952.828    21695953.880
  21695952.603          51.000          45.000
 116099972.90648  90467526.47947  22093080.584    22093078.262    22093080.304
  22093078.298          50.000          44.000
 119624913.89747  93214231.58644  22763858.873                    22763857.211
  22763854.557          42.250          28.000
 123856454.99147  96511534.76146  23569094.590    23569093.108    23569093.323
  23569091.686          42.750          40.000
 123184342.96046  95987812.56444  23441197.398                    23441196.264
  23441194.379          41.250          24.000
 125707785.53746  97954133.37646  23921384.169    23921381.056    23921382.665
  23921380.058          40.500          38.000
 123934556.42446  96572383.95846  23583957.968    23583955.358    23583957.646
  23583955.219          41.250          38.000
 17  9  2  1 11 30.0000000  0 10G18G04G10G24G32G21G08G14G15G27
 108735401.63648  84728894.74246  20691648.133                    20691646.886
  20691642.387          50.500          41.250
 129700815.02346 101065568.74842  24681244.462                    24681243.083
  24681241.507          36.750          17.250
 106838727.09849  83250971.26948  20330721.093    20330718.473    20330720.625
  20330718.640          54.500          51.000
 114015379.25648  88843165.63947  21696395.832    21696394.024    21696395.192
  21696393.877          50.750          45.000
 116018644.88848  90404154.04647  22077604.275    22077602.331    22077604.058
  22077601.749          49.000          44.000
 119711299.10847  93281544.72944  22780297.628                    22780294.475
  22780292.065          43.250          27.500
 123878606.07746  96528795.33646  23573309.495    23573307.651    23573308.477
  23573306.785          41.750          40.000
 123089495.57046  95913905.57244  23423148.258                    23423146.592
  23423145.544          40.500          24.250
 125812812.33246  98035972.46246  23941370.607    23941366.061    23941368.368
  23941365.185          40.750          38.000
 124011391.61946  96632255.50146  23598579.392    23598577.290    23598578.606
  23598576.754          40.750          38.000
 17  9  2  1 12  0.0000000  0 10G18G04G10G24G32G21G08G14G15G27
 108761855.72848  84749508.32646  20696682.398                    20696681.039
  20696676.573          50.250          41.000
 129792408.24746 101136940.04242  24698673.902                    24698673.468
  24698669.973          37.250          17.500
 106815582.25049  83232936.33048  20326316.859    20326314.048    20326316.222
  20326314.265          55.000          51.000
 114018332.33448  88845466.76847  21696958.036    21696956.078    21696957.342
  21696955.645          50.750          45.000
 115937633.91048  90341028.65847  22062188.456    22062185.982    22062187.977
  22062185.969          49.250          44.000
 119797974.96247  93349084.34744  22796790.842                    22796789.000
  22796785.426          42.000          27.000
 123901310.27246  96546486.90046  23577629.542    23577628.120    23577628.906
  23577626.633          40.750          39.000
 122994851.60646  95840157.07644  23405137.825                    23405136.439
  23405134.377          41.250          24.000
 125917934.18846  98117885.64246  23961373.814    23961370.155    23961371.971
  23961371.320          40.250          38.000
 124088567.63846  96692392.61146  23613264.942    23613263.968    23613263.874
  23613263.246          40.500          39.000
 17  9  2  1 12 30.0000000  0 11G18G04G10G24G32G21G08G11G14G15G27
 108788623.36048  84770366.22346  20701775.996                    20701774.787
  20701770.190          49.000          41.250
 129884139.36346 101208418.78142  24716129.760                    24716128.762
  24716126.944          38.250          17.500
 106792804.48148  83215187.42748  20321982.221    20321979.412    20321981.727
  20321979.670          53.000          51.000
 114021917.92248  88848260.74547  21697640.355    21697638.247    21697639.738
  21697637.775          51.250          44.000
 115856940.93548  90278151.05847  22046833.309    22046830.866    22046832.722
  22046830.717          49.250          45.000
 119884939.65747  93416849.01244  22813340.381                    22813338.144
  22813334.731          43.250          27.000
 123924565.98846  96564608.23846  23582054.406    23582053.509    23582053.358
  23582053.172          40.500          39.000
 131532100.54546 102492559.38941  25029728.443                    25029728.090
  25029725.076          36.500           7.500
 122900412.33047  95766568.09144  23387166.897                    23387165.965
  23387163.534          42.000          24.000
 126023149.19646  98199871.38746  23981395.487    23981392.043    23981395.072
  23981392.008          39.750          37.000
 124166081.43346  96752792.96046  23628014.711    23628014.366    23628014.652
  23628013.999          39.500          39.000
 17  9  2  1 13  0.0000000  0 11G18G04G10G24G32G21G08G11G14G15G27
 108815704.02748  84791468.04646  20706929.598                    20706928.191
  20706923.401          50.500          41.250
 129976005.03146 101280002.36342  24733611.668                    24733609.973
  24733608.208          38.000          17.500
 106770394.29449  83197724.95348  20317717.759    20317714.921    20317717.189
  20317715.084          54.750          50.000
 114026135.70448  88851547.34947  21698442.619    21698440.843    21698442.048
  21698440.416          49.500          45.000
 115776566.89448  90215521.97847  22031538.404    22031536.301    22031537.734
  22031535.943          49.750          45.000
 119972191.11047  93484837.12944  22829943.654                    22829942.131
  22829938.712          43.000          27.500
 123948371.95346  96583158.34946  23586583.933    23586584.616    23586582.702
  23586584.231          41.500          39.000
 131432027.88946 102414580.72241  25010684.387                    25010684.516
  25010681.583          36.250          10.500
 122806178.77247  95693139.38544  23369235.386                    23369234.253
  23369231.649          42.000          24.250
 126128455.02246  98281927.90046  24001434.132    24001430.625    24001433.221
  24001430.415          40.250          37.000
 124243929.60846  96813453.86746  23642829.695    23642828.525    23642827.838
  23642828.486          40.250          39.000
 17  9  2  1 13 30.0000000  0 11G18G04G10G24G32G21G08G11G14G15G27
 108843097.26848  84812813.43446  20712142.106                    20712140.989
  20712136.295          50.500          41.250
 130068001.81246 101351688.12942  24751117.882                    24751116.905
  24751115.818          38.250          17.500
 106748351.98248  83180549.13148  20313523.294    20313520.553    20313522.675
  20313520.584          53.500          51.000
 114030985.50048  88855326.44047  21699365.494    21699363.485    21699364.667
  21699363.434          48.250          44.000
 115696512.48947  90153141.97847  22016304.273    22016302.605    22016303.823
  22016302.041          47.500          45.000
 120059726.90747  93553046.81344  22846601.295                    22846599.746
  22846597.018          43.000          27.500
 123972726.37646  96602135.82546  23591218.551    23591219.016    23591217.254
  23591217.875          41.500          39.000
 131332255.96946 102336836.39141  24991699.206                    24991697.752
  24991693.838          36.250          10.500
 122712151.72547  95619871.61244  23351342.044                    23351342.665
  23351337.748          42.250          24.750
 126233849.45546  98364053.46746  24021490.515    24021487.438    24021490.584
  24021486.132          41.000          37.000
 124322108.72746  96874372.65746  23657705.692    23657705.084    23657704.832
  23657704.428          39.500          38.000
 17  9  2  1 14  0.0000000  0 11G18G04G10G24G32G21G08G11G14G15G27
 108870803.15248  84834402.44046  20717414.246                    20717412.909
  20717408.773          49.500          41.250
 130160126.46346 101423473.53442  24768648.192                    24768646.918
  24768646.975          37.750          17.500
 106726678.05349  83163660.37148  20309399.024    20309396.017    20309398.315
  20309396.295          54.250          51.000
 114036466.53448  88859597.39847  21700408.580    21700406.695    21700407.820
  21700406.491          49.000          45.000
 115616778.59248  90091011.70247  22001131.104    22001129.661    22001130.815
  22001128.969          49.250          45.000
 120147545.02647  93621476.48244  22863312.404                    22863310.831
  22863307.381          43.000          27.500
 123997627.13246  96621539.02146  23595957.551    23595955.848    23595957.587
  23595957.022          41.750          39.000
 131232787.60946 102259328.60741  24972771.609                    24972770.332
  24972764.785          37.500          11.500
 122618332.15847  95546765.51244  23333489.371                    23333488.541
  23333484.229          43.250          24.750
 126339330.42646  98446246.49346  24041562.344    24041558.858    24041561.920
  24041558.393          40.750          37.000
 124400615.45146  96935546.70446  23672645.589    23672644.071    23672644.957
  23672643.296          40.000          38.000
 17  9  2  1 14 30.0000000  0 11G18G04G10G24G32G21G08G11G14G15G27
 108898821.64448  84856235.03846  20722745.904                    20722744.423
  20722740.380          49.750          41.000
 130252375.81446 101495356.08442  24786203.062                    24786201.798
  24786200.555          37.750          16.750
 106705373.17249  83147059.17448  20305344.725    20305341.727    20305344.143
  20305341.979          54.750          51.000
 114042578.37048  88864359.87147  21701571.846    21701570.013    21701570.853
  21701569.506          48.500          45.000
 115537366.26748  90029132.01247  21986019.528    21986017.266    21986018.766
  21986016.868          48.250          45.000
 120235643.70047  93690124.78144  22880077.513                    22880075.609
  22880071.124          43.500          27.500
 124023073.35447  96641367.25546  23600800.253    23600799.539    23600799.932
  23600797.769          42.000          39.000
 131133624.99446 102182059.08541  24953901.804                    24953899.658
  24953895.965          36.750          11.500
 122524721.42947  95473822.13844  23315675.597                    23315674.546
  23315671.133          43.250          25.250
 126444896.23847  98528505.60746  24061651.622    24061647.376    24061650.111
  24061646.613          42.250          37.000
 124479446.73446  96996973.66546  23687647.232    23687645.104    23687646.035
  23687645.448          41.000          38.000
 17  9  2  1 15  0.0000000  0 11G18G04G10G24G32G21G08G11G14G15G27
 108927153.00448  84878311.43346  20728137.273                    20728135.920
  20728131.681          49.500          41.250
 130344747.22846 101567333.77642  24803780.925                    24803779.249
  24803779.177          38.000          16.750
 106684438.34449  83130746.33448  20301360.915    20301357.749    20301360.401
  20301358.056          55.500          51.000
 114049321.41348  88869614.20347  21702854.771    21702852.444    21702854.020
  21702852.841          48.750          45.000
 115458276.84848  89967503.93847  21970969.403    21970967.199    21970968.790
  21970966.978          49.000          45.000
 120324021.15747  93758990.30844  22896894.734                    22896893.510
  22896889.877          43.250          27.250
 124049063.59846  96661619.38946  23605745.571    23605745.031    23605745.709
  23605744.330          41.500          39.000
 131034771.15546 102105030.17941  24935089.268                    24935086.986
  24935083.701          36.000          11.750
 122431320.87947  95401042.54844  23297901.815                    23297900.376
  23297897.716          43.250          25.750
 126550545.31647  98610829.60246  24081756.430    24081752.086    24081754.479
  24081750.410          42.250          37.000
 124558599.73946  97058651.32346  23702709.698    23702708.264    23702708.937
  23702707.298          41.000          39.000
 17  9  2  1 15 30.0000000  0 11G18G04G10G24G32G21G08G11G14G15G27
 108955797.92948  84900632.15346  20733587.983                    20733586.863
  20733582.600          50.000          41.000
 130437238.27346 101639404.66042  24821382.190                    24821380.577
  24821380.412          37.500          17.250
 106663875.03348  83114722.98348  20297447.939    20297444.690    20297447.412
  20297445.020          53.500          50.000
 114056696.26748  88875360.85847  21704258.239    21704255.772    21704257.467
  21704256.011          49.000          45.000
 115379512.17147  89906128.91647  21955980.495    21955978.884    21955979.950
  21955978.719          47.500          45.000
 120412675.98647  93828071.97644  22913765.988                    22913764.067
  22913760.623          43.250          27.500
 124075597.25746  96682294.96746  23610795.298    23610793.973    23610794.143
  23610794.142          41.750          39.000
 130936229.91345 102028244.82041  24916336.744                    24916335.358
  24916332.106          34.750          11.000
 122338132.41547  95328428.20844  23280168.188                    23280166.536
  23280163.894          43.750          25.750
 126656276.25547  98693217.38646  24101876.572    24101872.764    24101876.136
  24101871.098          42.500          37.000
 124638072.18246  97120577.90046  23717832.772    23717831.909    23717832.224
  23717830.793          41.000          40.000
 17  9  2  1 16  0.0000000  0 11G18G04G10G24G32G21G08G11G14G15G27
 108984756.83048  84923197.53846  20739098.920                    20739097.505
  20739093.400          50.500          41.250
 130529846.07446 101711566.55842  24839004.772                    24839003.862
  24839002.059          38.000          17.250
 106643684.07449  83098989.77948  20293605.661    20293602.881    20293605.247
  20293603.038          54.750          51.000
 114064702.48248  88881599.47647  21705781.696    21705779.624    21705780.932
  21705779.394          49.250          45.000
 115301073.47848  89845007.89347  21941054.050    21941052.970    21941053.204
  21941052.191          49.000          45.000
 120501607.04647  93897368.87044  22930688.621                    22930687.034
  22930683.305          44.250          27.500
 124102672.97646  96703392.91446  23615947.108    23615946.775    23615946.089
  23615946.267          41.250          39.000
 130838004.29145 101951705.38041  24897647.099                    24897644.630
  24897639.752          35.500          11.000
 122245157.39147  95255980.18944  23262475.858                    23262474.215
  23262472.065          44.000          26.250
 126762087.69047  98775667.88046  24122012.273    24122007.683    24122010.261
  24122005.839          42.500          37.000
 124717861.09446  97182751.04546  23733015.576    23733014.642    23733014.667
  23733014.765          40.250          39.000
 17  9  2  1 16 30.0000000  0 11G18G04G10G24G32G21G08G11G14G15G27
 109014028.91348  84946006.95846  20744669.154                    20744668.062
  20744663.265          50.250          41.000
 130622566.76146 101783816.39142  24856649.463                    24856647.474
  24856646.626          38.250          17.750
 106623865.42348  83083546.68448  20289834.296    20289831.644    20289833.646
  20289831.836          53.500          51.000
 114073338.81048  88888329.10047  21707425.304    21707422.764    21707424.450
  21707422.713          48.250          45.000
 115222961.01348  89784141.07147  21926189.937    21926188.309    21926189.374
  21926187.863          48.750          45.000
 120590810.76547  93966878.24544  22947663.926                    22947662.575
  22947659.581          44.250          27.750
 124130288.32946  96724911.38646  23621202.048    23621201.938    23621202.028
  23621201.200          39.500          39.000
 130740096.12446 101875413.31841  24879015.008                    24879013.195
  24879009.924          36.750          11.750
 122152396.46847  95183699.01144  23244823.755                    23244822.320
  23244820.193          43.500          26.250
 126867977.05647  98858179.07446  24142162.032    24142156.872    24142161.133
  24142155.858          42.250          36.000
 124797962.61846  97245167.83046  23748258.703    23748257.229    23748258.051
  23748256.189          40.000          39.000
 17  9  2  1 17  0.0000000  0 11G18G04G10G24G32G21G08G11G14G15G27
 109043614.19248  84969060.43446  20750299.164                    20750297.835
  20750293.250          51.500          40.750
 130715397.50446 101856151.99942  24874314.403                    24874312.829
  24874312.145          38.250          17.750
 106604419.86049  83068394.30148  20286133.897    20286131.214    20286133.274
  20286131.248          54.500          51.000
 114082604.98148  88895549.49947  21709189.087    21709186.382    21709188.344
  21709186.042          49.000          45.000
 115145175.96448  89723529.37747  21911388.068    21911386.183    21911387.504
  21911385.683          48.250          45.000
 120680285.85047  94036599.06944  22964690.155                    22964687.681
  22964685.578          44.250          27.750
 124158442.21546  96746849.50046  23626559.418    23626557.953    23626558.937
  23626558.233          40.750          39.000
 130642508.43745 101799370.99541  24860444.256                    24860443.587
  24860439.282          35.500          11.750
 122059850.67447  95111585.45844  23227213.102                    23227211.681
  23227209.646          43.750          26.000
 126973942.41247  98940749.48645  24162326.554    24162320.419    24162325.429
  24162320.687          42.500          35.000
 124878373.74146  97307825.85746  23763560.229    23763559.704    23763560.215
  23763559.174          40.500          40.000
 17  9  2  1 17 30.0000000  0 11G18G04G10G24G32G21G08G11G14G15G27
 109073513.54848  84992358.63746  20755988.802                    20755987.336
  20755982.879          50.250          40.750
 130808336.54946 101928571.98042  24891999.629                    24891998.370
  24891997.161          37.250          17.750
 106585349.28848  83053534.12648  20282504.792    20282501.580    20282504.235
  20282501.949          52.500          51.000
 114092501.81248  88903261.33147  21711072.455    21711069.516    21711071.640
  21711069.311          48.500          46.000
 115067720.51948  89663174.51547  21896648.966    21896646.884    21896648.610
  21896646.726          49.750          45.000
 120770031.30247  94106530.59244  22981767.818                    22981766.549
  22981763.759          43.000          28.000
 124187134.15046  96769206.85946  23632019.692    23632019.865    23632018.638
  23632018.457          40.750          39.000
 130545245.11745 101723581.42242  24841935.103                    24841935.098
  24841931.467          35.000          12.750
 121967522.36447  95039641.37844  23209643.879                    23209641.741
  23209639.872          43.500          26.500
 127079983.35247  99023378.79945  24182505.481    24182499.595    24182504.044
  24182499.190          42.500          34.000
 124959092.57146  97370723.66246  23778920.971    23778919.970    23778920.459
  23778918.636          39.750          41.000
 17  9  2  1 18  0.0000000  0 11G18G04G10G24G32G21G08G11G14G15G27
 109103726.83348  85015901.45946  20761738.330                    20761737.087
  20761731.950          51.250          40.750
 130901380.36246 102001073.60742  24909705.144                    24909703.773
  24909703.854          37.000          16.750
 106566654.16349  83038966.52048  20278947.332    20278944.112    20278946.700
  20278944.425          54.750          50.000
 114103028.70548  88911464.11947  21713075.463    21713072.888    21713074.818
  21713072.826          49.000          46.000
 114990595.57048  89603077.19747  21881972.259    21881970.361    21881971.950
  21881969.913          49.250          45.000
 120860045.19247  94176671.26844  22998896.805                    22998895.377
  22998892.460          43.250          27.250
 124216362.12646  96791981.89246  23637581.698    23637580.788    23637580.712
  23637580.438          41.500          39.000
 130448308.87845 101648046.69542  24823489.231                    24823487.927
  24823484.926          34.500          12.750
 121875412.64047  94967867.64144  23192115.893                    23192114.666
  23192111.672          43.500          26.500
 127186097.75847  99106065.36945  24202698.091    24202693.455    24202697.845
  24202692.048          42.000          34.000
 125040115.70646  97433858.55746  23794339.586    23794338.302    23794338.575
  23794338.195          40.000          41.000
 17  9  2  1 18 30.0000000  0 11G18G04G10G24G32G21G08G11G14G15G27
 109134253.69348  85039688.62946  20767547.062                    20767545.935
  20767540.917          50.500          40.500
 130994525.37345 102073654.09442  24927428.564                    24927428.736
  24927427.514          35.750          16.750
 106548334.47749  83024691.46248  20275461.177    20275458.118    20275460.728
  20275458.371          54.000          51.000
 114114184.66648  88920157.08647  21715198.123    21715195.687    21715197.512
  21715195.566          49.250          46.000
 114913801.41448  89543237.62847  21867358.764    21867356.734    21867358.112
  21867356.393          48.250          45.000
 120950324.76047  94247018.96344  23016076.704                    23016074.486
  23016072.754          43.250          27.500
 124246124.34346  96815173.22146  23643245.634    23643244.053    23643245.432
  23643243.212          41.500          39.000
 130351701.60045 101572768.30842  24805105.308                    24805102.926
  24805100.721          35.250          12.500
 121783521.98447  94896264.60444  23174629.683                    23174627.984
  23174625.339          43.750          26.250
 127292283.33447  99188807.41345  24222904.500    24222899.217    24222903.315
  24222898.094          42.500          34.000
 125121439.37346  97497227.62946  23809814.235    23809813.553    23809813.402
  23809814.014          39.000          41.000
 17  9  2  1 19  0.0000000  0 11G18G04G10G24G32G21G08G11G14G15G27
 109165094.38048  85063720.32946  20773416.103                    20773414.481
  20773410.033          50.000          41.000
 131087769.00445 102146311.45642  24945172.945                    24945171.031
  24945170.804          35.250          15.000
 106530391.31949  83010709.79248  20272046.741    20272043.608    20272046.257
  20272043.962          54.500          51.000
 114125969.79148  88929340.31847  21717440.598    21717438.605    21717439.822
  21717438.467          49.500          46.000
 114837339.34248  89483656.82647  21852808.549    21852806.057    21852807.995
  21852805.521          49.750          44.000
 121040868.24247  94317572.31944  23033305.967                    23033304.486
  23033302.665          43.250          27.250
 124276419.03947  96838779.46946  23649011.017    23649008.799    23649009.474
  23649008.663          42.250          39.000
 130255426.66145 101497748.90442  24786784.979                    24786783.863
  24786780.206          34.500          12.500
 121691851.92447  94824833.46044  23157185.345                    23157184.578
  23157180.427          43.250          26.250
 127398538.76247  99271603.86845  24243124.235    24243118.594    24243123.140
  24243116.479          42.500          34.000
 125203060.83546  97560828.73046  23825346.225    23825345.282    23825344.389
  23825345.174          38.000          41.000
 17  9  2  1 19 30.0000000  0 11G18G04G10G24G32G21G08G11G14G15G27
 109196249.02148  85087996.67346  20779344.438                    20779343.289
  20779338.926          50.500          41.250
 131181108.05245 102219043.16942  24962934.547                    24962933.232
  24962933.250          35.250          15.000
 106512825.36249  82997022.04748  20268703.872    20268700.930    20268703.314
  20268701.019          54.500          50.000
 114138383.29748  88939013.19547  21719802.514    21719800.941    21719801.948
  21719800.372          49.750          46.000
 114761210.60348  89424335.76647  21838321.907    21838318.692    21838321.356
  21838318.777          49.750          45.000
 121131673.77947  94388329.85644  23050585.851                    23050583.977
  23050582.189          42.000          27.000
 124307245.00846  96862799.72146  23654876.794    23654875.383    23654875.817
  23654874.052          41.750          39.000
 130159486.75845 101422990.56341  24768527.653                    24768526.298
  24768523.090          34.500          11.000
 121600403.57347  94753575.05544  23139783.704                    23139782.384
  23139778.722          43.750          26.000
 127504861.85347  99354453.05145  24263356.942    24263350.819    24263355.865
  24263349.517          42.250          33.000
 125284976.95846  97624659.43746  23840933.723    23840932.739    23840932.003
  23840932.352          37.250          40.000
 17  9  2  1 20  0.0000000  0 11G18G04G10G24G32G21G08G11G14G15G27
 109227717.50248  85112517.56846  20785332.938                    20785331.420
  20785327.022          49.750          41.500
 131274539.70845 102291847.03942  24980714.238                    24980713.757
  24980713.231          35.500          13.500
 106495637.43148  82983628.86448  20265433.244    20265430.051    20265432.649
  20265430.066          53.000          50.000
 114151425.30348  88949175.81647  21722284.596    21722282.826    21722283.440
  21722282.494          48.500          46.000
 114685416.25448  89365275.28747  21823898.791    21823896.153    21823898.078
  21823895.735          50.000          45.000
 121222739.83546  94459290.39244  23067915.242                    23067913.085
  23067910.745          41.500          26.500
 124338600.32646  96887232.45446  23660843.308    23660842.540    23660842.668
  23660841.684          40.750          39.000
 130063884.67445 101348495.47241  24750335.740                    24750332.881
  24750330.652          35.500          11.000
 121509178.35447  94682490.53644  23122423.217                    23122422.016
  23122418.170          42.750          26.000
 127611251.33547  99437353.99745  24283601.905    24283595.309    24283601.034
  24283594.275          43.000          32.000
 125367184.84946  97688717.51346  23856576.811    23856575.921    23856575.403
  23856575.433          36.250          39.000
 17  9  2  1 20 30.0000000  0 11G18G04G10G24G32G21G08G11G14G15G27
 109259500.80748  85137283.78546  20791380.811                    20791379.370
  20791375.176          51.250          41.500
 131368061.83846 102364721.42042  24998511.853                    24998510.095
  24998509.267          36.750          13.500
 106478828.81049  82970531.24948  20262234.547    20262231.700    20262233.987
  20262231.623          54.000          50.000
 114165094.82348  88959827.41047  21724885.674    21724883.880    21724884.613
  21724883.662          49.250          46.000
 114609957.88248  89306476.60847  21809539.302    21809537.177    21809538.569
  21809536.995          49.500          45.000
 121314064.63847  94530452.56844  23085293.906                    23085292.284
  23085290.776          42.000          26.500
 124370484.40646  96912077.20146  23666910.132    23666909.236    23666908.841
  23666908.820          40.750          39.000
 129968624.05246 101274266.46041  24732207.632                    24732205.314
  24732202.990          36.000          11.750
 121418178.13247  94611581.33044  23105106.350                    23105105.690
  23105101.487          43.000          25.500
 127717706.00147  99520305.71245  24303859.369    24303854.401    24303859.375
  24303851.520          42.750          32.000
 125449681.93645  97753000.88946  23872275.652    23872274.008    23872274.529
  23872273.864          35.750          39.000
 17  9  2  1 21  0.0000000  0 11G18G04G10G24G32G21G08G11G14G15G27
 109291597.23748  85162293.99546  20797488.731                    20797487.158
  20797483.117          50.500          41.000
 131461669.89146 102437662.74942  25016324.395                    25016323.530
  25016322.695          36.750          14.500
 106462398.97348  82957728.78648  20259108.116    20259105.357    20259107.402
  20259105.462          53.750          51.000
 114179390.87448  88970967.21047  21727605.984    21727604.368    21727605.382
  21727604.225          48.750          46.000
 114534835.31048  89247939.57947  21795243.681    21795241.959    21795243.351
  21795241.550          48.750          45.000
 121405644.99347  94601813.85544  23102721.740                    23102720.314
  23102717.916          43.250          27.000
 124402894.21446  96937331.59146  23673076.915    23673076.475    23673075.548
  23673075.607          40.250          39.000
 129873706.22146 101200304.57241  24714144.606                    24714142.819
  24714140.488          36.250          11.750
 121327402.53147  94540847.14344  23087832.708                    23087831.415
  23087827.597          44.250          25.750
 127824223.02447  99603305.98745  24324128.925    24324122.613    24324128.871
  24324121.677          43.000          32.000
 125532463.75846  97817506.15846  23888028.802    23888027.720    23888028.144
  23888026.479          36.750          39.000
 17  9  2  1 21 30.0000000  0 11G18G04G10G24G32G21G08G11G14G15G27
 109324007.39148  85187548.66446  20803656.015                    20803654.646
  20803650.456          50.250          41.000
 131555361.56446 102510669.23542  25034153.596                    25034151.927
  25034151.383          36.250          14.500
 106446349.17448  82945222.46048  20256053.680    20256051.072    20256053.065
  20256051.193          53.000          51.000
 114194313.13048  88982594.96847  21730445.349    21730443.956    21730444.843
  21730443.591          48.750          46.000
 114460050.05448  89189665.38247  21781012.550    21781010.867    21781011.774
  21781010.862          50.000          46.000
 121497479.38747  94673373.08344  23120197.302                    23120195.991
  23120192.934          43.000          27.750
 124435828.90546  96962994.97146  23679343.406    23679343.861    23679342.335
  23679344.050          38.000          39.000
 129779134.90646 101126612.69242  24696148.309                    24696147.403
  24696144.235          36.750          12.250
 121236853.46247  94470289.47944  23070601.690                    23070599.773
  23070596.808          44.250          26.250
 127930801.31347  99686354.04645  24344410.438    24344404.742    24344409.080
  24344402.850          44.250          32.000
 125615527.87946  97882231.38746  23903835.789    23903835.293    23903834.662
  23903834.600          37.250          40.000
 17  9  2  1 22  0.0000000  0 11G18G04G10G24G32G21G08G11G14G15G27
 109356731.38448  85213047.88746  20809883.341                    20809881.869
  20809877.622          50.250          41.000
 131649133.62546 102583738.35442  25051998.227                    25051997.444
  25051996.109          37.000          14.500
 106430679.99049  82933012.72148  20253071.872    20253069.061    20253071.243
  20253069.356          54.000          51.000
 114209860.76648  88994710.03347  21733404.072    21733402.319    21733403.504
  21733402.050          49.500          46.000
 114385603.03048  89131654.74747  21766845.381    21766843.718    21766844.746
  21766843.385          48.750          45.000
 121589565.78347  94745128.66744  23137720.385                    23137719.105
  23137715.973          42.750          27.750
 124469285.98046  96989065.41546  23685710.108    23685710.341    23685709.522
  23685709.506          39.000          39.000
 129684912.39946 101053192.58842  24678219.073                    24678217.985
  24678214.214          36.750          12.250
 121146531.75347  94399908.99844  23053413.513                    23053412.838
  23053409.188          43.500          26.250
 128037438.63447  99769448.09245  24364703.089    24364696.014    24364702.230
  24364695.110          43.250          31.000
 125698871.02846  97947174.06146  23919696.051    23919695.446    23919694.572
  23919694.874          37.750          41.000
 17  9  2  1 22 30.0000000  0 11G18G04G10G24G32G21G08G11G14G15G27
 109389768.99548  85238791.48446  20816170.044                    20816168.736
  20816164.406          50.750          41.000
 131742983.27245 102656867.93542  25069857.490                    25069855.917
  25069855.765          35.750          14.500
 106415392.14249  82921100.12448  20250163.210    20250159.988    20250162.519
  20250160.198          54.000          51.000
 114226033.54148  89007312.21547  21736481.755    21736479.442    21736481.079
  21736479.641          49.250          46.000
 114311495.30448  89073908.50447  21752743.445    21752741.421    21752743.117
  21752740.880          50.000          45.000
 121681902.29347  94817079.16844  23155291.808                    23155290.631
  23155286.501          43.250          27.000
 124503264.40246  97015542.09946  23692177.279    23692175.954    23692174.842
  23692175.830          38.500          39.000
 129591041.49346 100980046.45842  24660356.515                    24660355.036
  24660349.906          37.000          13.750
 121056438.87547  94329706.82944  23036269.779                    23036268.734
  23036265.314          43.750          26.500
 128144133.69647  99852587.15645  24385006.096    24384999.566    24385004.260
  24384998.804          43.250          31.000
 125782490.10846  98012331.76146  23935608.632    23935607.802    23935607.223
  23935607.506          38.750          40.000
 17  9  2  1 23  0.0000000  0 11G18G04G10G24G32G21G08G11G14G15G27
 109423120.31148  85264779.52746  20822516.837                    20822515.471
  20822510.961          50.500          41.000
 131836907.19745 102730055.38542  25087729.563                    25087729.205
  25087727.532          35.000          14.500
 106400485.97448  82909484.94248  20247326.291    20247323.571    20247325.798
  20247323.568          53.000          51.000
 114242830.73248  89020400.95647  21739678.249    21739676.001    21739677.648
  21739675.734          50.750          46.000
 114237727.50948  89016427.14947  21738706.342    21738703.730    21738705.739
  21738703.211          49.750          45.000
 121774486.58047  94889222.73644  23172910.396                    23172908.904
  23172904.620          43.250          26.500
 124537761.84646  97042423.21946  23698742.103    23698740.875    23698741.271
  23698740.143          41.000          38.000
 129497525.00846 100907176.49142  24642561.511                    24642559.496
  24642555.227          37.000          14.750
 120966575.60947  94259683.57244  23019169.142                    23019168.053
  23019164.734          42.000          26.500
 128250884.54847  99935769.69545  24405320.610    24405312.236    24405320.236
  24405312.699          43.250          30.000
 125866381.68046  98077701.79946  23951572.307    23951571.723    23951571.471
  23951571.134          39.000          40.000
 17  9  2  1 23 30.0000000  0 11G18G04G10G24G32G21G08G11G14G15G27
 109456785.64648  85291012.25446  20828923.047                    20828922.002
  20828917.046          50.000          40.500
 131930902.86845 102803298.73741  25105616.122                    25105614.574
  25105613.703          34.250          11.500
 106385962.78348  82898168.18148  20244562.620    20244559.554    20244562.049
  20244559.772          52.750          51.000
 114260251.62048  89033975.69347  21742993.376    21742991.310    21742992.655
  21742990.971          50.750          46.000
 114164301.19048  88959211.87947  21724733.843    21724731.272    21724733.480
  21724730.917          50.000          45.000
 121867317.14846  94961558.21244  23190574.549                    23190572.935
  23190569.518          41.750          25.500
 124572777.04346  97069707.76646  23705405.657    23705402.905    23705405.572
  23705402.478          41.000          38.000
 129404366.23846 100834585.27142  24624833.849                    24624832.321
  24624828.635          37.500          14.750
 120876943.57247  94189840.49344  23002112.735                    23002111.515
  23002109.604          42.500          26.750
 128357689.80447 100018994.59845  24425645.191    24425635.744    24425643.634
  24425636.175          43.500          30.000
 125950543.19346  98143282.16946  23967587.276    23967586.739    23967586.724
  23967587.279          39.000          40.000
 17  9  2  1 24  0.0000000  0 11G18G04G10G24G32G21G08G11G14G15G27
 109490764.91348  85317489.60746  20835389.352                    20835388.015
  20835383.029          50.500          40.750
 132024967.58245 102876595.89241  25123516.098                    25123514.525
  25123513.098          34.500          11.500
 106371823.48648  82887150.55848  20241871.897    20241868.998    20241871.400
  20241869.189          52.750          51.000
 114278296.25848  89048036.47047  21746427.208    21746425.093    21746426.411
  21746424.609          49.750          45.000
 114091217.61948  88902263.67347  21710826.361    21710824.146    21710825.934
  21710823.742          50.250          46.000
 121960392.12347  95034084.13144  23208286.641                    23208284.976
  23208281.810          42.250          25.500
 124608308.50246  97097394.60246  23712166.766    23712164.134    23712166.522
  23712163.405          40.750          37.000
 129311568.24746 100762275.17742  24607175.139                    24607174.015
  24607169.740          37.500          15.500
 120787544.20247  94120178.71944  22985100.544                    22985098.476
  22985095.959          42.500          27.500
 128464548.33447 100102261.01244  24445979.390    24445971.749    24445979.264
  24445971.131          42.250          29.000
 126034971.80546  98209070.67846  23983653.570    23983653.195    23983653.323
  23983652.828          39.750          39.000
 17  9  2  1 24 30.0000000  0 11G18G04G10G24G32G21G08G11G14G15G27
 109525058.64148  85344212.00046  20841915.220                    20841913.814
  20841908.840          51.250          40.750
 132119098.68145 102949944.77841  25141429.729                    25141427.683
  25141424.204          34.250           7.500
 106358068.84349  82876432.65748  20239254.588    20239251.566    20239254.020
  20239251.763          54.250          50.000
 114296963.78948  89062582.61147  21749979.530    21749977.002    21749978.668
  21749976.722          50.500          45.000
 114018477.80748  88845583.33247  21696984.034    21696982.117    21696983.599
  21696981.816          50.000          46.000
 122053709.79947  95106799.17644  23226044.038                    23226042.026
  23226039.669          42.000          25.500
 124644354.49946  97125482.37446  23719026.075    23719023.961    23719025.036
  23719023.326          40.500          37.000
 129219133.63646 100690248.24142  24589586.335                    24589583.853
  24589580.426          38.500          15.500
 120698378.84847  94050699.28644  22968132.651                    22968131.571
  22968128.807          42.000          27.750
 128571458.55646 100185567.70544  24466322.728    24466318.074    24466322.532
  24466316.340          40.750          29.000
 126119664.41846  98275064.90646  23999769.974    23999768.908    23999769.006
  23999767.836          40.500          38.000
 17  9  2  1 25  0.0000000  0 11G18G04G10G24G32G21G08G11G14G15G27
 109559667.22648  85371179.74146  20848500.866                    20848499.559
  20848494.498          49.750          40.750
 132213293.54145 103023343.32741  25159354.639                    25159351.876
  25159348.994          34.500           7.500
 106344699.94649  82866015.33548  20236710.522    20236707.317    20236710.000
  20236707.657          54.000          50.000
 114316253.54248  89077613.60047  21753650.026    21753647.368    21753649.481
  21753646.961          50.000          45.000
 113946083.19648  88789171.96747  21683208.079    21683205.825    21683207.617
  21683205.401          51.000          46.000
 122147268.65646  95179702.13144  23243847.800                    23243845.352
  23243842.519          41.250          25.000
 124680913.72546  97153970.07346  23725982.740    23725981.437    23725981.684
  23725981.068          40.500          38.000
 129127065.88846 100618507.17342  24572065.445                    24572064.496
  24572060.651          38.000          16.500
 120609448.98947  93981403.35544  22951210.092                    22951208.458
  22951205.630          43.500          27.750
 128678419.18346 100268913.67945  24486675.556    24486672.204    24486677.309
  24486670.486          38.500          31.000
 126204618.33646  98341262.75446  24015935.885    24015935.587    24015935.383
  24015934.859          39.750          38.000
 17  9  2  1 25 30.0000000  0 11G18G04G10G24G32G21G08G11G14G15G27
 109594590.89848  85398393.00046  20855146.766                    20855145.198
  20855140.392          50.750          40.500
 132307549.44745 103096789.4654   25177289.571                    25177289.162
  25177285.958          34.500           5.750
 106331717.79549  82855899.38048  20234240.217    20234237.335    20234239.546
  20234237.256          54.250          51.000
 114336165.67248  89093129.57347  21757439.473    21757436.793    21757438.895
  21757436.450          50.500          45.000
 113874034.99448  88733030.54247  21669497.694    21669495.190    21669497.396
  21669495.005          49.750          46.000
 122241066.55746  95252791.36744  23261696.810                    23261694.901
  23261693.297          41.500          25.000
 124717984.70346  97182856.53246  23733035.954    23733037.164    23733035.341
  23733035.720          39.000          38.000
 129035368.06146 100547054.37242  24554615.191                    24554615.020
  24554610.617          38.250          16.500
 120520756.07647  93912292.05144  22934332.419                    22934331.365
  22934326.863          44.500          27.750
 128785428.90146 100352297.89145  24507038.958    24507035.104    24507038.516
  24507033.220          38.500          33.000
 126289830.72046  98407662.00346  24032151.731    24032150.266    24032150.735
  24032150.229          40.000          37.000
 17  9  2  1 26  0.0000000  0 11G18G04G10G24G32G21G08G11G14G15G27
 109629828.14148  85425850.59446  20861851.615                    20861850.200
  20861846.015          50.250          40.500
 132401862.08345 103170279.8054   25195237.354                    25195236.117
  25195233.039          34.250           5.750
 106319121.47249  82846084.06548  20231843.289    20231840.544    20231842.621
  20231840.518          54.250          51.000
 114356697.50348  89109128.42547  21761346.503    21761343.460    21761345.802
  21761343.523          50.500          45.000
 113802332.65148  88677158.62247  21655853.352    21655850.535    21655852.850
  21655850.004          51.000          45.000
 122335100.16147  95326064.26244  23279591.103                    23279589.598
  23279586.720          42.000          25.000
 124755563.87646  97212138.99846  23740187.573    23740187.676    23740186.548
  23740187.317          39.250          39.000
 128944041.03246 100475890.51042  24537236.595                    24537235.121
  24537231.110          37.750          16.500
 120432299.54247  93843364.94244  22917499.609                    22917498.215
  22917494.616          43.750          27.750
 128892484.47646 100435717.82245  24527411.799    24527407.811    24527410.779
  24527405.144          37.750          34.000
 126375296.92246  98474259.03746  24048415.380    24048415.516    24048414.312
  24048415.238          41.250          38.000
 17  9  2  1 26 30.0000000  0 11G18G04G10G24G32G21G08G11G14G15G27
 109665378.59548  85453552.24446  20868616.449                    20868615.144
  20868611.209          49.500          40.250
 132496228.22745 103243811.8504   25213194.822                    25213193.287
  25213190.391          34.750           5.500
 106306911.67649  82836569.94448  20229520.059    20229516.901    20229519.422
  20229517.186          55.500          51.000
 114377848.35948  89125609.62547  21765371.329    21765368.533    21765370.337
  21765368.202          50.000          45.000
 113730977.08248  88621556.92047  21642274.556    21642271.665    21642274.320
  21642271.444          50.750          45.000
 122429367.28247  95399519.13344  23297529.534                    23297527.692
  23297525.582          42.500          25.500
 124793649.78846  97241816.33246  23747436.219    23747435.722    23747435.520
  23747434.082          40.500          39.000
 128853087.92146 100405018.00242  24519928.278                    24519927.664
  24519923.588          38.750          16.500
 120344080.60647  93774622.96344  22900712.441                    22900710.555
  22900707.187          44.000          27.750
 128999584.35046 100519172.26945  24547792.438    24547787.500    24547791.387
  24547786.313          37.750          34.000
 126461013.72446  98541051.33346  24064726.392    24064726.612    24064725.987
  24064726.361          39.750          37.000
 17  9  2  1 27  0.0000000  0 11G18G04G10G24G32G21G08G11G14G15G27
 109701243.29448  85481498.77246  20875441.394                    20875440.152
  20875436.013          50.250          40.500
 132590646.00645 103317384.1374   25231159.910                    25231158.920
  25231158.656          32.500           5.500
 106295089.96049  82827358.22448  20227270.354    20227267.396    20227269.698
  20227267.416          54.750          51.000
 114399617.67348  89142572.75047  21769513.773    21769511.312    21769513.404
  21769511.256          48.500          45.000
 113659970.12248  88566226.85347  21628762.261    21628760.155    21628761.931
  21628759.324          51.250          46.000
 122523866.94246  95473155.19244  23315511.712                    23315510.545
  23315507.932          41.500          26.000
 124832241.00346  97271887.41046  23754779.648    23754778.816    23754779.025
  23754778.157          40.750          38.000
 128762512.29846 100334439.62342  24502692.550                    24502692.247
  24502686.938          38.000          16.000
 120256101.33947  93706067.75044  22883970.295                    22883969.360
  22883964.781          44.750          28.000
 129106727.58246 100602660.49945  24568180.482    24568175.812    24568177.976
  24568174.926          36.000          35.000
 126546978.92846  98608037.17046  24081085.101    24081084.821    24081083.764
  24081084.276          40.500          37.000
 17  9  2  1 27 30.0000000  0 11G18G04G10G24G32G21G08G11G14G15G27
 109737422.28548  85509690.20446  20882326.049                    20882324.620
  20882320.769          49.000          40.500
 132685112.26445 103390994.1884   25249136.845                    25249136.993
  25249133.621          32.500           5.500
 106283656.63949  82818449.15148  20225094.586    20225091.727    20225093.892
  20225091.783          54.250          51.000
 114422005.04248  89160017.48847  21773774.259    21773771.797    21773773.628
  21773771.463          49.500          45.000
 113589312.38448  88511168.89947  21615316.386    21615314.435    21615315.963
  21615314.174          50.500          46.000
 122618596.60946  95546970.48744  23333538.392                    23333536.727
  23333535.167          41.250          25.750
 124871335.32046  97302350.51346  23762219.194    23762218.506    23762218.996
  23762218.086          40.750          38.000
 128672316.65146 100264157.33542  24485529.055                    24485528.367
  24485523.194          38.250          16.500
 120168362.54147  93637699.92944  22867274.313                    22867272.564
  22867269.988          44.750          28.250
 129213912.86045 100686181.52945  24588575.941    24588572.783    24588576.211
  24588571.743          35.000          34.000
 126633189.06146  98675213.90345  24097490.916    24097488.120    24097490.222
  24097488.385          41.500          35.000
 17  9  2  1 28  0.0000000  0 11G18G04G10G24G32G21G08G11G14G15G27
 109773914.63748  85538125.80846  20889270.719                    20889269.586
  20889265.152          49.500          40.500
 132779623.70845 103464639.4424   25267122.357                    25267122.232
  25267119.848          32.500           5.500
 106272612.14148  82809843.06048  20222992.763    20222989.822    20222992.081
  20222989.999          53.250          51.000
 114445008.93948  89177942.61847  21778151.605    21778149.351    21778151.223
  21778149.220          50.000          45.000
 113519004.53548  88456383.58747  21601937.604    21601935.616    21601936.947
  21601935.226          48.750          47.000
 122713554.07647  95620963.26144  23351609.113                    23351607.451
  23351605.381          42.250          25.500
 124910930.64746  97333203.99146  23769754.202    23769753.261    23769753.238
  23769752.599          38.750          39.000
 128582503.43846 100194173.05242  24468438.642                    24468438.291
  24468432.215          39.250          16.500
 120080865.01147  93569520.09644  22850623.542                    22850621.919
  22850619.397          44.250          28.250
 129321138.00045 100769733.59645  24608980.131    24608976.684    24608980.148
  24608976.943          34.250          35.000
 126719640.77446  98742578.86745  24113942.408    24113939.022    24113942.095
  24113939.660          40.750          34.000
 17  9  2  1 28 30.0000000  0 11G18G04G10G24G32G21G08G11G14G15G27
 109810720.14248  85566805.42646  20896274.524                    20896273.081
  20896269.007          51.250          40.750
 132874176.97745 103538317.2754   25285113.636                    25285113.755
  25285114.411          32.500           4.500
 106261956.60448  82801540.04848  20220965.000    20220962.310    20220964.386
  20220962.308          53.500          51.000
 114468628.16248  89196347.22947  21782646.293    21782643.864    21782645.584
  21782643.637          50.000          45.000
 113449047.00748  88401871.25247  21588625.239    21588622.874    21588624.713
  21588622.635          51.750          46.000
 122808736.97447  95695131.69344  23369722.152                    23369720.139
  23369717.803          42.250          26.500
 124951024.55646  97364445.95946  23777383.760    23777382.374    23777382.636
  23777383.156          39.000          39.000
 128493074.88246 100124488.49742  24451421.664                    24451420.293
  24451415.160          38.250          16.250
 119993609.50347  93501528.84744  22834019.266                    22834018.404
  22834015.367          44.000          28.250
 129428401.09345 100853315.23746  24629392.660    24629388.628    24629391.916
  24629388.491          35.250          36.000
 126806330.35346  98810129.17345  24130438.736    24130437.084    24130437.724
  24130436.991          40.750          35.000
 17  9  2  1 29  0.0000000  0 11G18G04G10G24G32G21G08G11G14G15G27
 109847839.44348  85595729.55346  20903337.767                    20903336.642
  20903332.438          49.500          40.500
 132968770.02744 103612026.0964   25303113.481                    25303113.843
  25303114.311          29.000           4.500
 106251691.55348  82793541.31148  20219011.518    20219008.555    20219010.918
  20219008.838          53.750          50.000
 114492862.49648  89215231.14147  21787257.825    21787255.398    21787257.102
  21787255.199          50.000          44.000
 113379441.58948  88347633.28947  21575379.634    21575377.079    21575379.290
  21575376.667          52.000          46.000
 122904143.92347  95769474.72444  23387877.450                    23387875.140
  23387872.342          43.250          26.750
 124991615.86846  97396075.53246  23785107.602    23785107.395    23785107.084
  23785107.169          38.750          40.000
 128404034.58246 100055106.49142  24434477.029                    24434476.287
  24434471.055          38.500          16.250
 119906597.88047  93433727.61544  22817461.394                    22817460.291
  22817456.667          43.250          28.000
 129535701.04845 100936925.59746  24649810.784    24649807.828    24649810.173
  24649806.539          35.250          36.000
 126893255.57546  98877863.09445  24146980.886    24146980.079    24146979.599
  24146979.186          41.500          35.000
 17  9  2  1 29 30.0000000  0 11G18G04G10G24G32G21G08G11G14G15G27
 109885273.47448  85624898.93346  20910461.706                    20910460.375
  20910455.824          50.500          40.250
 133063400.38545 103685763.9834   25321122.805                    25321122.112
  25321123.956          30.500           2.000
 106241818.12148  82785847.72948  20217132.748    20217129.935    20217132.103
  20217129.970          53.750          51.000
 114517711.32048  89234593.88647  21791986.237    21791983.896    21791985.688
  21791983.758          48.750          44.000
 113310189.66848  88293670.77547  21562201.014    21562198.871    21562200.488
  21562198.523          51.500          46.000
 122999773.21447  95843991.00744  23406074.771                    23406072.733
  23406070.877          42.000          26.250
 125032703.58246  97428091.92446  23792925.987    23792926.273    23792925.037
  23792925.285          38.750          39.000
 128315385.80746  99986029.55142  24417607.649                    24417607.014
  24417602.025          38.250          15.250
 119819831.62247  93366117.58844  22800950.047                    22800948.258
  22800945.204          44.250          27.750
 129643037.15746 101020564.11946  24670236.465    24670232.709    24670235.424
  24670231.861          36.250          36.000
 126980413.77546  98945778.54746  24163566.814    24163565.806    24163566.275
  24163564.226          41.000          36.000
 17  9  2  1 30  0.0000000  0 11G18G04G10G24G32G21G08G11G14G15G27
 109923021.77548  85654313.19846  20917644.959                    20917643.651
  20917639.093          49.250          40.500
 133158065.12444 103759528.6774   25339135.462                    25339132.526
  25339135.082          27.000           2.000
 106232336.90049  82778459.76948  20215328.667    20215325.709    20215328.088
  20215325.916          54.000          51.000
 114543173.80447  89254434.80147  21796831.443    21796829.523    21796830.941
  21796829.406          47.000          44.000
 113241292.05148  88239984.34547  21549090.247    21549088.095    21549089.845
  21549088.042          51.500          47.000
 123095622.83146  95918678.97944  23424313.717                    23424311.565
  23424309.914          41.250          26.000
 125074285.03046  97460493.04046  23800839.226    23800839.492    23800837.368
  23800837.254          39.750          40.000
 128227131.23646  99917259.78742  24400813.071                    24400811.721
  24400807.128          37.500          15.250
 119733311.78747  93298699.60544  22784485.686                    22784484.894
  22784481.104          44.250          27.750
 129750407.57746 101104229.40246  24690669.329    24690664.993    24690668.302
  24690664.515          36.750          37.000
 127067801.73146  99013873.00845  24180195.984    24180193.123    24180195.438
  24180193.080          40.250          35.000
 17  9  2  1 30 30.0000000  0 11G18G04G10G24G32G21G08G11G14G15G27
 109961084.05148  85683972.12346  20924887.720                    20924886.717
  20924882.059          50.500          40.250
 133252761.06944 103833317.6884   25357155.787                    25357154.831
  25357156.105          29.000           1.000
 106223248.06549  82771377.57348  20213599.022    20213596.049    20213598.541
  20213596.382          54.500          51.000
 114569248.85648  89274753.05647  21801793.337    21801790.899    21801792.631
  21801791.175          48.500          44.000
 113172749.22648  88186574.36747  21536047.348    21536045.352    21536046.930
  21536044.975          50.750          47.000
 123191689.95346  95993536.41044  23442594.593                    23442592.802
  23442590.348          41.000          25.000
 125116357.91546  97493277.11246  23808844.313    23808844.867    23808844.645
  23808844.812          39.500          40.000
 128139273.09846  99848798.93442  24384094.533                    24384094.212
  24384088.379          38.000          15.250
 119647039.10547  93231474.19244  22768068.706                    22768067.912
  22768064.310          44.500          27.500
 129857810.48346 101187919.97646  24711107.206    24711102.911    24711106.730
  24711102.139          37.250          37.000
 127155415.83946  99082143.70745  24196868.134    24196865.175    24196866.738
  24196865.693          40.000          35.000
 17  9  2  1 31  0.0000000  0 11G18G04G10G24G32G21G08G11G14G15G27
 109999460.07648  85713875.52646  20932190.602                    20932189.232
  20932184.580          50.000          40.000
 133347485.20245 103907128.6744   25375182.590                    25375180.939
  25375184.057          31.250           1.000
 106214552.33549  82764601.68648  20211944.352    20211941.283    20211943.767
  20211941.482          54.000          51.000
 114595934.69848  89295547.23647  21806871.400    21806869.277    21806870.796
  21806869.034          48.750          44.000
 113104562.10348  88133441.56047  21523072.075    21523069.805    21523071.690
  21523069.597          50.500          47.000
 123287972.91046  96068562.04544  23460917.117                    23460915.140
  23460912.215          41.500          24.250
 125158920.48446  97526442.71446  23816944.770    23816944.474    23816944.600
  23816943.452          40.000          39.000
 128051814.49246  99780649.42342  24367450.690                    24367449.884
  24367445.727          37.750          16.000
 119561014.48947  93164442.08844  22751699.004                    22751696.787
  22751693.542          44.250          27.500
 129965244.51646 101271634.80246  24731550.712    24731548.278    24731551.087
  24731546.558          37.000          37.000
 127243253.00846  99150588.20745  24213583.655    24213580.444    24213582.609
  24213580.218          39.250          35.000
 17  9  2  1 31 30.0000000  0 11G18G04G10G24G32G21G08G11G14G15G27
 110038149.94348  85744023.48046  20939552.782                    20939551.444
  20939547.042          49.000          39.750
 133442234.83445 103980959.5494   25393213.769                    25393212.630
  25393212.633          31.250           2.500
 106206250.51848  82758132.74848  20210364.556    20210361.509    20210363.944
  20210361.663          53.750          51.000
 114623231.02748  89316817.11547  21812065.851    21812063.788    21812064.748
  21812063.360          48.000          44.000
 113036731.72948  88080586.73547  21510163.925    21510162.339    21510163.757
  21510161.855          51.750          47.000
 123384469.88547  96143754.44144  23479280.547                    23479278.451
  23479274.700          42.250          24.500
 125201970.65346  97559988.26946  23825137.870    23825136.110    23825136.707
  23825135.358          40.500          39.000
 127964758.17346  99712813.38342  24350884.024                    24350882.629
  24350879.675          37.250          16.000
 119475239.51747  93097604.50744  22735376.730                    22735375.703
  22735371.213          43.500          28.000
 130072708.23846 101355372.78246  24752001.069    24751996.008    24752000.852
  24751995.831          37.000          37.000
 127331310.34446  99219204.29745  24230340.435    24230336.588    24230339.688
  24230337.469          38.500          35.000
 17  9  2  1 32  0.0000000  0 11G18G04G10G24G32G21G08G11G14G15G27
 110077153.50948  85774415.87546  20946975.287                    20946973.648
  20946969.259          50.500          40.000
 133537007.15045 104054808.0854   25411249.657                    25411245.473
  25411246.904          31.500           2.500
 106198343.08849  82751971.12348  20208859.653    20208857.061    20208859.125
  20208857.100          54.500          51.000
 114651136.49048  89338561.65747  21817375.850    21817373.500    21817374.737
  21817373.444          48.500          44.000
 112969258.93148  88028010.54747  21497324.299    21497322.209    21497323.933
  21497321.976          51.000          47.000
 123481178.38847  96219111.66144  23497683.529                    23497682.476
  23497679.171          42.250          24.500
 125245506.34746  97593912.17346  23833422.438    23833420.487    23833421.001
  23833419.958          41.000          39.000
 127878106.55546  99645292.67842  24334394.565                    24334392.912
  24334389.810          37.750          15.750
 119389715.18047  93030962.21144  22719101.908                    22719101.041
  22719096.241          45.000          28.500
 130180199.80046 101439132.46846  24772455.384    24772451.520    24772454.978
  24772450.839          37.750          37.000
 127419584.56746  99287989.35245  24247138.695    24247135.499    24247137.371
  24247134.706          37.500          35.000
 17  9  2  1 32 30.0000000  0 11G18G04G10G24G32G21G08G11G14G15G27
 110116470.50348  85805052.49846  20954456.684                    20954455.435
  20954451.232          49.750          39.750
 133631799.05545 104128671.8744   25429288.639                    25429286.074
  25429282.725          32.500           1.000
 106190830.57449  82746117.22448  20207430.204    20207427.212    20207429.648
  20207427.516          54.750          51.000
 114679649.86548  89360779.88347  21822801.728    21822799.693    21822800.822
  21822799.309          48.250          44.000
 112902144.35748  87975713.49547  21484552.731    21484550.438    21484552.346
  21484550.119          52.000          46.000
 123578096.09247  96294631.89444  23516126.256                    23516125.498
  23516121.080          42.000          25.500
 125289525.17346  97628212.53546  23841798.077    23841796.084    23841796.426
  23841796.584          40.250          39.000
 127791862.41346  99578089.49142  24317982.587                    24317980.633
  24317978.492          37.000          15.750
 119304442.27947  92964515.86044  22702874.920                    22702873.827
  22702870.128          44.750          28.500
 130287717.69646 101522912.65246  24792916.078    24792911.234    24792915.246
  24792910.061          38.500          36.000
 127508072.27846  99356940.78846  24263975.406    24263973.706    24263975.784
  24263973.350          36.500          36.000
 17  9  2  1 33  0.0000000  0 11G18G04G10G24G32G21G08G11G14G15G27
 110156101.72648  85835933.97346  20961997.972                    20961996.322
  20961992.671          50.000          39.500
 133726608.00445 104202548.9594   25447330.422                    25447328.034
  25447322.634          33.250           1.000
 106183713.97249  82740571.82648  20206075.861    20206072.945    20206075.306
  20206073.129          55.000          51.000
 114708770.50447  89383471.31747  21828343.416    21828340.924    21828342.459
  21828340.851          47.250          44.000
 112835389.26148  87923696.56247  21471849.908    21471847.198    21471849.351
  21471847.152          52.750          47.000
 123675221.16247  96370313.70844  23534609.131                    23534607.447
  23534605.132          42.250          26.000
 125334025.68346  97662888.25046  23850266.087    23850264.873    23850265.051
  23850264.303          38.250          39.000
 127706028.80746  99511206.21042  24301648.994                    24301648.269
  24301645.659          36.750          16.250
 119219422.26747  92898266.55644  22686695.977                    22686694.233
  22686691.081          43.750          28.750
 130395260.99646 101606712.63646  24813381.382    24813375.138    24813379.731
  24813374.837          39.000          36.000
 127596770.80845  99426056.48546  24280854.716    24280853.155    24280854.433
  24280852.492          35.750          36.000
 17  9  2  1 33 30.0000000  0 11G18G04G10G24G32G21G08G11G14G15G27
 110196046.11248  85867059.48146  20969599.064                    20969597.659
  20969593.664          50.500          39.000
 133821430.42445 104276436.5254   25465374.451                    25465373.598
  25465365.936          32.500           1.000
 106176993.15548  82735334.82648  20204797.069    20204794.296    20204796.414
  20204794.203          53.750          51.000
 114738496.59048  89406634.52647  21834000.006    21833997.736    21833999.273
  21833997.599          48.250          43.000
 112768993.80548  87871959.86647  21459215.039    21459212.672    21459214.628
  21459212.464          52.500          47.000
 123772551.34647  96446155.35744  23553130.134                    23553129.330
  23553125.814          42.500          26.000
 125379004.79546  97697936.87846  23858825.425    23858825.240    23858825.313
  23858823.913          39.250          40.000
 127620607.72746  99444644.38042  24285393.456                    24285391.985
  24285390.659          37.000          16.250
 119134655.44747  92832214.54744  22670565.271                    22670563.866
  22670561.578          45.750          28.750
 130502827.58746 101690530.77945  24833849.358    24833844.854    24833847.927
  24833845.496          38.500          35.000
 127685676.31445  99495333.47746  24297772.566    24297771.762    24297771.124
  24297770.602          35.500          37.000
 17  9  2  1 34  0.0000000  0 11G18G04G10G24G32G21G08G11G14G15G27
 110236304.81348  85898429.89846  20977260.004                    20977258.647
  20977254.932          48.750          39.000
 133916264.87645 104350333.4654   25483420.869                    25483419.726
  25483412.870          30.500           1.000
 106170670.11749  82730407.78648  20203593.850    20203590.739    20203593.218
  20203590.853          54.250          50.000
 114768827.82848  89430269.28547  21839771.526    21839769.678    21839770.864
  21839769.596          48.000          44.000
 112702960.16848  87820505.11047  21446649.259    21446646.880    21446648.686
  21446646.883          51.250          47.000
 123870085.55046  96522155.94844  23571690.121                    23571688.705
  23571684.604          41.750          25.500
 125424462.12746  97733358.15846  23867476.154    23867475.976    23867475.467
  23867475.615          40.000          40.000
 127535603.15746  99378407.09242  24269218.590                    24269216.639
  24269214.380          36.750          16.000
 119050144.21447  92766361.67444  22654483.785                    22654482.321
  22654478.621          45.000          29.250
 130610417.05846 101774366.73345  24854322.710    24854319.070    24854322.896
  24854318.652          38.250          35.000
 127774786.96045  99564770.32146  24314728.077    24314729.390    24314726.164
  24314729.094          34.000          37.000
 17  9  2  1 34 30.0000000  0 11G18G04G10G24G32G21G08G11G14G15G27
 110276877.69348  85930045.14046  20984980.899                    20984979.554
  20984975.340          49.750          39.000
 134011108.33544                  25501468.013
                        29.000
 106164745.33049  82725791.07948  20202466.399    20202463.499    20202465.938
  20202463.675          54.000          51.000
 114799763.44547  89454374.98647  21845658.904    21845656.592    21845658.093
  21845656.558          46.750          44.000
 112637289.05348  87769332.82747  21434152.423    21434150.473    21434151.869
  21434150.181          51.750          47.000
 123967821.49847  96598313.74943  23590289.205                    23590287.328
  23590283.981          42.000          23.750
 125470395.23046  97769150.16646  23876215.980    23876216.750    23876215.360
  23876215.338          39.000          40.000
 127451017.54746  99312496.26542  24253123.419                    24253120.589
  24253118.516          36.750          16.000
 118965889.36647  92700708.59044  22638450.328                    22638449.591
  22638445.783          44.000          29.500
 130718027.79946 101858219.29545  24874800.439    24874796.291    24874799.861
  24874796.319          38.000          35.000
 127864099.42745  99634364.44346  24331723.855    24331724.667    24331722.549
  24331724.694          32.750          37.000
 17  9  2  1 35  0.0000000  0 11G18G04G10G24G32G21G08G11G14G15G27
 110317762.67448  85961903.57446  20992761.349                    20992760.070
  20992755.577          50.750          39.250
 134105956.20944                  25519517.963
                        29.500
 106159217.44449  82721483.64248  20201414.580    20201411.857    20201414.008
  20201411.910          54.000          51.000
 114831300.27647  89478949.16247  21851660.119    21851657.832    21851659.432
  21851657.689          46.500          44.000
 112571979.34748  87718442.16947  21421724.349    21421722.074    21421724.064
  21421721.860          51.500          47.000
 124065755.24647  96674625.71543  23608925.485                    23608925.107
  23608919.877          42.750          23.750
 125516799.79346  97805309.54946  23885046.444    23885047.253    23885046.081
  23885045.362          38.500          40.000
 127366851.58446  99246912.46242  24237106.005                    24237105.332
  24237101.774          37.000          16.000
 118881890.03747  92635254.59144  22622465.869                    22622464.212
  22622460.178          45.000          29.500
 130825656.81846 101942086.09145  24895282.114    24895277.949    24895281.535
  24895276.624          38.500          35.000
 127953608.61745  99704111.83546  24348758.800    24348757.555    24348755.296
  24348757.305          33.250          37.000
 17  9  2  1 35 30.0000000  0 11G18G04G10G24G32G21G08G11G14G15G27
 110358959.76148  85994005.20546  21000600.938                    21000599.573
  21000594.986          49.500          39.250
 134200805.58844                  25537565.128
                        27.250
 106154087.17049  82717486.03248  20200438.105    20200435.376    20200437.552
  20200435.577          55.000          51.000
 114863437.17448  89503990.93747  21857775.599    21857773.033    21857774.776
  21857773.061          48.500          43.000
 112507031.94948  87667833.84247  21409365.423    21409362.794    21409365.076
  21409362.507          52.250          46.000
 124163884.65847  96751090.14643  23627598.628                    23627597.184
  23627593.519          42.750          23.750
 125563673.86846  97841834.79646  23893966.534    23893966.042    23893965.563
  23893965.386          39.250          40.000
 127283108.38346  99181658.07342  24221171.190                    24221170.303
  24221166.513          36.250          15.500
 118798147.66047  92570000.82944  22606529.814                    22606528.579
  22606525.010          46.250          29.750
 130933302.46946 102025965.81745  24915766.017    24915763.460    24915764.797
  24915761.604          38.500          35.000
 128043311.60245  99774010.22346  24365827.621    24365827.077    24365826.958
  24365825.969          34.250          37.000
 17  9  2  1 36  0.0000000  0 11G18G04G10G24G32G21G08G11G14G15G27
 110400470.37448  86026351.13546  21008500.135                    21008498.891
  21008494.339          48.500          39.000
 134295655.07744                  25555615.656
                        29.500
 106149356.43349  82713799.75548  20199537.878    20199535.099    20199537.228
  20199535.207          54.750          51.000
 114896173.51647  89529499.80947  21864005.137    21864002.636    21864004.369
  21864002.622          47.250          43.000
 112442448.98648  87617509.48447  21397075.604    21397073.486    21397075.156
  21397072.744          52.000          47.000
 124262208.91746  96827706.38644  23646309.245                    23646307.662
  23646303.897          41.000          24.250
 125611016.71546  97878725.32046  23902975.525    23902975.377    23902975.358
  23902974.641          40.250          39.000
 127199791.81946  99116736.13042  24205317.673                    24205314.975
  24205311.673          36.750          15.500
 118714664.27947  92504948.86944  22590643.369                    22590642.749
  22590638.170          44.250          29.750
 131040964.63146 102109858.40545  24936252.690    24936250.040    24936252.514
  24936248.402          37.750          35.000
 128133206.48445  99844058.11346  24382935.228    24382933.846    24382933.896
  24382932.941          35.500          37.000
 17  9  2  1 36 30.0000000  0 11G18G04G10G24G32G21G08G11G14G15G27
 110442294.28848  86058941.20146  21016458.864                    21016457.457
  21016452.889          48.250          39.250
 134390501.69444                  25573662.744
                        28.500
 106145025.75148  82710425.21048  20198713.758    20198710.924    20198713.024
  20198711.058          53.750          51.000
 114929508.55947  89555475.19747  21870348.441    21870346.242    21870348.217
  21870346.330          47.750          43.000
 112378231.28748  87567469.73947  21384855.120    21384852.964    21384854.736
  21384852.534          50.750          47.000
 124360725.92046  96904472.80043  23665056.022                    23665054.124
  23665051.131          41.250          23.250
 125658825.79046  97915979.12946  23912074.202    23912072.554    23912073.191
  23912072.175          40.250          39.000
 127116904.30345  99052148.55142  24189542.205                    24189542.504
  24189538.018          35.500          15.000
 118631440.91447  92440099.51645  22574806.911                    22574805.367
  22574800.599          44.750          30.000
 131148641.54246 102193762.51045  24956743.269    24956741.178    24956742.349
  24956739.194          38.750          35.000
 128223290.15345  99914253.09646  24400077.614    24400075.517    24400075.992
  24400075.323          35.750          37.000
 17  9  2  1 37  0.0000000  0 11G18G04G10G24G32G21G08G11G14G15G27
 110484431.44448  86091775.34746  21024477.520                    21024476.075
  21024471.358          50.000          39.000
 134485342.83144                  25591711.597
                        27.500
 106141095.80848  82707362.93448  20197965.868    20197963.030    20197965.148
  20197963.179          52.500          51.000
 114963441.09848  89581916.17647  21876805.609    21876802.986    21876804.909
  21876803.262          48.000          43.000
 112314379.64448  87517715.23247  21372704.546    21372702.439    21372704.149
  21372702.172          50.000          47.000
 124459433.58646  96981387.82343  23683839.203                    23683837.208
  23683834.561          41.500          22.500
 125707098.98347  97953594.58246  23921260.308    23921258.633    23921259.855
  23921257.018          42.000          39.000
 127034448.70145  98987897.51242  24173850.871                    24173850.997
  24173847.821          35.000          15.000
 118548478.60947  92375453.57744  22559019.162                    22559017.517
  22559013.318          45.500          29.750
 131256332.50946 102277677.55345  24977237.034    24977233.312    24977235.046
  24977231.378          39.750          34.000
 128313559.32745  99984592.59946  24417255.366    24417252.984    24417253.949
  24417252.623          35.750          37.000
 17  9  2  1 37 30.0000000  0 10G18G10G24G32G21G08G11G14G15G27
 110526881.15048  86124853.05046  21032555.282                    21032554.416
  21032549.294          49.500          39.000
 106137566.72449  82704613.00648  20197294.381    20197291.343    20197293.655
  20197291.530          54.500          51.000
 114997969.32648  89608821.33647  21883376.023    21883373.266    21883375.239
  21883373.277          48.750          43.000
 112250894.44848  87468246.26947  21360623.994    21360621.439    21360623.515
  21360621.247          52.750          47.000
 124558329.11946  97058449.21543  23702658.398                    23702657.507
  23702653.554          41.250          22.500
 125755833.96646  97991569.87046  23930534.655    23930532.713    23930533.894
  23930531.708          40.500          38.000
 126952427.41346  98923984.89342  24158244.154                    24158242.998
  24158239.766          36.500          15.250
 118465778.30047  92311011.77845  22543282.156                    22543281.362
  22543277.616          45.000          30.250
 131364035.17846 102361601.71345  24997732.403    24997729.439    24997730.034
  24997727.115          39.500          33.000
 128404010.63046 100055074.02946  24434468.337    24434466.524    24434465.830
  24434465.689          36.000          37.000
 17  9  2  1 38  0.0000000  0 10G18G10G24G32G21G08G11G14G15G27
 110569643.40348  86158174.28946  21040692.902                    21040691.515
  21040686.947          50.500          39.000
 106134439.13749  82702175.93548  20196699.239    20196696.130    20196698.582
  20196696.425          54.250          51.000
 115033092.00947  89636189.71847  21890059.934    21890057.453    21890059.049
  21890057.028          45.750          43.000
 112187776.52848  87419063.50247  21348612.915    21348610.404    21348612.504
  21348610.011          52.250          47.000
 124657410.78946  97135655.67643  23721512.809                    23721511.516
  23721508.064          41.000          21.750
 125805028.35546  98029903.14646  23939895.664    23939892.727    23939894.892
  23939892.735          40.750          38.000
 126870842.89146  98860412.58242  24142720.079                    24142717.913
  24142714.207          38.000          15.250
 118383340.75147  92246774.76845  22527594.564                    22527593.571
  22527589.788          45.500          30.750
 131471748.54346 102445534.20645  25018229.056    25018226.796    25018228.226
  25018223.933          38.750          33.000
 128494640.94446 100125694.95246  24451714.153    24451712.807    24451713.262
  24451712.226          36.250          37.000
 17  9  2  1 38 30.0000000  0 10G18G10G24G32G21G08G11G14G15G27
 110612718.43248  86191739.25046  21048889.843                    21048888.306
  21048883.949          50.500          39.000
 106131713.71849  82700052.24348  20196180.614    20196177.660    20196180.120
  20196177.739          54.500          51.000
 115068807.61748  89664020.10747  21896856.016    21896853.301    21896855.119
  21896853.164          48.500          43.000
 112125026.75248  87370167.59947  21336671.871    21336669.258    21336671.500
  21336669.117          52.750          46.000
 124756676.36546  97213005.45943  23740402.437                    23740400.387
  23740398.073          41.000          20.500
 125854679.90146  98068592.63146  23949344.016    23949341.682    23949342.859
  23949340.851          40.500          38.000
 126789697.81346  98797182.69242  24127278.585                    24127276.621
  24127272.561          39.000          16.750
 118301167.28847  92182743.56045  22511957.707                    22511956.077
  22511952.901          44.750          31.250
 131579471.18046 102529473.94045  25038727.258    25038724.260    25038727.124
  25038723.219          38.250          33.000
 128585447.15646 100196452.95546  24468994.792    24468993.284    24468992.473
  24468991.494          36.500          37.000
 17  9  2  1 39  0.0000000  0 10G18G10G24G32G21G08G11G14G15G27
 110656106.69247  86225548.28146  21057145.672                    21057144.392
  21057140.137          47.750          38.750
 106129391.69049  82698242.88648  20195738.879    20195735.545    20195738.206
  20195735.779          55.000          51.000
 115105115.93647  89692312.35047  21903764.564    21903762.833    21903763.966
  21903762.039          46.500          43.000
 112062646.52648  87321559.64447  21324801.301    21324798.858    21324800.737
  21324798.415          51.750          47.000
 124856124.49946  97290497.49243  23759326.560                    23759325.505
  23759322.357          40.000          20.500
 125904787.09246  98107637.16946  23958879.278    23958877.408    23958878.140
  23958876.990          40.750          39.000
 126708995.55546  98734297.86243  24111921.182                    24111920.399
  24111914.917          39.000          18.750
 118219259.52547  92118919.38945  22496370.791                    22496370.015
  22496366.355          46.000          31.000
 131687202.31046 102613420.27145  25059229.696    25059224.526    25059227.715
  25059224.462          39.250          33.000
 128676426.78646 100267346.04346  24486306.943    24486305.952    24486306.358
  24486305.519          36.000          37.000
 17  9  2  1 39 30.0000000  0 10G18G10G24G32G21G08G11G14G15G27
 110699807.15948  86259600.59146  21065462.136                    21065460.545
  21065456.016          50.750          38.750
 106127472.57149  82696747.47948  20195373.646    20195370.480    20195372.931
  20195370.658          54.250          51.000
 115142014.36347  89721064.39947  21910785.984    21910784.186    21910784.980
  21910783.829          46.750          43.000
 112000635.59448  87273239.45247  21313001.126    21312998.836    21313000.766
  21312998.454          51.750          47.000
 124955751.77046  97368129.08543  23778285.040                    23778283.442
  23778281.029          40.500          19.750
 125955346.72646  98147034.26346  23968499.589    23968499.273    23968498.996
  23968498.980          39.250          39.000
 126628737.52246  98671759.18243  24096648.615                    24096647.145
  24096642.082          39.250          18.750
 118137617.26947  92055302.11345  22480834.864                    22480833.526
  22480829.858          44.750          31.250
 131794939.64146 102697371.41645  25079731.690    25079727.764    25079729.457
  25079726.112          39.500          33.000
 128767575.80645 100338371.16246  24503651.295    24503650.287    24503650.888
  24503649.414          35.750          37.000
 17  9  2  1 40  0.0000000  0 10G18G10G24G32G21G08G11G14G15G27
 110743820.40847  86293896.63546  21073837.637                    21073835.831
  21073831.420          47.500          38.750
 106125957.82048  82695567.16348  20195085.354    20195082.171    20195084.855
  20195082.363          52.750          51.000
 115179501.70747  89750275.34747  21917919.754    21917918.584    21917918.694
  21917917.737          46.750          43.000
 111938995.63948  87225208.33048  21301271.592    21301269.371    21301271.209
  21301268.810          51.750          48.000
 125055556.74846  97445899.15343  23797277.723                    23797275.779
  23797273.506          40.000          19.750
 126006356.89346  98186782.42746  23978206.176    23978206.989    23978205.449
  23978205.422          38.500          39.000
 126548927.39646  98609569.51843  24081461.073                    24081459.013
  24081454.577          39.000          18.250
 118056242.33147  91991893.14245  22465350.030                    22465348.801
  22465344.188          46.500          31.250
 131902682.48946 102781326.83145  25100234.548    25100230.640    25100232.500
  25100229.091          39.250          33.000
 128858892.04745 100409526.60246  24521029.421    24521027.566    24521027.753
  24521027.828          35.000          37.000
 17  9  2  1 40 30.0000000  0 10G18G10G24G32G21G08G11G14G15G27
 110788146.14248  86328436.16946  21082272.283                    21082270.653
  21082266.467          49.000          39.000
 106124847.65949  82694702.10548  20194874.093    20194871.023    20194873.557
  20194871.087          55.250          51.000
 115217576.76347  89779944.25247  21925165.196    21925162.718    21925164.219
  21925162.864          46.750          43.000
 111877727.03448  87177466.57447  21289612.515    21289610.437    21289611.984
  21289609.746          53.000          47.000
 125155537.41146  97523806.10543  23816303.687                    23816301.733
  23816298.263          40.500          19.750
 126057815.48946  98226880.01946  23987998.227    23987999.508    23987997.416
  23987998.698          38.750          39.000
 126469567.55346  98547730.71043  24066357.850                    24066356.485
  24066352.509          37.500          18.250
 117975135.39347  91928692.99945  22449915.862                    22449914.641
  22449910.425          46.000          31.250
 132010429.67846 102865285.63945  25120735.589    25120735.134    25120735.652
  25120732.406          36.000          33.000
 128950371.84846 100480809.49746  24538436.606    24538436.699    24538436.428
  24538435.405          36.500          37.000
 17  9  2  1 41  0.0000000  0 10G18G10G24G32G21G08G11G14G15G27
 110832784.81048  86363219.56146  21090766.524                    21090765.348
  21090760.868          48.750          39.250
 106124143.24748  82694153.22048  20194739.966    20194736.808    20194739.412
  20194737.126          53.750          51.000
 115256238.93947  89810070.63947  21932522.115    21932519.917    21932521.535
  21932520.052          46.500          43.000
 111816831.11948  87130015.21747  21278024.297    21278022.122    21278023.942
  21278021.458          51.750          47.000
 125255692.30846  97601848.83743  23835362.307                    23835360.454
  23835357.444          39.500          20.250
 126109720.52046  98267325.47546  23997875.603    23997876.077    23997875.098
  23997875.273          38.250          40.000
 126390660.92146  98486245.06842  24051341.157                    24051341.148
  24051337.964          36.250          17.000
 117894298.04447  91865702.90545  22434532.491                    22434531.353
  22434528.320          44.750          31.000
 132118179.93445 102949246.85645  25141240.043    25141237.966    25141239.201
  25141235.976          34.750          33.000
 129042012.71546 100552217.90246  24555876.466    24555875.632    24555875.918
  24555875.229          36.750          38.000
 17  9  2  1 41 30.0000000  0 10G18G10G24G32G21G08G11G14G15G27
 110877734.86648  86398245.58646  21099320.149                    21099318.811
  21099314.472          50.750          39.000
 106123843.97149  82693920.02748  20194682.894    20194679.874    20194682.113
  20194680.104          54.000          51.000
 115295485.23647  89840652.20247  21939990.891    21939989.266    21939989.842
  21939988.484          47.500          43.000
 111756307.45748  87082853.93347  21266507.209    21266504.522    21266506.706
  21266504.071          53.000          47.000
 125356017.91946  97680024.58943  23854454.329                    23854452.723
  23854448.296          41.250          20.250
 126162068.54546  98308116.11346  24007838.498    24007838.899    24007836.803
  24007837.501          40.000          40.000
 126312209.24845  98425113.92242  24036413.000                    24036409.752
  24036408.182          35.500          14.750
 117813730.26547  91802922.88245  22419200.681                    22419199.269
  22419196.287          43.500          30.750
 132225930.82246 103033208.56445  25161746.042    25161740.731    25161744.068
  25161740.338          36.250          32.000
 129133810.38046 100623748.49046  24573345.073    24573343.140    24573344.008
  24573343.912          36.500          38.000
 17  9  2  1 42  0.0000000  0 10G18G10G24G32G21G08G11G14G15G27
 110922995.05648  86433513.27146  21107933.025                    21107931.762
  21107927.578          50.750          39.250
 106123948.95749  82694001.84348  20194702.944    20194699.965    20194702.261
  20194700.010          54.250          50.000
 115335312.44147  89871686.41247  21947569.732    21947567.503    21947568.992
  21947567.552          45.750          43.000
 111696155.39748  87035982.21447  21255060.690    21255057.975    21255060.379
  21255057.790          53.000          47.000
 125456510.50246  97758330.48843  23873577.629                    23873575.793
  23873571.733          40.250          20.500
 126214855.62246  98349248.84946  24017883.378    24017882.751    24017882.190
  24017882.027          39.750          39.000
 126234213.24746  98364337.83942  24021571.768                    24021569.809
  24021566.000          37.250          14.750
 117733431.72847  91740352.66045  22403920.450                    22403919.765
  22403916.221          43.750          30.500
 132333679.78246 103117168.73645  25182252.914    25182245.899    25182248.656
  25182244.073          38.750          32.000
 129225760.29046 100695397.70646  24590842.348    24590842.809    24590840.639
  24590841.781          36.500          38.000
 17  9  2  1 42 30.0000000  0 10G18G10G24G32G21G08G11G14G15G27
 110968565.36247  86469022.60646  21116604.900                    21116603.504
  21116599.562          47.250          39.250
 106124458.86549  82694399.18448  20194800.228    20194796.965    20194799.569
  20194797.073          54.500          51.000
 115375720.20947  89903173.01047  21955259.540    21955257.043    21955258.419
  21955257.129          46.000          43.000
 111636375.79448  86989400.72148  21243685.064    21243682.609    21243684.616
  21243682.219          52.750          48.000
 125557167.91546  97836764.81143  23892732.247                    23892730.110
  23892725.127          41.500          21.000
 126268079.65946  98390722.10246  24028011.361    24028010.826    24028010.015
  24028010.146          40.250          39.000
 126156676.04646  98303919.27442  24006817.608                    24006816.376
  24006810.903          37.500          13.750
 117653403.40247  91677992.98245  22388691.589                    22388690.587
  22388686.730          44.250          30.750
 132441425.71146 103201126.54545  25202755.686    25202748.301    25202753.088
  25202748.429          37.750          31.000
 129317859.48046 100767163.22946  24608369.642    24608367.273    24608368.101
  24608366.284          37.250          37.000
 17  9  2  1 43  0.0000000  0 10G18G10G24G32G21G08G11G14G15G27
 111014447.68348  86504775.07546  21125335.820                    21125334.590
  21125330.512          49.750          39.250
 106125376.49449  82695114.23148  20194974.694    20194971.512    20194974.157
  20194971.733          55.000          51.000
 115416708.08047  89935111.64847  21963058.877    21963056.588    21963058.318
  21963056.377          46.500          43.000
 111576971.62148  86943111.77248  21232380.484    21232378.193    21232379.967
  21232378.177          51.500          48.000
 125657990.39946  97915327.78743  23911917.976                    23911916.811
  23911911.606          41.000          21.000
 126321740.69246  98432535.88046  24038223.064    24038221.996    24038221.043
  24038222.186          40.000          39.000
 126079602.20446  98243861.77142  23992150.423                    23992149.677
  23992144.771          37.500          13.750
 117573648.33547  91615846.24045  22373515.059                    22373514.244
  22373510.409          45.000          30.750
 132549169.47045 103285082.67045  25223257.090    25223250.724    25223255.449
  25223251.925          35.000          31.000
 129410107.10046 100839044.47646  24625921.847    24625920.758    24625921.289
  24625921.538          36.500          37.000
 17  9  2  1 43 30.0000000  0 10G18G10G24G32G21G08G11G14G15G27
 111060642.51448  86540771.05646  21134126.553                    21134125.359
  21134121.009          49.250          38.750
 106126702.96348  82696147.84548  20195227.146    20195224.152    20195226.520
  20195224.164          53.000          51.000
 115458275.92147  89967502.20347  21970969.294    21970965.949    21970968.418
  21970966.618          46.500          43.000
 111517944.18848  86897116.38148  21221147.907    21221145.766    21221147.344
  21221145.362          52.500          48.000
 125758976.49446  97994018.23243  23931135.500                    23931133.486
  23931129.639          40.750          20.750
 126375836.68246  98474688.57046  24048517.044    24048516.476    24048516.292
  24048515.193          39.000          39.000
 126002995.20846  98184168.02342  23977572.740                    23977572.283
  23977565.967          37.500          14.000
 117494168.32447  91553913.80945  22358390.454                    22358388.393
  22358385.157          44.250          30.750
 132656909.99645 103369036.29344  25243754.368    25243749.049    25243755.982
  25243752.684          31.000          29.000
 129502500.70145 100911039.44046  24643502.838    24643503.896    24643501.459
  24643503.691          35.500          37.000
