     2.11           OBSERVATION DATA    G (GPS)             RINEX VERSION / TYPE
teqc  2013Mar15                         20190126 21:56:15UTCPGM / RUN BY / DATE
Linux 2.4.21-27.ELsmp|Opteron|gcc -static|Linux x86_64|=+   COMMENT
     2.11           OBSERVATION DATA    M (MIXED)           COMMENT
RTCM2RINEX 1.1.15   NRCan               20190125 00:16:06UTCCOMMENT
gfzrnx-1.11-7352    FILE MERGE          20190126 001145 UTC COMMENT
   918130.0800 -4346072.6500  4561977.9000                  APPROX POSITION XYZ
GPS -    L1 Phase aligned to CA and L2 aligned to P2        COMMENT
GLONASS- L1 Phase aligned to C1 and L2 aligned to P2        COMMENT
    18                                                      LEAP SECONDS
     1     1                                                WAVELENGTH FACT L1/2
01882               JAVAD TRE_G3TH DELTA3.6.3 Jul,01,2015   REC # / TYPE / VERS
ALGO CACS-GSD 883160 Algonquin Park ON Canada               MARKER NAME
        0.1000        0.0000        0.0000                  ANTENNA: DELTA H/E/N
40104M002                                                   MARKER NUMBER
ACSOPS              NRCan                                   OBSERVER / AGENCY
303                 AOAD/M_T        NONE                    ANT # / TYPE
     8    C1    C2    L1    L2    P1    P2    S1    S2      # / TYPES OF OBSERV
    30.0000                                                 INTERVAL
teqc edited: all GLONASS satellites excluded                COMMENT
teqc edited: all Galileo satellites excluded                COMMENT
  2019     1    25     0     0    0.0000000     GPS         TIME OF FIRST OBS
                                                            END OF HEADER
 19  1 25  0  0  0.0000000  0 11G01G04G07G08G09G11G16G18G27G28G30
  24797528.782    24797531.732   130312037.0044  101541745.5304   24797530.243
  24797532.509          37.000          20.250
  22456134.933                   118007812.9234   91954144.5004   22456134.589
  22456134.891          47.000          35.750
  20377552.828    20377551.232   107084963.9364   83442708.0994   20377552.544
  20377551.374          53.750          45.750
  20373174.174    20373175.233   107061798.3324   83424787.1774   20373173.343
  20373174.796          53.250          48.000
  23187049.033    23187049.303   121848806.2054   94947112.7234   23187048.867
  23187049.703          43.000          32.750
  22762650.920                   119618675.1024   93209282.6894   22762650.134
  22762649.203          45.000          35.250
  24113684.148                   126718305.5294   98741549.9854   24113682.791
  24113680.574          41.750          26.750
  23009059.798                   120913455.6544   94218272.2404   23009059.477
  23009059.216          43.250          32.000
  21654953.621    21654953.645   113797602.7984   88673470.7354   21654953.275
  21654953.872          48.250          43.500
  23791231.629                   125023790.7534   97421140.4064   23791230.462
  23791228.937          39.000          24.000
  21900216.633    21900217.289   115086451.9214   89677755.5874   21900216.358
  21900217.088          49.250          40.250
 19  1 25  0  0 30.0000000  0 11G01G04G07G08G09G11G16G18G27G28G30
  24775818.945    24775822.119   130197952.4644  101452848.6314   24775819.004
  24775821.400          36.500          21.250
  22469780.379                   118079519.8124   92010020.0044   22469780.005
  22469780.191          46.500          35.500
  20373069.425    20373067.962   107061403.9414   83424349.6594   20373069.366
  20373068.059          54.000          46.000
  20376772.514    20376773.921   107080708.6994   83439522.5324   20376771.940
  20376773.238          53.500          48.000
  23205251.859    23205253.202   121944467.7434   95021654.1454   23205251.571
  23205254.036          42.500          32.750
  22743297.834                   119516975.2154   93130036.0494   22743297.597
  22743296.296          45.000          35.500
  24131482.864                   126811849.3944   98814441.2924   24131482.626
  24131480.979          40.250          24.500
  22989994.731                   120813266.6954   94140202.9444   22989993.752
  22989993.520          43.500          32.250
  21669767.999    21669768.210   113875451.6474   88734132.1794   21669767.241
  21669767.854          49.750          43.250
  23777044.156                   124949239.4424   97363048.5314   23777042.922
  23777042.239          39.250          22.750
  21885422.865    21885424.123   115008710.2044   89617177.6214   21885422.745
  21885424.005          50.000          40.250
 19  1 25  0  1  0.0000000  0 11G01G04G07G08G09G11G16G18G27G28G30
  24754105.105    24754106.730   130083838.4244  101363928.7554   24754104.973
  24754107.301          38.000          21.500
  22483502.303                   118151630.3384   92066209.9974   22483502.171
  22483502.394          46.250          35.250
  20368680.719    20368678.821   107038339.5794   83406377.4314   20368680.525
  20368679.045          54.250          46.000
  20380470.782    20380472.358   107100143.8484   83454666.8124   20380470.317
  20380471.716          53.500          48.250
  23223495.390    23223495.625   122040335.3474   95096356.1554   23223494.953
  23223496.164          42.750          32.750
  22723992.837                   119415526.4054   93050985.0434   22723992.018
  22723991.126          44.750          35.750
  24149291.331                   126905430.5554   98887361.6304   24149291.106
  24149289.950          40.750          25.500
  22970978.034                   120713336.3214   94062335.1744   22970977.233
  22970977.938          42.500          32.250
  21684650.210    21684650.413   113953658.5634   88795072.6364   21684649.520
  21684650.284          49.250          43.250
  23762877.316                   124874788.1934   97305034.5534   23762877.362
  23762875.065          41.000          24.750
  21870687.621    21870688.510   114931276.3094   89556839.5354   21870687.061
  21870688.775          49.250          40.000
 19  1 25  0  1 30.0000000  0 11G01G04G07G08G09G11G16G18G27G28G30
  24732383.153    24732387.183   129969697.7594  101274988.1124   24732383.576
  24732387.960          37.500          21.500
  22497300.751                   118224141.7564   92122712.4054   22497300.856
  22497300.586          45.750          35.500
  20364386.268    20364384.759   107015772.4744   83388792.6794   20364385.942
  20364384.768          54.250          46.000
  20384268.776    20384270.192   107120102.0364   83470218.6504   20384268.188
  20384269.724          53.500          47.750
  23241776.498    23241777.253   122136405.9194   95171216.3404   23241776.000
  23241777.477          42.750          31.500
  22704736.066                   119314331.6704   92972132.0424   22704735.198
  22704733.907          45.500          35.750
  24167105.959                   126999048.3784   98960310.5594   24167106.326
  24167104.085          40.750          24.000
  22952011.959                   120613668.1124   93984671.6774   22952012.056
  22952010.926          42.250          32.000
  21699600.048    21699600.455   114032220.9534   88856290.0914   21699599.450
  21699600.401          49.000          43.250
  23748727.553                   124800436.9334   97247098.5234   23748727.286
  23748727.037          40.000          25.000
  21856012.019    21856012.945   114854152.5534   89496743.1084   21856011.232
  21856012.631          49.750          40.250
 19  1 25  0  2  0.0000000  0 11G01G04G07G08G09G11G16G18G27G28G30
  24710658.729    24710661.949   129855533.5254  101186029.0854   24710659.438
  24710662.203          36.250          18.500
  22511175.150                   118297051.2784   92179525.0064   22511174.891
  22511174.278          46.250          35.000
  20360187.019    20360185.243   106993704.2804   83371596.6874   20360186.722
  20360185.138          54.500          46.250
  20388165.914    20388167.335   107140582.2464   83486177.2594   20388165.353
  20388166.939          53.750          48.000
  23260095.484    23260096.819   122232676.4014   95246232.2854   23260094.600
  23260097.270          40.750          31.250
  22685528.447                   119213393.8204   92893479.1894   22685527.356
  22685525.729          46.500          35.500
  24184928.579                   127092702.3384   99033287.6614   24184928.457
  24184927.044          41.750          25.750
  22933096.160                   120514265.3324   93907215.0074   22933095.443
  22933095.737          44.000          32.000
  21714617.038    21714617.737   114111136.2464   88917782.5314   21714616.429
  21714617.403          49.000          43.500
  23734600.053                   124726185.9264   97189240.6224   23734599.077
  23734595.903          42.750          26.250
  21841394.969    21841396.581   114777341.2014   89436890.1084   21841394.262
  21841395.935          49.500          40.750
 19  1 25  0  2 30.0000000  0 11G01G04G07G08G09G11G16G18G27G28G30
  24688930.654    24688932.887   129741348.5624  101097053.9504   24688931.789
  24688932.447          37.250          18.000
  22525124.545                   118370356.1544   92236645.6754   22525124.332
  22525124.615          45.750          34.750
  20356082.665    20356081.284   106972136.7194   83354790.7944   20356082.511
  20356081.056          54.500          46.000
  20392161.993    20392163.633   107161582.8084   83502541.3354   20392161.525
  20392163.235          53.750          48.000
  23278453.410    23278454.342   122329143.7234   95321401.6084   23278453.128
  23278453.480          42.000          31.750
  22666369.360                   119112715.3694   92815028.4784   22666369.183
  22666367.853          45.750          35.750
  24202756.516                   127186391.5094   99106292.2064   24202756.442
  24202755.360          41.500          25.250
  22914231.188                   120415131.2174   93829967.6844   22914231.071
  22914231.095          44.000          32.250
  21729700.896    21729701.333   114190401.8564   88979547.9374   21729700.242
  21729701.181          49.500          43.250
  23720489.177                   124652035.2924   97131460.9124   23720488.578
  23720487.079          43.500          27.250
  21826838.350    21826839.724   114700844.5554   89377282.3424   21826837.657
  21826838.775          49.750          40.750
 19  1 25  0  3  0.0000000  0 11G01G04G07G08G09G11G16G18G27G28G30
  24667197.143    24667198.826   129627145.8964  101008065.0154   24667197.570
  24667200.615          36.000          18.500
  22539149.110                   118444053.5584   92294072.2274   22539148.489
  22539148.566          46.250          34.500
  20352073.835    20352072.196   106951070.5134   83338375.5754   20352073.693
  20352072.289          54.500          46.250
  20396257.089    20396258.712   107183102.4844   83519309.9174   20396256.565
  20396258.305          53.500          48.000
  23296846.524    23296848.453   122425804.8124   95396721.8794   23296846.733
  23296847.928          41.250          31.500
  22647261.680                   119012299.8614   92736782.6524   22647260.917
  22647259.272          46.500          35.750
  24220591.994                   127280115.3884   99179323.7564   24220591.922
  24220590.725          41.500          24.750
  22895417.830                   120316269.3344   93752932.4784   22895417.528
  22895417.863          43.250          31.500
  21744850.470    21744850.999   114270015.1904   89041584.3094   21744850.228
  21744850.967          49.000          43.250
  23706397.226                   124577985.1874   97073759.5494   23706396.380
  23706395.634          39.250          25.750
  21812341.569    21812342.647   114624664.8674   89317921.5474   21812340.961
  21812342.532          49.000          40.500
 19  1 25  0  3 30.0000000  0 11G01G04G07G08G09G11G16G18G27G28G30
  24645462.681    24645466.596   129512928.5044  100919064.5854   24645462.650
  24645465.474          36.750          18.250
  22553246.852                   118518140.6984   92351802.4484   22553246.245
  22553247.157          45.750          35.000
  20348160.781    20348159.272   106930507.4324   83322352.4014   20348160.552
  20348159.263          54.250          46.000
  20400450.913    20400452.422   107205140.1514   83536482.1304   20400450.325
  20400451.989          54.000          48.000
  23315277.050    23315278.444   122522656.4794   95472190.6824   23315276.829
  23315278.399          42.250          31.000
  22628202.700                   118912149.1594   92658743.1684   22628202.936
  22628201.650          45.750          35.750
  24238434.154                   127373873.5104   99252381.9954   24238433.774
  24238430.969          42.500          24.750
  22876658.009                   120217683.0984   93676112.0364   22876657.435
  22876657.213          43.500          31.750
  21760066.519    21760066.832   114349973.7124   89103889.6484   21760065.910
  21760066.559          49.250          43.250
  23692325.078                   124504035.9564   97016136.7964   23692324.590
  23692323.095          42.000          26.500
  21797905.911    21797907.373   114548804.4574   89258809.5454   21797905.283
  21797906.973          49.500          40.750
 19  1 25  0  4  0.0000000  0 11G01G04G07G08G09G11G16G18G27G28G30
  24623724.559    24623728.487   129398699.2814  100830054.9624   24623725.438
  24623729.856          36.750          21.250
  22567418.626                   118592614.7674   92409834.1904   22567418.569
  22567419.041          45.500          34.500
  20344343.853    20344342.191   106910449.1534   83306722.5884   20344343.826
  20344342.219          54.500          46.000
  20404742.681    20404744.495   107227693.8614   83554056.4524   20404742.132
  20404743.819          54.000          48.250
  23333742.691    23333745.521   122619695.6844   95547805.6434   23333742.498
  23333745.805          41.750          31.750
  22609196.051                   118812266.4404   92580912.4824   22609195.458
  22609194.218          45.500          35.500
  24256282.212                   127467665.2184   99325466.4044   24256281.370
  24256280.495          43.000          25.750
  22857951.004                   120119375.8354   93599508.9784   22857950.463
  22857950.038          43.250          32.000
  21775346.994    21775347.790   114430274.8084   89166461.9394   21775346.387
  21775347.238          49.000          43.000
  23678271.816                   124430187.2824   96958592.3954   23678271.012
  23678270.083          39.750          25.500
  21783531.521    21783532.638   114473265.6244   89199948.1254   21783530.812
  21783532.209          49.500          41.000
 19  1 25  0  4 30.0000000  0 11G01G04G07G08G09G11G16G18G27G28G30
  24601986.078    24601989.225   129284461.3394  100741038.5244   24601986.298
  24601990.338          39.250          24.250
  22581664.284                   118667472.9544   92468165.2414   22581663.965
  22581663.471          45.750          34.750
  20340623.353    20340621.664   106890896.9464   83291487.1104   20340623.186
  20340621.489          54.750          46.250
  20409132.400    20409133.963   107250762.3304   83572031.8864   20409131.985
  20409133.423          53.750          48.250
  23352245.105    23352245.835   122716919.3594   95623564.3404   23352245.172
  23352245.682          43.500          32.000
  22590239.876                   118712654.3154   92503292.6884   22590239.605
  22590238.766          45.500          36.000
  24274136.057                   127561489.5954   99398576.2834   24274135.264
  24274133.953          42.250          25.000
  22839296.884                   120021350.9504   93523126.0034   22839296.551
  22839296.743          42.000          31.750
  21790692.194    21790692.871   114510915.8974   89229299.1524   21790691.896
  21790692.750          48.750          42.750
  23664238.680                   124356439.7334   96901126.7944   23664238.097
  23664237.575          41.750          26.750
  21769218.696    21769219.670   114398050.6314   89141339.0424   21769217.621
  21769219.302          49.500          41.000
 19  1 25  0  5  0.0000000  0 11G01G04G07G08G09G11G16G18G27G28G30
  24580246.737    24580249.512   129170217.6034  100652017.5624   24580246.527
  24580249.982          40.250          24.500
  22595981.349                   118742712.4364   92526793.3984   22595981.186
  22595981.466          45.500          34.750
  20336999.230    20336997.307   106871852.0044   83276646.8964   20336998.999
  20336997.432          54.750          46.250
  20413619.896    20413621.533   107274344.5164   83590407.6164   20413619.605
  20413621.101          54.250          48.000
  23370779.824    23370781.522   122814324.4174   95699464.3524   23370779.651
  23370781.999          43.000          31.000
  22571337.094                   118613315.9884   92425886.2204   22571336.069
  22571335.357          46.250          36.250
  24291995.227                   127655345.9794   99471711.1114   24291994.748
  24291994.851          40.750          24.250
  22820698.052                   119923611.6664   93446965.5184   22820697.832
  22820698.539          43.750          32.000
  21806101.931    21806102.416   114591894.4324   89292399.3144   21806101.582
  21806102.645          48.750          42.750
  23650223.878                   124282793.5434   96843740.1884   23650224.274
  23650221.541          40.250          28.000
  21754967.125    21754968.911   114323161.7974   89082984.1224   21754966.806
  21754968.573          48.250          41.250
 19  1 25  0  5 30.0000000  0 11G01G04G07G08G09G11G16G18G27G28G30
  24558505.646    24558509.644   129055971.0204  100562994.3884   24558506.285
  24558509.801          39.500          24.000
  22610371.160                   118818330.3324   92585716.4244   22610370.862
  22610371.271          45.250          34.750
  20333472.048    20333470.274   106853315.8854   83262203.1724   20333471.714
  20333470.119          54.500          46.250
  20418205.000    20418206.762   107298438.6384   83609182.2634   20418204.360
  20418205.981          54.500          47.750
  23389349.027    23389351.254   122911907.7024   95775503.3004   23389349.328
  23389350.836          43.000          31.500
  22552486.470                   118514254.1984   92348695.2204   22552485.299
  22552484.264          47.500          36.500
  24309861.995                   127749233.9074   99544870.4994   24309861.475
  24309860.482          41.000          23.750
  22802154.818                   119826161.3904   93371030.2294   22802154.088
  22802153.546          44.500          33.000
  21821575.773    21821576.450   114673207.8174   89355760.3994   21821575.376
  21821576.153          49.750          43.000
  23636228.647                   124209248.6034   96786432.4564   23636227.221
  23636227.094          39.000          27.500
  21740778.833    21740780.081   114248601.3804   89024885.1084   21740778.410
  21740780.142          47.750          41.000
 19  1 25  0  6  0.0000000  0 11G01G04G07G08G09G11G16G18G27G28G30
  24536765.275    24536768.506   128941724.7014  100473971.3984   24536765.435
  24536769.119          40.250          25.000
  22624831.859                   118894323.8214   92644932.0984   22624832.256
  22624831.965          44.750          34.750
  20330041.719    20330039.768   106835290.2744   83248157.2414   20330041.483
  20330040.045          54.750          46.250
  20422887.127    20422888.510   107323043.3994   83628354.8024   20422886.436
  20422888.131          54.250          47.750
  23407952.571    23407953.889   123009666.2214   95851678.7654   23407952.203
  23407954.193          43.500          31.000
  22533688.844                   118415471.7254   92271721.8794   22533688.307
  22533686.431          47.500          36.750
  24327735.170                   127843152.9494   99618054.1104   24327734.017
  24327732.827          40.750          23.750
  22783665.968                   119729003.7944   93295323.0474   22783665.323
  22783664.420          44.250          32.000
  21837112.343    21837112.990   114754853.4974   89419380.4064   21837111.902
  21837112.778          49.250          42.500
  23622252.880                   124135805.1894   96729203.8464   23622252.312
  23622251.207          40.500          27.250
  21726653.316    21726654.793   114174371.7074   88967043.8124   21726652.969
  21726654.400          48.250          41.000
 19  1 25  0  6 30.0000000  0 11G01G04G07G08G09G11G16G18G27G28G30
  24515026.351    24515029.809   128827481.5724  100384950.9204   24515024.817
  24515030.179          39.500          23.500
  22639364.640                   118970690.0454   92704438.2374   22639364.272
  22639364.003          45.000          34.250
  20326709.020    20326707.163   106817776.3034   83234509.9934   20326708.582
  20326707.237          54.500          46.250
  20427665.909    20427667.530   107348157.0574   83647923.8874   20427665.345
  20427667.071          54.250          48.250
  23426588.834    23426589.859   123107596.8804   95927988.3254   23426588.511
  23426589.440          44.750          31.750
  22514944.722                   118316970.8144   92194967.9514   22514943.555
  22514942.431          47.750          36.000
  24345612.163                   127937101.8904   99691261.0344   24345612.172
  24345610.661          41.250          23.500
  22765232.804                   119632142.1524   93219846.4254   22765232.892
  22765233.834          44.250          33.000
  21852711.582    21852712.449   114836828.8764   89483257.3304   21852711.336
  21852712.082          49.000          42.500
  23608295.926                   124062463.4954   96672054.5004   23608295.558
  23608294.574          40.500          26.000
  21712591.781    21712592.521   114100475.0474   88909462.0024   21712590.881
  21712592.126          49.500          41.250
 19  1 25  0  7  0.0000000  0 11G01G04G07G08G09G11G16G18G27G28G30
  24493288.325    24493290.526   128713244.6654  100295935.2544   24493288.048
  24493290.214          41.500          24.750
  22653966.881                   119047426.1354   92764232.6124   22653966.021
  22653966.537          44.250          33.500
  20323473.387    20323471.830   106800775.0254   83221262.2434   20323473.322
  20323471.960          54.000          46.250
  20432542.004    20432543.074   107373778.3144   83667888.5094   20432541.068
  20432542.669          54.750          48.000
  23445256.221    23445257.308   123205696.4984   96004429.5814   23445255.323
  23445257.727          43.750          31.000
  22496254.747                   118218755.0404   92118436.1734   22496254.164
  22496252.464          48.000          36.500
  24363497.161                   128031080.5804   99764491.1694   24363494.654
  24363493.302          41.250          23.000
  22746858.414                   119535579.8544   93144603.1254   22746857.506
  22746858.142          44.250          32.750
  21868373.148    21868374.034   114919131.4044   89547389.1654   21868372.690
  21868373.841          49.000          42.500
  23594359.824                   123989223.6274   96614984.5084   23594358.899
  23594357.874          41.500          25.250
  21698593.607    21698593.834   114026913.7044   88852141.4724   21698592.811
  21698594.127          49.500          41.250
 19  1 25  0  7 30.0000000  0 11G01G04G07G08G09G11G16G18G27G28G30
  24471550.315    24471554.493   128599017.0654  100206926.7914   24471550.678
  24471553.168          41.500          26.250
  22668639.296                   119124529.2364   92824312.9394   22668638.440
  22668638.714          44.750          33.750
  20320336.561    20320334.504   106784288.1394   83208415.3234   20320335.921
  20320334.480          54.250          46.000
  20437513.655    20437514.925   107399905.4824   83688247.3454   20437512.954
  20437514.483          54.750          48.000
  23463955.073    23463955.697   123303962.0984   96081000.1324   23463954.261
  23463956.213          43.250          30.000
  22477619.533                   118120826.6964   92042128.3964   22477619.231
  22477616.943          48.000          36.500
  24381384.888                   128125088.3054   99837743.9034   24381384.557
  24381383.386          40.750          23.750
  22728540.196                   119439320.1174   93069595.5594   22728540.514
  22728540.416          44.500          33.250
  21884096.446    21884097.106   115001758.5054   89611773.9274   21884096.393
  21884097.095          49.000          42.500
  23580441.847                   123916085.6474   96557993.8854   23580441.546
  23580440.522          41.750          28.000
  21684659.209    21684660.203   113953689.9424   88795084.0054   21684658.779
  21684659.961          48.750          41.250
 19  1 25  0  8  0.0000000  0 11G01G04G07G08G09G11G16G18G27G28G30
  24449815.074    24449819.818   128484801.7444  100117927.9214   24449815.839
  24449819.855          40.750          26.500
  22683380.325                   119201996.4164   92884676.9524   22683380.168
  22683380.730          44.500          34.250
  20317297.057    20317295.542   106768316.8814   83195970.1874   20317296.783
  20317295.233          54.250          46.000
  20442581.235    20442582.645   107426537.0904   83708999.2484   20442580.662
  20442582.225          54.750          47.750
  23482685.584    23482687.081   123402390.5154   96157697.5814   23482685.078
  23482686.386          43.750          29.750
  22459038.732                   118023188.5864   91966046.7584   22459038.696
  22459037.472          45.750          36.250
  24399279.545                   128219124.5164   99911018.8434   24399279.283
  24399276.836          40.750          23.500
  22710281.421                   119343366.3614   92994826.4334   22710281.047
  22710280.829          42.750          33.250
  21899881.729    21899881.826   115084707.5884   89676409.5884   21899881.030
  21899881.742          49.500          42.500
  23566543.378                   123843049.8804   96501082.8934   23566543.454
  23566541.180          41.750          26.250
  21670789.529    21670790.846   113880806.0824   88738291.3944   21670789.351
  21670790.660          49.500          41.500
 19  1 25  0  8 30.0000000  0 11G01G04G07G08G09G11G16G18G27G28G30
  24428085.331    24428087.842   128370601.7634  100028941.0304   24428085.110
  24428087.498          41.750          26.250
  22698191.695                   119279824.7964   92945322.4484   22698190.584
  22698191.044          45.750          34.500
  20314356.066    20314354.350   106752862.4564   83183927.7804   20314355.885
  20314354.438          53.500          46.000
  20447744.782    20447746.333   107453671.8754   83730143.2424   20447744.367
  20447745.826          54.750          47.750
  23501446.903    23501448.069   123500978.7074   96234519.5394   23501446.596
  23501447.031          44.500          30.250
  22440514.993                   117925843.5294   91890193.4954   22440514.439
  22440513.270          46.500          36.500
  24417179.649                   128313188.6634   99984315.5304   24417178.628
  24417178.353          40.750          25.250
  22692080.408                   119247721.9724   92920298.3494   22692079.984
  22692080.077          43.000          33.250
  21915726.780    21915727.337   115167976.1104   89741294.1564   21915726.481
  21915727.790          49.500          42.500
  23552663.576                   123770116.3204   96444251.5934   23552664.091
  23552663.473          40.000          26.000
  21656985.787    21656986.830   113808264.3904   88681765.4084   21656985.423
  21656986.557          48.750          41.500
 19  1 25  0  9  0.0000000  0 11G01G04G07G08G09G11G16G18G27G28G30
  24406356.946    24406359.127   128256420.1954   99939968.3974   24406356.706
  24406359.039          40.750          25.500
  22713069.236                   119358011.4874   93006247.1074   22713068.860
  22713069.631          44.500          34.750
  20311513.608    20311512.295   106737926.4054   83172289.2984   20311513.621
  20311512.296          53.500          46.500
  20453003.825    20453005.116   107481308.0494   83751677.9254   20453003.417
  20453004.826          54.500          48.000
  23520236.436    23520237.154   123599723.5884   96311463.5814   23520235.971
  23520237.223          43.500          29.500
  22422047.127                   117828794.5004   91814570.8794   22422046.904
  22422045.261          47.750          36.250
  24435084.565                   128407280.0144  100057633.4684   24435083.965
  24435082.753          41.000          23.250
  22673939.517                   119152390.3554   92846013.9734   22673939.118
  22673939.421          45.250          34.000
  21931632.785    21931633.307   115251561.4894   89806425.6144   21931632.058
  21931633.077          49.500          42.500
  23538804.868                   123697285.1574   96387500.0534   23538804.209
  23538802.645          39.500          27.000
  21643247.084    21643247.583   113736067.1894   88625507.8574   21643246.420
  21643247.670          48.750          41.250
 19  1 25  0  9 30.0000000  0 11G01G04G07G08G09G11G16G18G27G28G30
  24384632.645    24384634.443   128142260.0594   99851012.5394   24384632.218
  24384636.624          39.750          25.500
  22728015.601                   119436553.5834   93067448.7264   22728014.914
  22728015.173          44.250          34.250
  20308770.836    20308768.816   106723509.7714   83161055.5644   20308770.351
  20308768.801          53.500          46.250
  20458357.954    20458359.283   107509443.5484   83773601.6954   20458357.243
  20458358.749          54.750          47.500
  23539057.769    23539057.747   123698622.0734   96388527.3564   23539056.549
  23539057.774          45.000          31.000
  22403636.396                   117732044.2484   91739181.0824   22403636.064
  22403634.139          48.000          36.750
  24452993.987                   128501398.0044  100130972.0924   24452993.757
  24452994.001          40.500          24.000
  22655858.652                   119057374.9274   92771976.0204   22655857.810
  22655859.135          45.250          34.000
  21947598.059    21947599.014   115335461.1854   89871802.0134   21947597.765
  21947599.043          49.250          42.500
  23524965.869                   123624556.8234   96330828.6594   23524965.230
  23524963.801          38.500          28.500
  21629574.467    21629575.444   113664216.7264   88569520.4984   21629573.986
  21629575.332          47.750          42.000
 19  1 25  0 10  0.0000000  0 11G01G04G07G08G09G11G16G18G27G28G30
  24362913.854    24362916.556   128028124.4454   99762075.7804   24362913.317
  24362916.637          40.750          24.000
  22743028.634                   119515448.1354   93128925.0024   22743028.184
  22743028.175          44.500          34.250
  20306126.238    20306124.493   106709613.9224   83150227.6264   20306126.135
  20306124.548          54.000          46.250
  20463806.480    20463808.127   107538077.6094   83795913.9564   20463806.079
  20463807.586          54.500          47.750
  23557905.161    23557905.560   123797671.1184   96465708.4034   23557904.857
  23557906.049          44.250          30.500
  22385283.006                   117635595.2814   91664026.0574   22385282.270
  22385280.702          47.500          36.750
  24470908.142                   128595541.8984  100204330.9364   24470908.661
  24470907.703          39.500          23.000
  22637838.407                   118962678.8684   92698186.8964   22637838.023
  22637838.669          44.750          33.250
  21963623.065    21963623.970   115419672.6084   89937421.2994   21963622.539
  21963623.656          49.000          42.250
  23511144.642                   123551931.1554   96274237.2434   23511144.730
  23511143.380          38.500          27.500
  21615968.414    21615969.234   113592715.3104   88513805.1144   21615967.614
  21615968.874          48.500          41.750
 19  1 25  0 10 30.0000000  0 11G01G04G07G08G09G11G16G18G27G28G30
  24341197.871    24341200.367   127914016.5014   99673160.5024   24341198.942
  24341201.729          39.750          21.000
  22758108.123                   119594692.2554   93190673.6624   22758108.078
  22758106.994          44.000          34.500
  20303581.292    20303579.281   106696240.0024   83139806.3894   20303581.235
  20303579.547          53.750          46.500
  20469349.876    20469351.515   107567208.3214   83818613.2124   20469349.372
  20469351.020          54.750          47.500
  23576781.025    23576782.887   123896867.6314   96543004.3824   23576781.016
  23576782.772          42.500          30.500
  22366987.166                   117539450.3864   91589107.9724   22366986.914
  22366984.962          46.500          37.000
  24488829.732                   128689711.4004  100277709.7234   24488827.847
  24488827.151          40.750          24.000
  22619880.044                   118868305.5424   92624649.2644   22619879.622
  22619879.250          43.000          33.750
  21979707.097    21979707.406   115504193.1944   90003281.5094   21979706.631
  21979707.294          49.750          42.000
  23497344.662                   123479408.3334   96217725.9464   23497343.575
  23497342.751          41.500          28.000
  21602429.096    21602429.858   113521565.2124   88458363.4834   21602428.045
  21602429.609          48.500          42.000
 19  1 25  0 11  0.0000000  0 11G01G04G07G08G09G11G16G18G27G28G30
  24319490.694    24319493.364   127799939.1824   99584269.1394   24319491.106
  24319492.669          40.000          23.250
  22773253.890                   119674283.0014   93252692.3994   22773253.598
  22773253.745          43.750          34.500
  20301135.668    20301134.160   106683389.3254   83129792.8754   20301135.600
  20301134.109          53.250          46.250
  20474987.064    20474988.917   107596833.8424   83841698.0364   20474986.842
  20474988.611          54.250          47.500
  23595686.420    23595687.239   123996208.5654   96620412.8694   23595685.049
  23595687.077          41.750          28.750
  22348749.864                   117443612.3914   91514429.0254   22348748.758
  22348747.554          46.750          37.500
  24506754.877                   128783905.7084  100351107.8374   24506753.463
  24506753.696          41.750          24.750
  22601983.013                   118774258.5074   92551365.8844   22601982.884
  22601982.752          42.500          33.250
  21995849.376    21995849.064   115589020.4254   90069380.6454   21995848.508
  21995849.244          49.500          42.250
  23483563.915                   123406988.7034   96161295.1094   23483562.425
  23483561.817          39.750          28.750
  21588956.771    21588957.435   113450768.7484   88403197.4134   21588956.055
  21588957.196          48.500          42.000
 19  1 25  0 11 30.0000000  0 11G01G04G07G08G09G11G16G18G27G28G30
  24297789.950    24297792.097   127685895.6534   99495404.1344   24297788.462
  24297791.717          41.250          24.250
  22788464.871                   119754217.4384   93314978.9464   22788464.304
  22788464.442          43.250          34.250
  20298790.474    20298788.687   106671063.2204   83120188.1194   20298790.115
  20298788.585          53.750          46.500
  20480718.995    20480720.605   107626952.8004   83865167.3524   20480718.472
  20480720.057          55.000          47.750
  23614616.580    23614616.773   124095690.7904   96697931.4234   23614616.497
  23614616.721          42.250          28.250
  22330571.405                   117348083.9544   91439991.3094   22330570.701
  22330569.084          48.750          37.750
  24524683.475                   128878124.1854  100424524.7984   24524683.254
  24524682.232          41.500          25.750
  22584149.528                   118680540.9644   92478339.2344   22584148.980
  22584148.492          45.750          34.000
  22012048.643    22012049.506   115674151.6724   90135716.6884   22012048.414
  22012049.186          49.500          42.250
  23469802.478                   123334672.2874   96104944.6664   23469801.423
  23469800.326          42.250          28.000
  21575552.040    21575552.892   113380328.1474   88348308.6424   21575551.540
  21575552.930          49.500          41.750
 19  1 25  0 12  0.0000000  0 12G01G04G07G08G09G11G13G16G18G27G28G30
  24276092.366    24276096.054   127571889.0214   99406567.8474   24276093.839
  24276096.769          38.500          22.750
  22803740.914                   119834492.5874   93377531.0014   22803740.703
  22803741.001          44.000          34.500
  20296544.994    20296543.069   106659262.6044   83110992.8314   20296544.644
  20296543.146          53.250          46.500
  20486544.198    20486545.678   107657563.8274   83889020.1004   20486543.537
  20486545.114          54.750          47.750
  23633573.269    23633574.761   124195311.2834   96775557.7374   23633572.080
  23633574.127          41.250          27.250
  22312452.473                   117252868.1504   91365797.1644   22312452.029
  22312450.445          48.750          37.250
  25017582.534                   131468311.0964  102442813.5664   25017581.333
  25017580.086          36.750          16.250
  24542617.195                   128972366.4054  100497960.2484   24542616.091
  24542614.827          40.500          25.250
  22566378.586                   118587156.4364   92405572.1014   22566378.745
  22566378.638          45.500          33.500
  22028306.213    22028306.978   115759584.4844   90202287.7164   22028305.757
  22028306.262          49.250          42.000
  23456061.422                   123262459.4284   96048674.9364   23456060.432
  23456059.267          41.500          29.750
  21562215.977    21562216.830   113310245.7304   88293698.9724   21562215.314
  21562216.566          48.000          41.750
 19  1 25  0 12 30.0000000  0 12G01G04G07G08G09G11G13G16G18G27G28G30
  24254407.491    24254409.278   127457922.2314   99317762.6474   24254407.324
  24254410.011          41.750          24.500
  22819081.464                   119915105.5324   93440346.2854   22819080.975
  22819080.179          43.750          34.250
  20294399.202    20294397.864   106647989.0314   83102208.2374   20294399.199
  20294397.691          52.750          46.500
  20492462.187    20492464.168   107688664.7614   83913254.5974   20492461.741
  20492463.489          54.500          47.500
  23652556.247    23652557.793   124295066.9284   96853289.3914   23652556.428
  23652557.224          43.000          29.250
  22294393.246                   117157967.4654   91291848.5964   22294392.723
  22294391.478          49.000          37.750
  25002170.575                   131387318.4784  102379702.4784   25002169.707
  25002165.483          38.750          17.750
  24560555.958                   129066631.6474  100571413.6324   24560554.285
  24560554.294          40.750          24.250
  22548672.680                   118494107.9974   92333066.8234   22548672.118
  22548672.121          46.500          34.250
  22044620.742    22044621.236   115845316.2384   90269091.6864   22044620.113
  22044621.196          49.250          42.250
  23442339.458                   123190350.2014   95992485.9154   23442338.971
  23442337.525          42.500          28.250
  21548948.248    21548949.423   113240523.7844   88239370.1934   21548947.497
  21548949.100          48.250          42.000
 19  1 25  0 13  0.0000000  0 12G01G04G07G08G09G11G13G16G18G27G28G30
  24232728.726    24232730.942   127343998.5744   99228990.9944   24232728.334
  24232731.085          42.750          27.500
  22834484.884                   119996053.2884   93503422.4454   22834484.752
  22834483.931          44.000          33.750
  20292354.531    20292353.152   106637243.3974   83093835.0144   20292354.222
  20292353.025          53.250          46.500
  20498473.589    20498475.218   107720254.1114   83937869.6844   20498473.059
  20498474.880          54.750          47.750
  23671564.305    23671565.312   124394954.6824   96931123.9984   23671564.244
  23671565.034          43.500          29.500
  22276395.198                   117063384.6284   91218147.7064   22276394.155
  22276392.992          48.250          37.250
  24986828.780                   131306712.8524  102316892.8914   24986829.121
  24986828.586          35.500          15.250
  24578497.809                   129160919.6344  100644884.7674   24578497.457
  24578495.488          40.250          24.750
  22531029.871                   118401398.8724   92260825.9814   22531029.608
  22531030.319          44.500          34.500
  22060990.798    22060991.405   115931344.4124   90336126.6304   22060990.389
  22060991.457          48.750          41.500
  23428636.547                   123118344.6724   95936377.7564   23428635.145
  23428634.868          41.500          27.250
  21535749.777    21535750.975   113171164.5614   88185324.0464   21535748.892
  21535750.415          48.750          41.750
 19  1 25  0 13 30.0000000  0 12G01G04G07G08G09G11G13G16G18G27G28G30
  24211057.239    24211060.439   127230121.0634   99140255.3374   24211058.053
  24211060.023          40.500          26.500
  22849950.492                   120077332.8714   93566757.1624   22849951.171
  22849951.880          42.750          33.250
  20290410.668    20290408.713   106627026.8524   83085874.0744   20290410.129
  20290408.724          53.000          46.500
  20504577.306    20504579.433   107752330.2744   83962864.0974   20504577.002
  20504578.697          55.250          47.750
  23690596.405    23690598.740   124494971.4754   97009059.1444   23690595.629
  23690598.657          43.250          29.750
  22258457.257                   116969122.5984   91144696.7744   22258457.261
  22258455.647          48.750          37.750
  24971564.021                   131226496.1074  102254386.4854   24971564.932
  24971564.258          33.000          11.500
  24596445.245                   129255229.6134  100718373.0524   24596442.937
  24596442.522          40.000          23.750
  22513454.143                   118309032.9114   92188852.5264   22513454.081
  22513453.970          46.500          34.500
  22077417.697    22077418.413   116017666.4654   90403390.5654   22077417.053
  22077418.300          49.000          41.500
  23414954.420                   123046443.0154   95880350.5054   23414953.784
  23414952.879          41.750          27.500
  21522620.337    21522621.598   113102170.3824   88131562.3544   21522620.183
  21522621.285          48.500          42.000
 19  1 25  0 14  0.0000000  0 12G01G04G07G08G09G11G13G16G18G27G28G30
  24189397.436    24189400.049   127116292.8064   99051558.0504   24189397.323
  24189400.354          40.500          26.250
  22865481.861                   120158941.3554   93630348.1764   22865480.902
  22865481.226          43.750          33.000
  20288567.243    20288565.531   106617340.4244   83078326.2024   20288566.991
  20288565.471          53.500          46.250
  20510773.794    20510775.349   107784891.5274   83988236.5094   20510773.230
  20510774.908          55.000          47.750
  23709653.548    23709654.519   124595114.2904   97087092.5154   23709653.358
  23709654.356          43.500          30.000
  22240581.033                   116875183.9844   91071497.8684   22240580.687
  22240579.599          48.750          37.500
  24956374.832                   131146670.7794  102192184.9594   24956376.332
  24956374.500          35.750          13.500
  24614395.719                   129349561.0714  100791878.0544   24614395.332
  24614393.422          40.000          24.000
  22495943.473                   118217013.0854   92117148.7724   22495942.372
  22495943.110          46.500          34.250
  22093899.305    22093900.120   116104279.8614   90470881.5274   22093898.910
  22093900.068          48.750          41.000
  23401291.645                   122974645.6134   95824404.4964   23401290.677
  23401289.375          42.000          27.750
  21509560.687    21509562.084   113033543.4554   88078086.8384   21509560.226
  21509561.992          48.250          42.000
 19  1 25  0 14 30.0000000  0 11G01G04G07G08G09G11G16G18G27G28G30
  24167746.502    24167747.863   127002516.8964   98962901.5994   24167746.223
  24167748.964          38.500          27.000
  22881073.254                   120240875.7294   93694193.1294   22881072.699
  22881071.963          43.250          32.750
  20286824.915    20286823.257   106608185.2514   83071192.3014   20286824.829
  20286823.317          53.500          46.500
  20517061.997    20517063.730   107817936.2574   84013985.6534   20517061.278
  20517063.205          55.000          47.750
  23728733.163    23728735.409   124695380.0374   97165221.6484   23728732.625
  23728735.442          43.250          29.500
  22222767.198                   116781571.5674   90998553.1334   22222766.840
  22222765.344          48.000          37.750
  24632349.638                   129443913.0294  100865399.0444   24632350.089
  24632347.323          39.250          23.500
  22478498.848                   118125342.7564   92045717.3654   22478498.349
  22478498.511          45.750          35.000
  22110436.038    22110437.170   116191182.0574   90538597.5264   22110436.200
  22110436.935          48.500          41.250
  23387648.926                   122902952.3424   95768539.6154   23387648.584
  23387646.368          42.750          28.750
  21496572.164    21496573.066   112965286.0784   88024899.2764   21496571.577
  21496572.957          48.750          42.250
 19  1 25  0 15  0.0000000  0 11G01G04G07G08G09G11G16G18G27G28G30
  24146105.692    24146109.307   126888796.4794   98874288.4054   24146105.154
  24146109.489          39.500          27.500
  22896725.613                   120323132.9974   93758289.6894   22896725.528
  22896725.650          42.500          33.750
  20285184.268    20285182.466   106599562.5804   83064473.3404   20285184.122
  20285182.486          53.750          46.500
  20523441.687    20523443.480   107851462.4624   84040109.9694   20523441.174
  20523442.940          55.000          47.750
  23747835.686    23747837.872   124795765.7064   97243444.2194   23747835.682
  23747837.999          42.500          29.250
  22205015.897                   116688287.9844   90925864.6574   22205015.672
  22205013.993          46.750          38.000
  24650308.969                   129538285.5474  100938936.0284   24650308.078
  24650306.218          39.000          23.500
  22461121.573                   118034025.3584   91974560.9734   22461121.503
  22461121.544          44.000          35.500
  22127027.375    22127028.469   116278370.4994   90606536.5824   22127027.158
  22127028.340          48.250          41.000
  23374025.594                   122831363.8084   95712756.3714   23374024.645
  23374023.579          41.750          28.000
  21483653.762    21483655.076   112897400.5354   87972001.4624   21483653.039
  21483654.769          48.750          42.000
 19  1 25  0 15 30.0000000  0 11G01G04G07G08G09G11G16G18G27G28G30
  24124477.236    24124479.628   126775134.7364   98785720.8474   24124477.156
  24124479.383          41.250          29.000
  22912440.213                   120405710.1504   93822635.5194   22912440.213
  22912439.555          43.750          33.500
  20283644.961    20283643.006   106591473.4824   83058170.1514   20283644.584
  20283643.245          53.500          46.500
  20529912.745    20529914.587   107885468.8864   84066608.4804   20529912.329
  20529914.195          55.000          47.750
  23766960.807    23766962.310   124896268.1884   97321757.8104   23766961.214
  23766962.057          42.000          28.000
  22187327.922                   116595335.9254   90853434.4664   22187327.339
  22187325.930          48.500          38.250
  24668268.063                   129632677.9454  101012488.5134   24668267.164
  24668269.940          35.000          19.250
  22443811.968                   117943064.0974   91903682.0884   22443811.937
  22443812.404          46.250          35.250
  22143673.122    22143673.368   116365842.6644   90674696.7124   22143672.840
  22143673.311          48.250          41.000
  23360423.237                   122759879.7434   95657054.5184   23360422.404
  23360420.621          44.000          29.250
  21470806.764    21470807.938   112829889.0924   87919395.1524   21470806.300
  21470807.818          48.250          42.000
 19  1 25  0 16  0.0000000  0 11G01G04G07G08G09G11G16G18G27G28G30
  24102859.330    24102862.008   126661534.7374   98697201.4244   24102859.353
  24102861.447          40.000          27.250
  22928213.259                   120488604.2454   93887228.3014   22928213.586
  22928214.279          41.750          33.750
  20282207.448    20282205.834   106583919.0864   83052283.6054   20282207.107
  20282205.696          53.000          46.500
  20536475.223    20536476.817   107919953.6454   84093479.7234   20536474.723
  20536476.371          55.250          47.750
  23786107.205    23786108.621   124996884.4064   97400160.0234   23786107.056
  23786107.950          41.750          28.000
  22169703.430                   116502718.2354   90781264.8604   22169702.839
  22169701.700          48.750          38.000
  24686236.327                   129727089.5664  101086055.9554   24686236.141
  24686234.999          38.000          20.500
  22426571.426                   117852462.3164   91833083.3034   22426571.051
  22426571.213          47.000          35.250
  22160371.767    22160372.565   116453596.0324   90743075.9684   22160371.477
  22160372.063          47.750          40.750
  23346839.050                   122688500.4934   95601434.3444   23346838.581
  23346837.903          43.000          28.750
  21458031.340    21458032.178   112762754.0084   87867082.1054   21458030.915
  21458032.189          48.250          42.000
 19  1 25  0 16 30.0000000  0 11G01G04G07G08G09G11G16G18G27G28G30
  24081253.284    24081256.549   126547999.6524   98608732.5484   24081253.395
  24081256.005          38.500          25.750
  22944047.376                   120571812.2024   93952065.6464   22944047.751
  22944048.485          42.250          33.250
  20280871.365    20280869.734   106576900.1934   83046814.3404   20280871.401
  20280869.914          52.500          46.500
  20543128.026    20543129.799   107954914.8604   84120722.2294   20543127.673
  20543129.226          55.000          47.500
  23805274.304    23805278.248   125097611.4434   97478648.5874   23805275.372
  23805277.903          41.750          28.750
  22152142.998                   116410437.4574   90709357.7684   22152142.134
  22152140.907          48.750          38.250
  24704205.691                   129821520.0914  101159638.2184   24704204.453
  24704204.583          36.250          21.500
  22409399.953                   117762223.4534   91762767.3324   22409398.875
  22409399.761          47.250          35.000
  22177124.300    22177124.321   116541628.0754   90811672.3694   22177123.672
  22177124.178          48.500          41.000
  23333276.969                   122617226.1714   95545895.9414   23333275.551
  23333274.597          44.250          29.000
  21445328.290    21445329.328   112695997.5504   87815064.0804   21445327.680
  21445329.193          48.750          42.500
 19  1 25  0 17  0.0000000  0 11G01G04G07G08G09G11G16G18G27G28G30
  24059662.906    24059664.058   126434532.5964   98520316.6844   24059661.376
  24059664.077          39.000          25.000
  22959940.815                   120655331.0494   94017145.2534   22959941.156
  22959941.011          42.250          33.000
  20279638.080    20279636.646   106570417.9824   83041763.2664   20279637.982
  20279636.387          53.250          46.500
  20549871.387    20549872.816   107990350.8284   84148334.6664   20549870.972
  20549872.511          55.250          47.750
  23824464.207    23824464.503   125198446.1564   97557221.0894   23824463.771
  23824464.747          43.500          28.500
  22134646.698                   116318496.6654   90637715.5914   22134646.714
  22134645.360          48.500          38.750
  24722179.684                   129915968.5284  101233234.3054   24722177.855
  24722177.401          37.500          20.250
  22392297.056                   117672350.4654   91692736.4614   22392297.023
  22392296.822          47.000          35.000
  22193928.569    22193929.173   116629936.2994   90880483.9824   22193928.070
  22193928.913          48.000          40.750
  23319732.741                   122546057.1974   95490439.6004   23319732.413
  23319731.765          43.250          28.000
  21432697.206    21432698.586   112629621.9864   87763342.8684   21432696.840
  21432698.438          48.250          42.500
 19  1 25  0 17 30.0000000  0 11G01G04G07G08G09G11G16G18G27G28G30
  24038083.623    24038086.063   126321136.7424   98431956.3074   24038083.316
  24038086.255          40.500          27.500
  22975892.591                   120739157.7924   94082464.7664   22975891.914
  22975892.518          41.750          32.750
  20278507.225    20278505.563   106564473.6504   83037131.3144   20278506.815
  20278505.432          53.000          46.500
  20556704.655    20556706.131   108026259.8234   84176315.6994   20556704.074
  20556705.687          55.250          47.500
  23843671.624    23843673.369   125299385.5254   97635875.1334   23843671.724
  23843673.800          43.000          29.250
  22117216.621                   116226898.0094   90566340.0484   22117216.092
  22117214.405          49.250          38.500
  24740155.564                   130010434.7504  101306844.3404   24740153.928
  24740154.012          38.750          20.500
  22375265.300                   117582846.8734   91622993.4154   22375264.500
  22375265.110          47.000          34.750
  22210785.033    22210785.732   116718518.1394   90949508.7954   22210784.642
  22210785.638          47.500          41.250
  23306210.801                   122474993.2724   95435065.1494   23306210.297
  23306208.893          44.250          28.000
  21420139.467    21420140.566   112563629.5274   87711920.1944   21420138.945
  21420140.250          48.500          42.750
 19  1 25  0 18  0.0000000  0 11G01G04G07G08G09G11G16G18G27G28G30
  24016519.843    24016521.992   126207815.2864   98343653.9604   24016518.472
  24016521.300          40.000          27.750
  22991902.622                   120823289.4004   94148021.8604   22991902.444
  22991902.562          42.250          32.500
  20277478.380    20277476.630   106559067.9554   83032919.0874   20277478.068
  20277476.777          53.500          46.750
  20563627.673    20563629.234   108062640.1484   84204664.0104   20563626.900
  20563628.546          55.250          47.500
  23862898.965    23862901.578   125400426.5004   97714608.3424   23862898.860
  23862900.335          42.750          29.250
  22099851.388                   116135644.3704   90495233.3444   22099850.805
  22099849.160          48.500          38.250
  24758134.871                   130104917.8674  101380467.5284   24758134.277
  24758132.664          37.500          19.750
  22358304.006                   117493715.9904   91553540.8194   22358304.438
  22358304.407          47.250          35.750
  22227692.904    22227693.962   116807371.1214   91018744.8854   22227692.584
  22227694.162          47.500          40.750
  23292706.933                   122404034.9254   95379772.9764   23292705.822
  23292705.915          43.500          27.750
  21407654.719    21407655.808   112498022.4534   87660797.7994   21407654.320
  21407655.609          49.500          42.750
 19  1 25  0 18 30.0000000  0 11G01G04G07G08G09G11G16G18G27G28G30
  23994968.522    23994972.539   126094571.3504   98255411.9344   23994970.096
  23994971.675          37.500          26.000
  23007969.915                   120907722.8114   94213814.1004   23007968.997
  23007969.938          42.250          32.250
  20276552.517    20276550.542   106554201.7804   83029127.2614   20276552.298
  20276550.738          53.250          46.500
  20570639.665    20570641.497   108099489.9364   84233378.1364   20570639.212
  20570640.921          55.000          47.500
  23882146.237    23882146.682   125501566.0834   97793418.4224   23882145.590
  23882147.462          42.500          28.250
  22082553.005                   116044738.7304   90424397.8014   22082552.476
  22082550.632          49.250          39.000
  24776116.539                   130199417.6964  101454103.6724   24776117.132
  24776114.996          37.500          20.250
  22341415.293                   117404960.9354   91484381.0634   22341414.137
  22341414.045          48.000          35.250
  22244652.406    22244652.940   116896492.7444   91088190.3144   22244651.925
  22244652.808          47.500          40.750
  23279224.851                   122333182.1084   95324563.0074   23279223.548
  23279222.317          44.500          28.500
  21395244.031    21395244.950   112432803.0024   87609977.4544   21395243.698
  21395244.731          49.000          42.750
 19  1 25  0 19  0.0000000  0 11G01G04G07G08G09G11G16G18G27G28G30
  23973435.871    23973437.979   125981408.0614   98167232.8714   23973435.179
  23973437.891          38.500          26.750
  23024094.042                   120992455.0164   94279839.1894   23024093.104
  23024093.642          42.000          32.500
  20275729.271    20275727.567   106549876.3694   83025756.8064   20275729.304
  20275727.445          52.500          46.750
  20577740.810    20577742.742   108136807.5974   84262456.8354   20577740.523
  20577742.177          55.000          47.250
  23901411.093    23901412.324   125602801.2344   97872302.9084   23901410.482
  23901412.608          43.000          29.250
  22065320.991                   115954183.9174   90353835.6324   22065319.978
  22065318.854          48.500          38.750
  24794103.553                   130293933.6124  101527752.4264   24794102.908
  24794102.102          38.500          20.500
  22324597.361                   117316584.9394   91415516.6704   22324596.690
  22324596.561          46.500          35.000
  22261662.143    22261662.403   116985880.4674   91157843.0934   22261662.057
  22261662.655          47.000          40.500
  23265761.911                   122262435.4384   95269435.7484   23265760.844
  23265760.454          44.750          28.750
  21382907.511    21382908.160   112367973.4384   87559460.9184   21382906.746
  21382907.731          48.500          42.750
 19  1 25  0 19 30.0000000  0 11G01G04G07G08G09G11G16G18G27G28G30
  23951916.954    23951919.367   125868328.7334   98079119.1444   23951917.577
  23951920.253          39.500          27.000
  23040274.048                   121077482.9754   94346094.7124   23040273.480
  23040273.958          42.000          32.500
  20275009.435    20275007.449   106546092.4204   83022808.2724   20275008.949
  20275007.592          52.250          46.500
  20584930.850    20584932.773   108174591.0824   84291898.5144   20584930.541
  20584932.153          55.000          47.500
  23920693.155    23920693.774   125704128.8954   97951259.4824   23920692.415
  23920693.451          42.000          27.750
  22048156.351                   115863981.9134   90283548.3694   22048155.260
  22048153.712          48.750          38.750
  24812091.981                   130388465.2884  101601413.3944   24812090.691
  24812091.111          37.500          21.500
  22307852.602                   117228591.5524   91346950.3944   22307852.076
  22307851.543          47.750          35.500
  22278722.329    22278723.516   117075531.8114   91227701.2804   22278722.077
  22278723.036          47.000          40.750
  23252320.738                   122191794.8194   95214391.0994   23252319.831
  23252317.871          46.000          30.250
  21370645.501    21370646.141   112303536.0074   87509249.9324   21370644.850
  21370645.956          48.750          42.750
 19  1 25  0 20  0.0000000  0 11G01G04G07G08G09G11G16G18G27G28G30
  23930414.920    23930417.934   125755336.4214   97991073.2164   23930415.237
  23930417.796          40.000          28.000
  23056509.872                   121162803.6514   94412578.3304   23056509.655
  23056510.314          41.750          32.500
  20274392.459    20274390.766   106542850.8724   83020282.3914   20274392.277
  20274390.662          51.500          46.750
  20592209.529    20592211.093   108212838.6434   84321701.8124   20592208.858
  20592210.529          55.250          47.500
  23939991.768    23939992.065   125805546.0894   98030285.8694   23939990.946
  23939992.076          41.250          26.500
  22031058.578                   115774135.7654   90213538.4094   22031058.003
  22031056.817          48.250          38.750
  24830084.026                   130483011.8134  101675085.9734   24830082.751
  24830081.515          39.250          22.500
  22291181.259                   117140983.8034   91278684.6294   22291181.158
  22291180.363          47.750          35.250
  22295833.171    22295832.665   117165444.2874   91297762.9594   22295832.138
  22295832.588          47.250          40.250
  23238896.784                   122121260.3884   95159429.2334   23238896.451
  23238895.819          44.000          29.750
  21358458.206    21358459.309   112239492.9304   87459346.2404   21358457.807
  21358458.882          48.250          43.000
 19  1 25  0 20 30.0000000  0 12G01G04G07G08G09G11G13G16G18G27G28G30
  23908929.754    23908932.763   125642434.1724   97903097.4704   23908930.676
  23908932.567          40.000          27.250
  23072800.807                   121248413.9774   94479287.6554   23072801.253
  23072800.437          42.250          32.500
  20273879.108    20273877.350   106540152.9004   83018180.0714   20273878.835
  20273877.301          51.750          46.500
  20599575.586    20599576.993   108251548.4644   84351865.3084   20599575.127
  20599576.763          55.250          47.500
  23959305.694    23959308.104   125907049.7514   98109379.5894   23959305.142
  23959308.639          39.250          25.750
  22014029.783                   115684647.9804   90143807.6824   22014028.897
  22014027.750          47.250          38.750
  24765898.299                   130145675.3374  101412220.7354   24765897.061
  24765896.152          36.500          14.250
  24848078.918                   130577572.7384  101748769.7814   24848077.205
  24848076.561          39.500          21.750
  22274584.150                   117053765.0534   91210721.9864   22274583.791
  22274583.703          46.750          35.750
  22312990.848    22312991.624   117255615.4224   91368026.1814   22312990.602
  22312991.479          46.000          40.000
  23225495.729                   122050832.5374   95104550.3884   23225495.219
  23225493.115          45.250          30.250
  21346346.612    21346347.845   112175846.4454   87409751.5854   21346346.230
  21346347.834          48.250          43.000
 19  1 25  0 21  0.0000000  0 12G01G04G07G08G09G11G13G16G18G27G28G30
  23887462.511    23887466.483   125529625.5074   97815194.6554   23887463.105
  23887465.978          39.750          26.500
  23089146.284                   121334310.9244   94546220.3154   23089146.303
  23089146.770          41.500          31.500
  20273469.126    20273467.305   106537999.1904   83016501.8374   20273469.134
  20273467.493          52.250          46.500
  20607029.660    20607031.316   108290718.7084   84382387.5804   20607028.916
  20607030.647          55.250          47.500
  23978638.530    23978638.912   126008636.9174   98188538.4154   23978636.931
  23978638.593          39.750          26.250
  21997069.360                   115595521.3634   90074358.4014   21997068.885
  21997067.686          46.750          39.250
  24751800.808                   130071593.1024  101354494.3534   24751801.239
  24751799.347          39.500          19.000
  24866075.116                   130672147.7344  101822464.4954   24866075.110
  24866074.967          40.000          23.250
  22258061.850                   116966938.6434   91143065.0764   22258060.869
  22258060.887          46.500          35.750
  22330199.104    22330199.773   117346042.6844   91438488.9904   22330198.718
  22330199.628          46.250          40.000
  23212113.144                   121980511.2394   95049754.6034   23212112.668
  23212111.808          44.500          30.250
  21334310.644    21334312.245   112112598.7744   87360467.6834   21334310.257
  21334311.772          48.000          42.750
 19  1 25  0 21 30.0000000  0 12G01G04G07G08G09G11G13G16G18G27G28G30
  23866015.878    23866017.704   125416913.4664   97727367.1334   23866015.439
  23866017.733          41.000          25.750
  23105546.623                   121420491.4604   94613373.9554   23105546.389
  23105546.264          42.500          31.250
  20273163.025    20273161.070   106536390.4294   83015248.2514   20273162.776
  20273161.202          52.500          46.500
  20614570.710    20614571.938   108330347.7534   84413267.3594   20614570.117
  20614571.775          55.500          47.500
  23997984.575    23997986.157   126110304.5614   98267759.9294   23997984.334
  23997986.539          39.250          25.500
  21980178.168                   115506758.6284   90005192.6564   21980177.800
  21980176.021          47.500          39.000
  24737786.037                   129997939.4884  101297101.8644   24737784.825
  24737783.267          39.750          19.500
  24884076.077                   130766736.0534  101896169.6194   24884074.800
  24884074.264          41.250          24.500
  22241614.335                   116880507.8434   91075716.4324   22241614.158
  22241613.528          48.250          35.750
  22347454.869    22347456.138   117436723.6314   91509149.4764   22347454.603
  22347455.729          46.250          40.250
  23198752.685                   121910296.7444   94995042.0294   23198751.706
  23198750.745          44.750          30.500
  21322351.439    21322353.058   112049752.1474   87311496.2984   21322351.150
  21322352.494          48.750          43.000
 19  1 25  0 22  0.0000000  0 12G01G04G07G08G09G11G13G16G18G27G28G30
  23844585.657    23844589.464   125304301.2564   97639617.3394   23844586.728
  23844588.067          41.000          27.000
  23121999.750                   121506952.4914   94680746.1544   23121998.754
  23121998.990          42.750          31.750
  20272960.862    20272958.844   106535327.6024   83014420.0714   20272960.742
  20272959.173          52.750          46.500
  20622198.423    20622200.097   108370433.5674   84444503.0594   20622198.047
  20622199.726          55.000          47.250
  24017345.499    24017347.110   126212049.6674   98347041.8154   24017346.500
  24017347.696          38.500          25.250
  21963357.487                   115418362.2554   89936312.3824   21963356.692
  21963355.107          49.000          39.250
  24723853.954                   129924716.7454  101240045.2284   24723852.574
  24723849.720          41.500          20.500
  24902077.356                   130861337.2904  101969884.8514   24902077.359
  24902074.546          39.750          22.250
  22225243.142                   116794475.6534   91008678.3974   22225242.376
  22225241.815          48.500          35.750
  22364758.930    22364759.966   117527655.7524   91580005.6804   22364758.726
  22364759.413          46.500          40.500
  23185411.523                   121840189.1344   94940412.7484   23185410.363
  23185409.239          44.750          29.500
  21310467.953    21310470.285   111987308.7654   87262839.1224   21310468.175
  21310469.919          47.500          42.750
 19  1 25  0 22 30.0000000  0 12G01G04G07G08G09G11G13G16G18G27G28G30
  23823175.714    23823178.521   125191792.0584   97551947.8864   23823175.606
  23823178.874          41.000          27.500
  23138505.049                   121593690.9424   94748334.5404   23138504.764
  23138504.528          42.500          31.750
  20272862.647    20272860.823   106534811.6404   83014018.0224   20272862.392
  20272860.969          51.750          46.750
  20629913.436    20629915.063   108410974.3334   84476093.2734   20629912.739
  20629914.474          55.250          47.250
  24036721.939    24036721.068   126313869.1884   98426381.6634   24036722.603
  24036721.623          39.000          24.750
  21946605.824                   115330335.0134   89867719.7494   21946605.278
  21946604.045          47.500          39.000
  24709999.235                   129851927.5564  101183326.3414   24709999.932
  24709999.594          40.750          21.000
  24920081.304                   130955951.1854  102043609.9824   24920081.215
  24920080.173          39.250          21.250
  22208948.247                   116708845.1814   90941953.3824   22208947.659
  22208947.122          48.500          35.500
  22382110.638    22382110.820   117618836.6334   91651055.7144   22382109.433
  22382110.679          46.000          40.250
  23172090.938                   121770188.7614   94885867.0074   23172090.232
  23172089.078          45.500          30.000
  21298663.342    21298665.011   111925270.8914   87214497.9334   21298663.198
  21298664.412          48.250          43.000
 19  1 25  0 23  0.0000000  0 12G01G04G07G08G09G11G13G16G18G27G28G30
  23801786.677    23801788.790   125079389.0964   97464361.2304   23801786.031
  23801789.630          41.000          28.000
  23155063.562                   121680703.7664   94816136.6944   23155063.386
  23155062.647          43.750          33.000
  20272868.590    20272866.829   106534843.3404   83014042.7224   20272868.498
  20272866.902          51.750          46.250
  20637713.942    20637715.507   108451968.0404   84508036.4214   20637713.502
  20637715.223          55.250          47.250
  24056111.224    24056112.581   126415760.1824   98505777.2244   24056109.893
  24056112.301          39.500          25.500
  21929925.618                   115242679.6264   89799416.8714   21929925.209
  21929923.858          47.750          39.000
  24696233.096                   129779573.9284  101126946.9114   24696232.221
  24696229.165          42.750          21.750
  24938087.020                   131050577.1204  102117344.4734   24938086.814
  24938087.642          38.500          24.500
  22192730.229                   116623619.9944   90875544.1624   22192730.070
  22192729.571          47.750          36.500
  22399507.776    22399508.567   117710263.7804   91722297.6484   22399507.954
  22399508.363          45.750          39.750
  23158790.594                   121700295.8994   94831405.0634   23158789.553
  23158788.612          45.750          30.500
  21286935.607    21286936.531   111863640.7184   87166474.4224   21286935.207
  21286936.693          49.000          43.000
 19  1 25  0 23 30.0000000  0 12G01G04G07G08G09G11G13G16G18G27G28G30
  23780417.503    23780420.545   124967095.5384   97376859.7964   23780417.785
  23780420.681          41.750          30.250
  23171673.075                   121767987.8704   94884150.2804   23171672.720
  23171673.339          43.750          33.250
  20272978.847    20272977.343   106535423.3954   83014494.7104   20272978.759
  20272977.172          52.000          46.500
  20645600.542    20645602.289   108493413.1574   84540331.3234   20645600.245
  20645601.858          54.750          47.250
  24075512.932    24075515.174   126517719.6304   98585226.1424   24075512.558
  24075515.175          40.000          27.750
  21913316.944                   115155398.3494   89731405.5124   21913316.316
  21913314.526          47.000          39.250
  24682546.977                   129707658.3994  101070908.8264   24682546.584
  24682545.338          39.250          19.500
  24956097.120                   131145214.3504  102191087.7194   24956097.279
  24956094.831          39.250          24.250
  22176589.844                   116538803.0664   90809453.0874   22176589.595
  22176589.452          45.500          36.000
  22416952.552    22416953.027   117801934.6894   91793729.5444   22416951.937
  22416952.928          46.000          39.750
  23145510.185                   121630510.6494   94777026.9324   23145510.134
  23145509.061          45.250          30.250
  21275286.079    21275287.118   111802420.4384   87118770.3054   21275285.350
  21275286.545          49.000          43.250
 19  1 25  0 24  0.0000000  0 12G01G04G07G08G09G11G13G16G18G27G28G30
  23759071.665    23759072.979   124854914.6664   97289446.1974   23759070.967
  23759073.739          43.000          30.500
  23188333.849                   121855540.2324   94952372.8904   23188333.304
  23188333.533          43.750          32.500
  20273194.155    20273192.030   106536552.6704   83015374.6654   20273193.591
  20273192.163          52.250          46.500
  20653573.250    20653574.626   108535307.5344   84572976.2964   20653572.749
  20653574.074          55.500          47.250
  24094927.397    24094929.420   126619744.6164   98664726.0744   24094927.634
  24094929.194          39.250          27.750
  21896779.307                   115068493.9664   89663687.8384   21896779.038
  21896777.259          48.250          39.500
  24668945.432                   129636183.3014  101015213.9634   24668945.414
  24668943.147          38.000          16.000
  24974108.418                   131239862.6764  102264839.6304   24974108.084
  24974106.870          38.250          22.500
  22160527.554                   116454397.6094   90743682.6354   22160527.932
  22160527.603          47.500          36.250
  22434442.370    22434443.269   117893846.9674   91865349.5074   22434442.144
  22434442.958          45.000          39.500
  23132251.848                   121560832.9294   94722732.6104   23132251.098
  23132249.046          45.500          30.000
  21263714.658    21263715.694   111741612.2594   87071387.3064   21263714.076
  21263715.532          48.750          43.250
 19  1 25  0 24 30.0000000  0 12G01G04G07G08G09G11G13G16G18G27G28G30
  23737744.096    23737748.052   124742849.6484   97202122.8704   23737744.545
  23737748.187          41.250          30.000
  23205044.817                   121943357.7344   95020802.0864   23205043.982
  23205045.125          42.750          31.500
  20273513.443    20273511.425   106538231.9294   83016683.1784   20273513.359
  20273511.690          51.750          46.500
  20661630.521    20661632.151   108577649.5024   84605970.0384   20661629.970
  20661631.612          55.500          47.250
  24114354.450    24114356.828   126721832.0214   98744274.6874   24114353.880
  24114356.411          40.000          28.750
  21880314.088                   114981969.3184   89596266.0534   21880313.729
  21880311.974          47.500          39.750
  24655428.797                   129565150.8354  100959863.9854   24655429.027
  24655428.710          37.000          16.250
  24992120.702                   131334521.6534  102338599.8384   24992120.339
  24992119.075          37.750          21.250
  22144545.403                   116370407.0934   90678235.5034   22144544.605
  22144544.998          49.000          36.250
  22451979.037    22451979.101   117985998.1244   91937155.6184   22451978.229
  22451978.707          45.750          39.250
  23119012.208                   121491263.2024   94668522.4374   23119012.265
  23119010.434          44.750          30.000
  21252222.063    21252223.221   111681218.3714   87024327.1384   21252221.307
  21252223.261          49.500          43.500
 19  1 25  0 25  0.0000000  0 12G01G04G07G08G09G11G13G16G18G27G28G30
  23716443.219    23716444.422   124630903.6764   97114892.2564   23716443.110
  23716444.766          43.250          29.750
  23221805.440                   122031437.3274   95089435.4954   23221804.918
  23221805.039          42.000          31.250
  20273937.832    20273936.063   106540461.7274   83018420.6794   20273937.609
  20273936.072          51.750          46.500
  20669772.360    20669774.151   108620437.0164   84639310.9624   20669772.163
  20669773.725          55.250          47.250
  24133792.267    24133794.427   126823978.9484   98823869.6624   24133791.312
  24133794.944          39.750          29.500
  21863922.356                   114895826.8394   89529142.0644   21863921.436
  21863919.737          48.500          39.750
  24641994.366                   129494563.5094  100904860.8934   24641995.496
  24641994.350          37.000          14.750
  25010136.414                   131429190.8844  102412368.0294   25010135.366
  25010135.690          37.500          22.500
  22128641.628                   116286834.4234   90613113.9694   22128641.730
  22128641.339          48.500          36.500
  22469559.305    22469559.549   118078385.7294   92009145.9614   22469558.723
  22469559.486          45.500          39.250
  23105794.701                   121421801.9104   94614396.7864   23105793.887
  23105792.925          45.250          29.750
  21240808.742    21240809.847   111621240.9604   86977591.5074   21240808.215
  21240809.563          49.250          43.500
 19  1 25  0 25 30.0000000  0 12G01G04G07G08G09G11G13G16G18G27G28G30
  23695163.041    23695166.024   124519080.0334   97027756.9804   23695163.036
  23695166.018          42.000          30.500
  23238616.160                   122119775.9004   95158270.7264   23238616.176
  23238616.058          43.500          31.750
  20274466.909    20274465.059   106543243.0644   83020587.9554   20274466.905
  20274465.270          52.000          46.500
  20677999.220    20678001.128   108663668.1514   84672997.5644   20677998.865
  20678000.410          55.250          47.250
  24153240.506    24153243.362   126926182.4064   98903508.6894   24153240.835
  24153243.032          39.000          28.500
  21847602.814                   114810069.1904   89462317.9364   21847602.086
  21847600.432          48.750          39.500
  24628648.445                   129424423.3704  100850206.2164   24628648.526
  24628647.222          38.500          15.750
  25028153.465                   131523869.5444  102486143.5764   25028151.242
  25028152.077          35.750          23.250
  22112818.807                   116203682.7684   90548320.4874   22112818.461
  22112818.215          48.500          36.500
  22487184.910    22487184.901   118171007.3454   92081318.6564   22487184.066
  22487184.804          45.500          39.250
  23092596.749                   121352448.9644   94560355.5624   23092596.709
  23092595.395          44.750          30.250
  21229475.224    21229476.139   111561682.2254   86931182.1034   21229474.575
  21229475.679          48.750          43.250
 19  1 25  0 26  0.0000000  0 12G01G04G07G08G09G11G13G16G18G27G28G30
  23673908.487    23673909.360   124407381.9354   96940719.5424   23673907.867
  23673910.347          42.250          29.250
  23255475.090                   122208370.3474   95227305.3574   23255474.554
  23255474.772          42.500          30.500
  20275101.205    20275099.675   106546576.3394   83023185.3034   20275101.053
  20275099.530          52.000          46.500
  20686309.936    20686311.601   108707341.1794   84707028.4994   20686309.538
  20686311.120          55.250          47.250
  24172700.962    24172701.101   127028439.4104   98983189.4284   24172699.730
  24172700.622          40.250          28.250
  21831357.606                   114724698.8224   89395795.5934   21831356.641
  21831355.432          48.750          39.750
  24615388.528                   129354732.6764  100795901.7404   24615386.858
  24615383.174          39.250          15.000
  25046170.759                   131618557.2474  102559926.1204   25046169.634
  25046170.361          35.250          22.000
  22097076.310                   116120955.3904   90483857.6224   22097075.602
  22097075.591          49.000          36.750
  22504853.925    22504854.209   118263860.5214   92153671.7854   22504853.111
  22504854.120          45.250          38.750
  23079420.615                   121283204.5484   94506398.8794   23079420.458
  23079418.003          45.750          30.500
  21218221.394    21218222.508   111502544.3274   86885100.6224   21218221.055
  21218222.176          49.500          43.500
 19  1 25  0 26 30.0000000  0 12G01G04G07G08G09G11G13G16G18G27G28G30
  23652675.695    23652679.371   124295812.6194   96853782.4564   23652675.843
  23652679.128          39.750          28.000
  23272381.559                   122297217.6494   95296536.9824   23272381.731
  23272381.819          42.500          29.250
  20275840.759    20275839.085   106550462.5414   83026213.5154   20275840.365
  20275839.200          51.750          46.250
  20694704.635    20694705.935   108751454.1064   84741402.2114   20694704.065
  20694705.497          55.250          47.250
  24192167.456    24192169.737   127130747.0584   99062909.6474   24192168.620
  24192169.498          39.000          26.500
  21815185.976                   114639718.2974   89329577.0044   21815185.568
  21815183.886          48.250          40.000
  24602212.486                   129285494.0254  100741949.6014   24602212.000
  24602210.000          39.000          13.500
  25064192.004                   131713253.6704  102633715.5444   25064190.821
  25064189.586          37.750          22.000
  22081414.649                   116038655.4134   90419727.7844   22081414.450
  22081414.367          48.750          37.000
  22522567.235    22522567.839   118356942.8744   92226203.4944   22522566.614
  22522567.578          45.750          39.250
  23066264.298                   121214068.9284   94452526.9764   23066264.181
  23066262.529          45.750          30.250
  21207048.261    21207049.732   111443829.4404   86839348.7674   21207048.181
  21207049.414          49.250          43.750
 19  1 25  0 27  0.0000000  0 12G01G04G07G08G09G11G13G16G18G27G28G30
  23631471.298    23631472.729   124184375.3434   96766948.2584   23631470.431
  23631472.485          41.500          28.500
  23289335.816                   122386314.6484   95365963.1894   23289336.138
  23289336.475          41.750          30.250
  20276685.474    20276683.964   106554902.0344   83029672.8574   20276685.388
  20276683.828          51.750          46.250
  20703182.316    20703184.058   108796005.0244   84776117.2144   20703181.763
  20703183.348          55.250          47.250
  24211645.767    24211649.078   127233102.3344   99142666.9894   24211645.788
  24211648.627          38.750          26.250
  21799089.476                   114555130.3144   89263664.3024   21799088.980
  21799087.393          48.250          40.250
  24589123.304                   129216709.3964  100688351.1534   24589120.969
  24589122.637          37.750          12.500
  25082212.071                   131807958.1174  102707511.2044   25082212.001
  25082210.804          36.250          20.750
  22065835.471                   115956785.8864   90355933.3784   22065835.594
  22065835.524          48.750          37.000
  22540322.943    22540323.785   118450251.9534   92298911.8754   22540322.533
  22540323.465          45.500          39.500
  23053129.095                   121145042.1394   94398739.8644   23053128.533
  23053127.192          46.000          30.750
  21195956.681    21195957.478   111385539.7444   86793928.2224   21195955.845
  21195957.263          49.500          43.750
 19  1 25  0 27 30.0000000  0 12G01G04G07G08G09G11G13G16G18G27G28G30
  23610290.151    23610292.061   124073073.2684   96680219.4304   23610290.073
  23610292.802          39.750          28.500
  23306338.000                   122475658.3004   95435581.5914   23306337.268
  23306338.665          42.750          30.250
  20277635.994    20277634.287   106559895.4284   83033563.8104   20277635.569
  20277634.124          52.000          46.500
  20711742.693    20711744.647   108840991.8064   84811171.8554   20711742.309
  20711743.944          55.250          47.250
  24231132.669    24231135.982   127335502.3614   99222459.1324   24231131.690
  24231135.710          37.250          24.250
  21783068.235                   114470937.3244   89198059.3764   21783067.706
  21783066.115          48.750          40.250
  24576119.210                   129148381.3224  100635108.5384   24576118.784
  24576116.964          37.250          16.250
  25100235.210                   131902670.2564  102781312.7664   25100235.819
  25100236.028          35.250          22.750
  22050338.654                   115875350.0644   90292476.9104   22050338.400
  22050337.874          48.250          36.750
  22558121.399    22558122.089   118543785.3424   92371795.0334   22558121.082
  22558122.034          45.250          38.750
  23040014.217                   121076124.5914   94345037.9034   23040013.449
  23040012.287          44.750          30.500
  21184945.101    21184946.363   111327677.3994   86748840.6864   21184944.731
  21184946.327          49.500          43.500
 19  1 25  0 28  0.0000000  0 12G01G04G07G08G09G11G13G16G18G27G28G30
  23589137.175    23589139.102   123961909.7494   96593598.5204   23589137.248
  23589140.588          42.500          30.250
  23323386.472                   122565245.4504   95505389.7404   23323386.179
  23323386.155          43.500          30.000
  20278691.450    20278690.016   106565443.6464   83037887.0984   20278691.355
  20278690.029          51.750          46.500
  20720386.004    20720387.591   108886412.5794   84846564.6684   20720385.517
  20720387.194          55.250          47.000
  24250626.181    24250629.178   127437944.0834   99302283.8494   24250625.552
  24250627.859          37.500          22.500
  21767122.140                   114387141.9384   89132764.2824   21767121.728
  21767120.400          48.250          39.750
  24563205.616                   129080511.8714  100582223.2474   24563204.573
  24563201.393          39.000          15.750
  25118261.792                   131997389.4494  102855119.8854   25118259.546
  25118260.399          34.750          22.500
  22034925.289                   115794351.0344   90229360.7944   22034924.520
  22034924.928          49.000          36.750
  22575962.932    22575963.939   118637540.6134   92444851.0884   22575962.258
  22575963.679          45.250          39.000
  23026920.872                   121007316.6924   94291421.3734   23026920.156
  23026918.759          45.250          30.500
  21174016.213    21174017.764   111270244.5424   86704087.8184   21174015.806
  21174017.203          49.250          43.750
 19  1 25  0 28 30.0000000  0 12G01G04G07G08G09G11G13G16G18G27G28G30
  23568008.994    23568012.798   123850887.9744   96507088.0684   23568009.627
  23568012.836          40.250          29.250
  23340479.430                   122655073.0254   95575385.2414   23340479.325
  23340479.634          44.000          30.750
  20279853.090    20279851.449   106571547.1574   83042643.0784   20279852.788
  20279851.257          52.000          46.500
  20729111.503    20729113.160   108932265.4914   84882294.2114   20729111.035
  20729112.730          55.250          47.250
  24270128.731    24270127.959   127540424.6054   99382138.7704   24270127.651
  24270128.755          38.500          22.250
  21751252.275                   114303746.7304   89067781.0244   21751251.918
  21751250.453          47.750          40.250
  24550377.270                   129013103.4884  100529697.2274   24550377.471
  24550375.749          36.750          15.250
  25136286.584                   132092115.2524  102928932.1664   25136285.916
  25136284.549          36.750          22.500
  22019595.347                   115713791.7544   90166587.3504   22019594.377
  22019594.697          48.250          37.250
  22593845.903    22593846.202   118731515.3834   92518078.1784   22593845.783
  22593846.101          45.750          39.000
  23013847.639                   120938618.3594   94237890.2164   23013846.957
  23013846.213          45.000          30.250
  21163169.242    21163170.523   111213243.3454   86659671.3064   21163168.683
  21163170.468          49.250          43.750
 19  1 25  0 29  0.0000000  0 12G01G04G07G08G09G11G13G16G18G27G28G30
  23546911.607    23546912.531   123740011.2394   96420690.6084   23546911.615
  23546913.405          41.750          29.250
  23357617.987                   122745137.9204   95645565.6524   23357618.964
  23357619.531          43.250          31.250
  20281120.368    20281118.412   106578206.3364   83047832.0524   20281120.124
  20281118.542          52.500          46.500
  20737919.107    20737920.623   108978548.6704   84918359.0294   20737918.567
  20737920.240          55.000          47.000
  24289634.790    24289636.934   127642940.8874   99462021.6234   24289635.298
  24289637.514          36.500          22.750
  21735459.372                   114220754.3464   89003111.6474   21735458.840
  21735457.493          48.000          40.250
  24537637.810                   128946158.1894  100477532.0744   24537638.061
  24537634.841          37.000          16.250
  25154313.952                   132186847.4644  103002749.4714   25154313.606
  25154313.598          38.000          22.000
  22004349.916                   115633675.6214   90104159.1984   22004349.382
  22004349.179          48.500          37.000
  22611769.853    22611770.046   118825707.2604   92591474.4534   22611769.388
  22611769.921          45.250          38.750
  23000796.051                   120870029.7874   94184444.5834   23000794.993
  23000794.158          45.000          30.750
  21152405.249    21152406.019   111156675.9294   86615592.8024   21152404.512
  21152405.558          50.000          43.750
 19  1 25  0 29 30.0000000  0 12G01G04G07G08G09G11G13G16G18G27G28G30
  23525840.591    23525842.300   123629282.7364   96334408.7034   23525839.886
  23525842.541          40.000          29.500
  23374801.905                   122835437.0514   95715928.5724   23374801.529
  23374801.852          43.250          30.250
  20282493.642    20282491.764   106585422.2954   83053454.8744   20282493.270
  20282491.810          52.500          46.250
  20746807.946    20746809.630   109025259.9724   84954757.4544   20746807.343
  20746808.991          55.250          47.000
  24309148.300    24309151.951   127745490.0884   99541930.1134   24309148.738
  24309152.411          37.000          22.250
  21719743.842                   114138166.8974   88938757.8034   21719743.270
  21719741.703          47.500          40.250
  24524986.666                   128879678.2344  100425729.5104   24524985.215
  24524984.533          36.750          17.250
  25172340.935                   132281585.8314  103076571.5504   25172341.505
  25172340.176          35.500          20.500
  21989188.949                   115554005.5604   90042078.6634   21989188.597
  21989188.096          47.500          37.250
  22629735.105    22629735.289   118920113.8644   92665038.0424   22629733.924
  22629735.171          45.500          39.000
  22987765.136                   120801551.3534   94131084.7854   22987764.256
  22987762.883          45.750          31.750
  21141723.802    21141724.625   111100544.4414   86571853.9824   21141722.916
  21141724.217          50.000          43.750
 19  1 25  0 30  0.0000000  0 12G01G04G07G08G09G11G13G16G18G27G28G30
  23504798.627    23504799.995   123518705.7684   96248244.8664   23504797.434
  23504800.109          40.750          29.750
  23392029.062                   122925967.3094   95786471.6264   23392028.967
  23392029.890          43.000          30.000
  20283972.489    20283970.844   106593194.8224   83059511.3914   20283972.254
  20283971.079          52.250          46.250
  20755777.507    20755779.528   109072397.6704   84991488.1304   20755777.232
  20755779.087          54.750          47.000
  24328670.525    24328673.099   127848069.3304   99621861.9844   24328669.868
  24328674.380          38.500          24.000
  21704105.701                   114055987.2494   88874721.7284   21704105.190
  21704103.785          49.000          40.500
  24512425.463                   128813665.6114  100374291.1504   24512424.275
  24512422.963          38.000          18.500
  25190371.916                   132376329.3864  103150397.6094   25190369.304
  25190370.863          36.750          18.500
  21974113.852                   115474784.6484   89980348.0924   21974113.633
  21974113.240          49.000          37.500
  22647739.752    22647740.683   119014732.8094   92738767.0864   22647739.535
  22647740.646          45.750          38.500
  22974755.045                   120733183.3624   94077811.0454   22974754.175
  22974753.231          45.750          32.500
  21131125.446    21131126.656   111044850.9814   86528456.4874   21131124.815
  21131126.094          50.000          44.000
 19  1 25  0 30 30.0000000  0 12G01G04G07G08G09G11G13G16G18G27G28G30
  23483785.949    23483786.549   123408283.6124   96162201.6594   23483786.000
  23483787.196          40.500          30.000
  23409299.676                   123016725.6104   95857192.3274   23409299.822
  23409299.518          43.500          30.750
  20285557.705    20285555.851   106601525.1934   83066002.5934   20285557.553
  20285556.059          51.750          46.500
  20764828.449    20764830.447   109119959.5334   85028549.3244   20764827.987
  20764829.784          54.750          47.000
  24348196.747    24348198.890   127950675.5404   99701814.8614   24348195.447
  24348198.426          40.000          24.750
  21688545.526                   113974217.8634   88811005.3194   21688544.747
  21688543.102          47.500          40.500
  24499952.155                   128748122.6704  100323218.7014   24499952.965
  24499950.123          38.750          18.000
  25208400.924                   132471077.8944  103224227.6134   25208399.368
  25208399.521          37.500          20.500
  21959124.850                   115396015.9344   89918969.8904   21959123.860
  21959123.979          47.500          37.250
  22665784.509    22665786.244   119109561.6804   92812659.7394   22665784.951
  22665785.842          45.500          38.500
  22961767.010                   120664925.8154   94024623.3564   22961765.246
  22961763.760          46.500          32.750
  21120611.429    21120611.947   110989597.6964   86485401.9834   21120610.578
  21120611.771          50.000          44.000
 19  1 25  0 31  0.0000000  0 12G01G04G07G08G09G11G13G16G18G27G28G30
  23462803.418    23462804.781   123298019.4734   96076281.5764   23462803.109
  23462804.766          40.500          30.500
  23426614.234                   123107708.7554   95928088.2824   23426613.577
  23426614.007          43.500          30.500
  20287249.231    20287247.327   106610413.2734   83072928.3654   20287248.794
  20287247.236          52.000          46.250
  20773959.857    20773961.484   109167944.0254   85065939.8404   20773959.264
  20773960.835          55.000          47.000
  24367727.998    24367729.576   128053305.8774   99781786.5354   24367726.131
  24367728.118          41.000          24.750
  21673063.582                   113892861.1924   88747610.5254   21673063.066
  21673061.631          48.250          40.250
  24487571.121                   128683051.5904  100272513.9844   24487570.719
  24487569.727          41.000          22.000
  25226431.257                   132565830.4684  103298060.7954   25226431.549
  25226429.916          37.250          18.000
  21944222.198                   115317702.7284   89857946.6494   21944221.649
  21944221.906          48.750          37.750
  22683870.171    22683870.985   119204598.1284   92886714.1254   22683869.618
  22683870.671          46.000          38.250
  22948798.912                   120596779.1994   93971522.1094   22948798.013
  22948796.424          46.000          32.250
  21110181.010    21110181.686   110934786.6714   86442692.1044   21110180.555
  21110181.502          50.500          44.000
 19  1 25  0 31 30.0000000  0 12G01G04G07G08G09G11G13G16G18G27G28G30
  23441849.597    23441852.927   123187916.7054   95990487.2354   23441850.265
  23441853.434          40.250          30.250
  23443968.883                   123198913.7404   95999157.0774   23443969.438
  23443969.527          44.250          30.750
  20289046.319    20289044.997   106619859.6294   83080289.1584   20289046.406
  20289044.907          51.750          46.250
  20783170.835    20783172.508   109216348.8444   85103657.8844   20783170.386
  20783171.964          55.000          47.000
  24387261.505    24387260.739   128155957.4414   99861774.7854   24387260.976
  24387261.366          41.000          24.750
  21657661.059                   113811919.6574   88684539.2174   21657660.517
  21657658.853          48.250          40.750
  24475277.618                   128618454.6464  100222178.6994   24475278.655
  24475276.194          40.500          22.500
  25244462.390                   132660587.5764  103371897.4644   25244461.379
  25244461.257          35.000          17.000
  21929406.311                   115239847.7744   89797280.4924   21929405.962
  21929406.188          47.000          37.250
  22701994.366    22701994.453   119299839.7854   92960928.4054   22701993.988
  22701994.570          46.750          38.750
  22935850.748                   120528743.4794   93918507.2854   22935850.285
  22935849.510          44.250          31.750
  21099835.181    21099836.474   110880420.0164   86400328.4874   21099834.516
  21099836.148          50.250          43.750
 19  1 25  0 32  0.0000000  0 12G01G04G07G08G09G11G13G16G18G27G28G30
  23420929.797    23420932.845   123077978.5214   95904821.1344   23420930.304
  23420932.793          39.500          30.500
  23461366.408                   123290337.4024   96070396.2824   23461365.920
  23461366.488          42.750          29.500
  20290950.475    20290949.013   106629864.8764   83088085.4584   20290950.216
  20290949.027          51.500          46.250
  20792461.641    20792463.202   109265171.8754   85141701.8064   20792461.179
  20792462.692          55.250          47.000
  24406797.643    24406799.085   128258627.2534   99941777.2504   24406796.953
  24406798.623          40.000          26.250
  21642337.885                   113731395.8654   88621793.4244   21642337.427
  21642335.845          47.750          40.250
  24463077.084                   128554333.6604  100172214.3124   24463075.856
  24463074.529          41.750          22.500
  25262498.200                   132755348.1524  103445736.8084   25262495.443
  25262493.906          36.750          18.750
  21914679.233                   115162454.1524   89736973.7944   21914678.789
  21914678.781          48.000          37.500
  22720156.709    22720157.455   119395284.3184   93035300.7754   22720156.145
  22720156.938          46.000          38.000
  22922925.657                   120460818.9544   93865579.0784   22922924.662
  22922923.707          44.250          31.750
  21089574.502    21089575.378   110826499.8304   86358312.7594   21089574.061
  21089575.052          50.250          44.000
 19  1 25  0 32 30.0000000  0 12G01G04G07G08G09G11G13G16G18G27G28G30
  23400041.195    23400043.831   122968208.1584   95819285.8304   23400041.809
  23400043.702          39.250          29.750
  23478804.494                   123381976.6544   96141803.4734   23478803.869
  23478805.542          42.000          29.250
  20292960.898    20292959.378   106640429.5134   83096317.6404   20292960.725
  20292959.404          52.250          46.250
  20801831.625    20801832.934   109314411.3004   85180070.1914   20801831.109
  20801832.697          55.000          47.000
  24426337.189    24426338.169   128361312.4584  100021791.6514   24426337.362
  24426338.308          38.500          26.250
  21627094.712                   113651292.2754   88559375.0624   21627094.125
  21627092.790          48.000          41.000
  24450965.238                   128490690.7684  100122622.4684   24450965.259
  24450963.900          41.250          23.500
  25280529.933                   132850111.6924  103519578.4504   25280527.693
  25280527.743          36.000          18.750
  21900039.789                   115085524.9804   89677029.0014   21900039.338
  21900039.161          47.000          37.500
  22738357.630    22738357.549   119490929.3594   93109829.3784   22738356.622
  22738357.511          46.250          38.000
  22910020.814                   120393005.8634   93812737.7224   22910020.561
  22910018.873          44.250          31.750
  21079399.194    21079399.788   110773028.2014   86316646.5604   21079398.725
  21079399.856          50.250          44.000
 19  1 25  0 33  0.0000000  0 12G01G04G07G08G09G11G13G16G18G27G28G30
  23379186.356    23379188.117   122858608.9334   95733883.8814   23379185.290
  23379188.428          40.000          30.500
  23496283.867                   123473828.4144   96213376.2034   23496283.198
  23496284.153          42.000          28.750
  20295077.884    20295076.148   106651553.7364   83104985.8644   20295077.606
  20295076.120          52.500          46.250
  20811280.642    20811281.887   109364065.1354   85218761.4934   20811279.959
  20811281.526          55.250          47.000
  24445879.342    24445880.793   128464010.1714  100101815.8654   24445879.368
  24445881.267          37.250          25.500
  21611931.789                   113571611.2674   88497285.9794   21611931.200
  21611929.829          48.750          40.500
  24438945.616                   128427528.1454  100073404.8324   24438945.790
  24438944.216          41.000          22.000
  25298562.238                   132944877.9214  103593422.1934   25298561.606
  25298561.588          37.250          20.250
  21885489.712                   115009063.2714   89617448.4564   21885489.616
  21885489.042          48.500          37.500
  22756596.021    22756596.115   119586772.5094   93184512.3424   22756594.986
  22756595.820          46.500          38.000
  22897137.873                   120325304.5554   93759983.4764   22897137.282
  22897136.556          44.750          32.500
  21069309.643    21069310.473   110720007.2274   86275331.5104   21069309.325
  21069310.285          51.000          44.500
 19  1 25  0 33 30.0000000  0 12G01G04G07G08G09G11G13G16G18G27G28G30
  23358362.516    23358365.292   122749184.1154   95648617.7944   23358363.043
  23358365.307          40.000          31.250
  23513801.476                   123565889.5244   96285112.1084   23513801.049
  23513802.671          41.750          28.000
  20297301.491    20297299.369   106663238.3924   83114090.7894   20297301.374
  20297299.712          52.500          46.250
  20820807.475    20820809.266   109414131.2144   85257774.0224   20820807.096
  20820808.752          54.500          47.000
  24465425.639    24465425.302   128566717.4244  100181847.4584   24465424.290
  24465426.405          37.000          26.000
  21596850.252                   113492355.6144   88435528.3364   21596849.323
  21596848.013          49.000          40.750
  24427018.274                   128364848.1264  100024563.2654   24427017.589
  24427016.983          42.500          25.750
  25316595.361                   133039646.5524  103667267.7974   25316594.971
  25316594.312          38.000          19.000
  21871029.142                   114933071.9124   89558234.4494   21871028.568
  21871029.015          48.000          37.500
  22774871.039    22774872.243   119682811.4994   93259347.9284   22774870.891
  22774871.353          46.250          38.000
  22884276.541                   120257715.1584   93707316.4034   22884275.915
  22884274.975          45.750          32.250
  21059306.152    21059307.126   110667438.9544   86234369.2254   21059305.601
  21059307.006          50.750          44.000
 19  1 25  0 34  0.0000000  0 12G01G04G07G08G09G11G13G16G18G27G28G30
  23337572.819    23337576.592   122639936.9874   95563490.2044   23337573.328
  23337576.287          39.750          31.500
  23531360.133                   123658156.8564   96357008.7204   23531360.568
  23531360.797          43.500          30.250
  20299631.422    20299629.716   106675483.4624   83123632.3984   20299631.358
  20299629.837          52.250          46.000
  20830412.945    20830414.619   109464607.9304   85297106.5294   20830412.481
  20830414.121          54.750          46.750
  24484971.599    24484971.543   128669431.4484  100261884.3554   24484971.724
  24484972.539          37.000          25.500
  21581849.496                   113413527.3194   88374103.7194   21581848.910
  21581847.420          49.000          40.750
  24415183.150                   128302652.6124   99976099.2374   24415183.073
  24415180.942          41.500          25.750
  25334629.956                   133134416.8764  103741114.7914   25334628.859
  25334628.329          39.000          20.500
  21856658.939                   114857553.9334   89499389.2864   21856658.252
  21856658.354          48.750          38.250
  22793183.401    22793184.100   119779043.9704   93334334.2694   22793182.966
  22793183.678          46.250          37.000
  22871436.054                   120190238.1054   93654736.9004   22871435.181
  22871433.660          44.750          32.500
  21049389.389    21049390.212   110615325.4644   86193761.3044   21049388.981
  21049390.179          51.000          44.250
 19  1 25  0 34 30.0000000  0 12G01G04G07G08G09G11G13G16G18G27G28G30
  23316818.366    23316821.185   122530870.8534   95478503.6164   23316818.730
  23316821.384          40.750          31.500
  23548956.532                   123750627.2574   96429063.5814   23548956.417
  23548956.803          43.250          30.000
  20302068.564    20302066.597   106688289.3064   83133610.9804   20302068.275
  20302066.514          52.750          46.250
  20840096.263    20840097.567   109515492.7334   85336757.0234   20840095.705
  20840097.318          54.750          46.750
  24504518.721    24504518.519   128772149.3234  100341924.2324   24504517.922
  24504518.965          37.000          25.250
  21566930.906                   113335128.9644   88313014.1084   21566930.218
  21566928.604          49.750          41.000
  24403440.545                   128240943.4624   99928014.1924   24403440.522
  24403438.123          41.250          23.750
  25352665.658                   133229188.7234  103814962.9944   25352663.156
  25352664.122          39.500          20.750
  21842378.786                   114782512.6084   89440915.5334   21842378.571
  21842378.272          48.750          38.250
  22811532.215    22811533.318   119875467.6084   93409469.5714   22811532.036
  22811533.137          46.250          37.500
  22858616.914                   120122873.0534   93602244.6814   22858616.327
  22858614.637          43.750          32.500
  21039559.552    21039560.494   110563668.7874   86153509.3614   21039558.928
  21039560.382          50.250          44.250
 19  1 25  0 35  0.0000000  0 12G01G04G07G08G09G11G13G16G18G27G28G30
  23296099.430    23296101.132   122421988.9664   95393660.6024   23296099.733
  23296101.977          42.250          31.500
  23566591.012                   123843297.7164   96501274.3184   23566590.981
  23566591.917          43.250          29.500
  20304611.941    20304610.336   106701656.1894   83144026.7344   20304611.768
  20304610.259          52.500          46.000
  20849856.517    20849857.772   109566783.7874   85376724.0774   20849855.852
  20849857.625          54.500          46.750
  24524065.572    24524066.394   128874868.1524  100421964.8014   24524064.915
  24524066.354          36.000          25.750
  21552094.300                   113257162.7424   88252261.2134   21552093.760
  21552092.272          48.750          40.750
  24391790.852                   128179722.9864   99880309.9334   24391789.892
  24391788.949          41.750          23.250
  25370699.312                   133323961.6534  103888812.0004   25370699.024
  25370697.655          38.750          20.250
  21828190.178                   114707950.5164   89382815.2204   21828189.914
  21828189.538          48.250          38.250
  22829917.403    22829918.038   119972080.0954   93484752.0344   22829916.863
  22829917.917          46.750          37.500
  22845819.093                   120055621.1464   93549840.6234   22845818.071
  22845817.190          44.250          32.250
  21029816.782    21029817.754   110512470.9814   86113614.9664   21029816.325
  21029817.686          51.000          44.750
 19  1 25  0 35 30.0000000  0 12G01G04G07G08G09G11G13G16G18G27G28G30
  23275416.216    23275417.765   122313294.6434   95308963.7144   23275415.848
  23275418.508          42.500          32.250
  23584263.518                   123936165.0854   96573638.4824   23584263.572
  23584262.761          43.250          29.250
  20307262.609    20307260.666   106715584.6044   83154880.0344   20307262.284
  20307260.775          52.500          46.000
  20859694.117    20859695.431   109618479.2814   85417006.2804   20859693.398
  20859694.919          54.750          46.750
  24543610.612    24543613.980   128977585.0424  100502003.9324   24543610.627
  24543612.609          36.000          23.750
  21537340.499                   113179631.4354   88191847.2204   21537339.990
  21537338.041          49.250          40.750
  24380234.127                   128118993.2794   99832988.0424   24380233.380
  24380231.487          41.500          23.250
  25388733.881                   133418734.8684  103962661.1424   25388732.769
  25388733.234          37.250          21.000
  21814092.799                   114633870.7594   89325090.7674   21814092.800
  21814092.658          49.000          38.250
  22848337.879    22848337.229   120068879.1284   93560179.8694   22848337.280
  22848337.129          47.500          37.500
  22833043.022                   119988482.0174   93497524.4124   22833041.785
  22833040.888          44.250          32.750
  21020161.689    21020163.010   110461734.0784   86074079.7224   21020161.349
  21020162.697          51.250          44.500
 19  1 25  0 36  0.0000000  0 12G01G04G07G08G09G11G13G16G18G27G28G30
  23254768.010    23254770.471   122204791.0944   95224415.5534   23254767.837
  23254770.790          41.500          32.000
  23601972.491                   124029226.2554   96646153.6404   23601971.591
  23601972.616          42.000          28.000
  20310020.024    20310018.239   106730074.7874   83166171.0844   20310019.597
  20310018.126          52.250          46.000
  20869607.931    20869609.351   109670576.7284   85457601.7034   20869607.155
  20869608.799          54.500          46.750
  24563155.249    24563157.791   129080297.1474  100582039.3244   24563155.465
  24563156.987          33.500          22.250
  21522670.181                   113102537.3784   88131773.9414   21522669.425
  21522667.734          48.750          41.000
  24368771.926                   128058756.1714   99786050.0554   24368771.234
  24368769.071          41.500          23.250
  25406770.222                   133513508.4674  104036510.6754   25406768.436
  25406767.279          39.500          20.250
  21800087.954                   114560275.9184   89267744.1684   21800087.745
  21800087.595          47.500          38.250
  22866793.160    22866793.401   120165862.3584   93635751.2254   22866792.561
  22866793.084          47.250          37.750
  22820289.068                   119921456.0664   93445296.4134   22820288.068
  22820286.491          45.000          33.000
  21010595.196    21010596.002   110411460.1184   86034905.2114   21010594.476
  21010595.840          51.000          44.500
 19  1 25  0 36 30.0000000  0 12G01G04G07G08G09G11G13G16G18G27G28G30
  23234157.615    23234159.542   122096481.7304   95140018.6604   23234158.090
  23234159.214          41.750          31.750
  23619716.687                   124122478.0714   96718817.3644   23619717.323
  23619718.168          41.500          28.000
  20312884.277    20312882.714   106745126.9934   83177900.0764   20312883.939
  20312882.573          52.000          46.000
  20879597.857    20879599.294   109723074.6894   85498509.2044   20879597.139
  20879598.676          54.500          46.750
  24582699.868    24582701.888   129183001.6594  100662068.7554   24582699.385
  24582701.556          36.000          22.250
  21508083.335                   113025882.8114   88072043.1134   21508082.735
  21508080.702          49.000          41.250
  24357401.391                   127999013.6394   99739497.4404   24357402.269
  24357400.789          38.750          22.000
  25424805.148                   133608281.8494  104110359.9794   25424803.793
  25424802.798          40.500          19.750
  21786176.750                   114487169.3184   89210778.0074   21786176.207
  21786175.768          48.250          38.500
  22885283.091    22885283.421   120263027.5314   93711464.3414   22885282.193
  22885282.801          47.000          37.250
  22807555.527                   119854543.6424   93393156.8504   22807554.930
  22807553.059          44.500          32.750
  21001116.634    21001117.715   110361651.0934   85996092.9824   21001116.085
  21001117.400          51.500          44.250
 19  1 25  0 37  0.0000000  0 11G01G04G07G08G09G11G13G18G27G28G30
  23213584.356    23213586.143   121988369.7644   95055775.5974   23213584.061
  23213586.386          42.000          31.250
  23637499.037                   124215917.4124   96791627.2474   23637498.817
  23637498.089          43.250          29.000
  20315855.493    20315853.861   106760741.6094   83190067.3044   20315855.218
  20315853.817          52.250          46.000
  20889663.465    20889665.271   109775970.9634   85539727.0814   20889662.886
  20889664.413          54.250          46.750
  24602243.728    24602242.925   129285695.6174  100742089.9884   24602240.901
  24602244.520          36.500          21.000
  21493580.337                   112949670.2554   88012656.7284   21493579.899
  21493577.796          49.750          41.000
  24346128.094                   127939767.5124   99693331.6604   24346126.758
  24346126.847          38.000          21.250
  21772358.212                   114414553.8194   89154194.5264   21772357.946
  21772357.702          48.750          38.750
  22903806.823    22903807.132   120360372.3554   93787317.4644   22903806.546
  22903807.052          47.500          37.250
  22794843.079                   119787744.7794   93341105.8024   22794842.863
  22794841.780          43.750          32.500
  20991727.381    20991728.002   110312309.0284   85957644.6264   20991726.470
  20991727.647          51.750          44.250
 19  1 25  0 37 30.0000000  0 11G01G04G07G08G09G11G13G18G27G28G30
  23193049.523    23193051.710   121880458.4864   94971688.9354   23193049.878
  23193051.956          42.000          32.000
  23655314.436                   124309541.2014   96864580.8354   23655314.323
  23655315.075          42.250          28.250
  20318933.985    20318932.075   106776918.7294   83202672.8474   20318933.723
  20318932.157          52.250          45.750
  20899804.921    20899806.427   109829263.2014   85581253.5064   20899804.165
  20899805.808          55.000          46.750
  24621782.582    24621784.683   129388376.2824  100822100.8954   24621781.209
  24621783.219          36.750          22.250
  21479162.253                   112873902.0144   87953616.5624   21479161.574
  21479159.718          49.750          41.000
  24334947.911                   127881019.8884   99647554.2984   24334948.578
  24334946.664          38.250          20.250
  21758634.139                   114342432.1474   89097995.8534   21758633.771
  21758633.324          48.250          39.000
  22922365.514    22922365.334   120457894.5444   93863308.7774   22922364.306
  22922364.673          47.750          37.500
  22782153.666                   119721059.8594   93289143.5544   22782152.648
  22782152.230          44.000          32.250
  20982426.790    20982428.244   110263435.9204   85919561.6824   20982426.436
  20982427.658          51.750          44.500
 19  1 25  0 38  0.0000000  0 11G01G04G07G08G09G11G13G18G27G28G30
  23172553.784    23172556.174   121772751.2174   94887761.2404   23172553.203
  23172555.918          43.000          32.000
  23673165.762                   124403346.3514   96937675.7144   23673164.823
  23673165.441          43.500          28.500
  20322119.504    20322117.676   106793658.3904   83215716.7384   20322119.165
  20322117.613          52.750          46.000
  20910020.689    20910022.398   109882949.7394   85623087.1724   20910020.440
  20910021.935          54.250          46.750
  24641316.671    24641320.063   129491040.8044  100902099.2044   24641317.553
  24641319.542          36.250          19.750
  21464828.987                   112798580.6034   87894924.5754   21464828.631
  21464826.609          49.500          41.250
  24323865.006                   127822772.9774   99602167.0844   24323864.321
  24323863.695          41.000          21.500
  21745004.103                   114270807.3034   89042184.3134   21745003.574
  21745003.461          48.250          38.750
  22940956.040    22940956.164   120555591.8404   93939436.5324   22940955.528
  22940956.504          47.250          37.000
  22769486.063                   119654489.1924   93237270.3204   22769485.703
  22769483.905          44.000          32.750
  20973216.465    20973217.742   110215033.7534   85881845.7064   20973215.903
  20973217.169          51.750          44.750
 19  1 25  0 38 30.0000000  0 11G01G04G07G08G09G11G13G18G27G28G30
  23152097.592    23152099.908   121665251.2224   94803995.0204   23152097.845
  23152099.360          43.000          33.000
  23691050.404                   124497329.6654   97010909.4584   23691049.551
  23691051.159          42.750          29.750
  20325411.986    20325410.279   106810960.9384   83229199.2384   20325411.739
  20325410.478          52.500          45.750
  20920311.497    20920313.440   109937028.5924   85665226.5434   20920311.238
  20920312.784          53.750          47.000
  24660850.396    24660851.174   129593686.2584  100982082.6604   24660851.226
  24660851.034          37.000          20.000
  21450580.750                   112723707.7984   87836582.1374   21450580.204
  21450578.667          49.250          41.000
  24312875.906                   127765028.5124   99557171.4034   24312876.308
  24312874.298          40.000          20.250
  21731469.796                   114199682.1024   88986762.1004   21731469.310
  21731469.048          48.500          39.000
  22959579.960    22959580.766   120653461.9364   94015698.9514   22959579.720
  22959580.451          47.250          37.250
  22756840.465                   119588033.0904   93185486.3584   22756839.469
  22756837.848          45.000          33.750
  20964095.413    20964097.145   110167104.5074   85844498.2454   20964095.004
  20964096.719          51.250          44.750
 19  1 25  0 39  0.0000000  0 11G01G04G07G08G09G11G13G18G27G28G30
  23131679.683    23131682.852   121557961.7944   94720392.8954   23131680.010
  23131683.027          42.250          32.000
  23708968.452                   124591488.1084   97084279.6394   23708968.176
  23708968.220          43.000          29.000
  20328811.755    20328810.036   106828826.8254   83243120.7024   20328811.554
  20328810.173          52.500          45.750
  20930676.606    20930678.410   109991497.3604   85707669.7414   20930676.338
  20930677.819          54.250          46.750
  24680379.636    24680380.396   129696309.8934  101062049.1334   24680379.156
  24680381.577          38.750          22.500
  21436419.224                   112649286.1844   87778591.2744   21436418.785
  21436416.932          49.250          41.250
  24301983.696                   127707788.3234   99512568.6574   24301984.296
  24301981.344          40.000          19.250
  21718030.328                   114129059.4494   88931731.4724   21718029.950
  21718030.012          48.000          39.000
  22978236.015    22978236.774   120751502.6104   94092094.2774   22978235.958
  22978236.382          46.500          36.750
  22744215.939                   119521691.7224   93133791.8104   22744214.691
  22744213.396          45.500          33.250
  20955065.303    20955066.848   110119650.1664   85807520.8384   20955064.799
  20955066.344          50.750          44.750
 19  1 25  0 39 30.0000000  0 11G01G04G07G08G09G11G13G18G27G28G30
  23111303.711    23111306.522   121450886.1484   94636957.3654   23111304.122
  23111307.315          42.750          32.000
  23726918.276                   124685818.5084   97157783.8184   23726917.366
  23726918.813          42.000          28.250
  20332318.787    20332317.250   106847255.9384   83257481.0434   20332318.716
  20332317.009          53.250          46.000
  20941115.633    20941117.159   110046354.1284   85750415.2824   20941115.244
  20941116.818          54.000          46.500
  24699904.130    24699904.635   129798908.9234  101141996.4404   24699903.063
  24699905.751          38.250          22.500
  21422343.798                   112575318.3844   87720954.0484   21422343.123
  21422341.455          50.750          41.500
  24291188.348                   127651054.6324   99468360.5874   24291187.135
  24291185.221          40.250          20.500
  21704687.669                   114058942.0924   88877094.5864   21704687.086
  21704687.222          48.250          38.750
  22996925.034    22996925.751   120849711.6164   94168620.7384   22996924.410
  22996925.413          47.000          36.750
  22731612.835                   119455465.4404   93082186.9034   22731612.076
  22731611.270          44.250          32.750
  20946125.724    20946127.055   110072672.6624   85770914.9874   20946125.453
  20946127.070          51.750          44.750
 19  1 25  0 40  0.0000000  0 11G01G04G07G08G09G11G13G18G27G28G30
  23090970.615    23090972.038   121344027.7754   94553691.1194   23090970.492
  23090972.313          44.250          33.000
  23744900.340                   124780317.7944   97231419.5754   23744899.603
  23744901.223          41.250          27.750
  20335933.065    20335931.097   106866248.3744   83272280.3494   20335932.713
  20335931.194          52.750          46.000
  20951628.018    20951629.788   110101596.5514   85793461.3314   20951627.328
  20951629.059          54.250          46.750
  24719422.156    24719422.325   129901480.5344  101221922.3404   24719421.306
  24719422.223          36.500          21.750
  21408354.624                   112501806.8034   87663672.2684   21408354.415
  21408352.613          50.000          41.500
  24280488.360                   127594828.5724   99424548.0974   24280488.346
  24280486.062          40.500          20.000
  21691441.535                   113989332.8634   88822853.6574   21691440.710
  21691440.873          48.250          38.750
  23015644.713    23015645.750   120948086.6974   94245276.6624   23015644.508
  23015645.271          47.000          37.000
  22719032.228                   119389354.2644   93030671.7154   22719031.309
  22719030.403          44.500          32.750
  20937277.605    20937278.875   110026173.9274   85734682.2144   20937276.817
  20937278.432          51.750          44.750
 19  1 25  0 40 30.0000000  0 11G01G04G07G08G09G11G13G18G27G28G30
  23070677.095    23070679.443   121237389.8564   94470596.6634   23070677.268
  23070679.738          43.250          32.250
  23762915.155                   124874982.8424   97305184.5144   23762915.016
  23762915.615          42.250          28.250
  20339654.472    20339652.577   106885804.2404   83287518.6824   20339654.002
  20339652.560          53.000          46.000
  20962213.502    20962215.039   110157222.9184   85836806.5574   20962212.775
  20962214.256          54.000          46.500
  24738934.679    24738937.700   130004021.8674  101301824.6604   24738934.581
  24738937.443          36.250          22.500
  21394453.214                   112428753.2624   87606747.4334   21394452.264
  21394450.835          49.250          41.250
  24269886.139                   127539112.6434   99381133.0754   24269885.801
  24269884.581          40.000          20.250
  21678292.340                   113920234.6574   88769010.9184   21678292.008
  21678291.735          48.750          39.250
  23034396.081    23034396.977   121046625.6024   94322060.2214   23034395.684
  23034396.626          47.250          36.750
  22706474.214                   119323358.9694   92979246.8204   22706473.069
  22706472.060          44.750          33.000
  20928520.635    20928521.678   109980155.9424   85698824.0444   20928520.024
  20928521.486          51.750          44.750
 19  1 25  0 41  0.0000000  0 11G01G04G07G08G09G11G13G18G27G28G30
  23050427.850    23050429.586   121130975.6754   94387676.5484   23050427.447
  23050429.753          44.000          33.000
  23780960.695                   124969810.5374   97379076.2084   23780959.988
  23780960.552          42.500          27.500
  20343482.974    20343480.997   106905923.6954   83303196.1804   20343482.496
  20343481.118          52.500          46.000
  20972871.406    20972872.722   110213231.0684   85880449.2804   20972870.780
  20972872.303          54.000          46.500
  24758440.509    24758442.614   130106530.1354  101381701.2384   24758441.648
  24758443.401          35.250          20.000
  21380638.890                   112356160.1814   87550181.4274   21380638.448
  21380636.616          49.250          41.750
  24259381.063                   127483908.5244   99338116.8434   24259381.102
  24259378.776          40.750          20.250
  21665241.048                   113851650.3174   88715568.5914   21665241.038
  21665240.769          48.000          39.000
  23053178.549    23053178.917   121145326.1074   94398969.7154   23053178.900
  23053179.022          48.000          37.000
  22693937.774                   119257479.5124   92927912.1844   22693936.897
  22693935.739          44.250          33.250
  20919855.468    20919856.691   109934620.6384   85663341.9804   20919854.978
  20919856.431          51.250          45.000
 19  1 25  0 41 30.0000000  0 11G01G04G07G08G09G11G13G18G27G28G30
  23030221.061    23030223.298   121024788.5624   94304933.3564   23030220.668
  23030222.965          44.250          33.000
  23799035.760                   125064797.7454   97453092.2084   23799035.913
  23799034.781          43.750          27.750
  20347418.732    20347416.828   106926606.5264   83319312.6644   20347418.485
  20347416.948          52.500          46.000
  20983601.568    20983603.338   110269618.8684   85924387.8254   20983600.952
  20983602.566          53.750          46.250
  24777941.767    24777943.789   130209002.6224  101461549.8714   24777941.673
  24777943.527          38.000          21.000
  21366913.090                   112284029.7604   87493975.9074   21366912.594
  21366911.022          50.250          41.500
  24248974.486                   127429217.9354   99295500.8194   24248973.979
  24248971.330          42.250          21.500
  21652288.171                   113783582.4204   88662528.7104   21652287.844
  21652287.731          48.250          39.000
  23071990.911    23071991.624   121244186.0384   94476003.4324   23071990.419
  23071992.023          47.000          36.750
  22681423.485                   119191716.0844   92876667.9744   22681422.353
  22681421.074          44.750          33.500
  20911282.831    20911283.742   109889569.8834   85628237.4994   20911282.134
  20911283.530          51.750          44.750
 19  1 25  0 42  0.0000000  0 11G01G04G07G08G09G11G13G18G27G28G30
  23010057.849    23010059.252   120918831.8014   94222369.6694   23010057.546
  23010059.872          44.250          33.000
  23817140.760                   125159941.3834   97527230.1204   23817140.779
  23817141.540          43.000          29.000
  20351462.118    20351460.049   106947852.9984   83335868.3524   20351461.615
  20351459.982          52.750          45.750
  20994403.787    20994405.302   110326384.6164   85968620.8824   20994403.131
  20994404.805          53.750          46.250
  24797433.938    24797436.511   130311436.3994  101541368.3964   24797434.591
  24797435.852          36.750          21.500
  21353275.403                   112212364.4154   87438132.7824   21353274.966
  21353273.338          49.250          41.750
  24238665.095                   127375042.9474   99253286.4984   24238663.991
  24238662.048          41.250          21.500
  21639433.689                   113716033.8284   88609893.4584   21639433.751
  21639433.758          47.500          39.250
  23090833.405    23090833.587   121343203.1564   94553159.6104   23090832.354
  23090833.374          47.000          35.750
  22668931.237                   119126069.2144   92825514.5644   22668930.147
  22668928.516          44.000          33.500
  20902802.352    20902803.376   109845005.6094   85593512.0954   20902801.709
  20902803.006          51.250          44.750
 19  1 25  0 42 30.0000000  0 11G01G04G07G08G09G11G13G18G27G28G30
  22989939.177    22989941.421   120813108.7004   94139988.0524   22989938.297
  22989941.916          43.500          32.750
  23835275.215                   125255238.3234   97601487.4424   23835274.849
  23835275.618          43.250          29.000
  20355611.903    20355610.539   106969662.8884   83352863.0664   20355611.710
  20355610.347          52.250          45.500
  21005277.362    21005278.654   110383525.7674   86013146.4534   21005276.839
  21005278.414          53.750          46.500
  24816919.848    24816920.099   130413828.7904  101621154.6544   24816918.502
  24816919.350          36.000          19.750
  21339726.805                   112141166.5094   87382653.9014   21339726.512
  21339724.828          49.500          41.750
  24228454.432                   127321384.9734   99211475.0824   24228454.193
  24228452.073          40.750          22.000
  21626679.472                   113649006.9644   88557664.7504   21626679.343
  21626678.952          48.000          39.500
  23109705.505    23109705.648   121442375.2414   94630436.5654   23109704.862
  23109705.351          47.500          36.250
  22656460.607                   119060538.9074   92774452.0054   22656460.304
  22656459.164          44.250          34.000
  20894415.327    20894416.228   109800929.6804   85559167.2144   20894414.421
  20894415.702          52.250          45.000
 19  1 25  0 43  0.0000000  0 11G01G04G07G08G09G11G13G18G27G28G30
  22969866.695    22969868.482   120707622.4774   94057791.0224   22969866.249
  22969868.163          44.500          33.250
  23853438.505                   125350685.5274   97675861.8534   23853437.488
  23853436.993          43.250          28.250
  20359869.555    20359867.756   106992036.4734   83370297.0214   20359869.426
  20359867.991          52.500          45.750
  21016221.810    21016223.715   110441040.5574   86057963.1844   21016221.528
  21016223.130          53.500          46.500
  24836394.593    24836397.004   130516176.9894  101700906.4794   24836393.414
  24836396.886          34.250          17.750
  21326267.938                   112070437.9534   87327540.7554   21326267.156
  21326265.731          51.000          41.750
  24218340.770                   127268246.1254   99170068.2234   24218341.831
  24218339.121          40.750          23.250
  21614024.476                   113582505.0934   88505845.1444   21614024.046
  21614023.914          48.000          39.250
  23128605.928    23128606.719   121541700.0884   94707832.5564   23128605.426
  23128606.451          46.750          36.000
  22644013.139                   118995125.9574   92723480.8694   22644012.458
  22644011.400          44.500          33.750
  20886121.339    20886122.013   109757343.9964   85525204.3534   20886120.361
  20886121.610          52.250          45.000
 19  1 25  0 43 30.0000000  0 11G01G04G07G08G09G11G13G18G27G28G30
  22949837.242    22949839.726   120602376.5134   93975781.2114   22949837.363
  22949839.982          43.250          32.250
  23871630.098                   125446279.8784   97750350.9154   23871629.144
  23871629.816          43.000          28.750
  20364234.545    20364232.662   107014973.8164   83388170.2704   20364234.196
  20364232.722          52.750          45.750
  21027237.390    21027238.646   110498926.6294   86103069.2204   21027236.907
  21027238.547          53.750          46.500
  24855863.460    24855864.879   130618478.2884  101780621.7604   24855861.766
  24855864.345          36.500          19.250
  21312898.254                   112000181.2734   87272795.2924   21312898.123
  21312896.082          50.250          41.500
  24208328.545                   127215627.9424   99129067.0114   24208329.204
  24208327.550          41.250          24.250
  21601469.267                   113516530.5294   88454436.4334   21601469.264
  21601469.276          48.000          39.000
  23147534.123    23147536.098   121641175.5364   94785345.8884   23147534.175
  23147535.483          45.750          35.000
  22631587.475                   118929830.2834   92672601.1504   22631586.836
  22631585.568          44.000          33.250
  20877920.496    20877921.531   109714250.4404   85491624.9504   20877920.006
  20877921.314          51.750          45.250
 19  1 25  0 44  0.0000000  0 11G01G04G07G08G09G11G13G18G27G28G30
  22929857.754    22929858.580   120497374.1204   93893961.1864   22929856.999
  22929858.690          44.750          33.000
  23889847.424                   125542018.1994   97824952.1664   23889846.860
  23889848.073          41.250          27.250
  20368706.728    20368704.666   107038474.5694   83406482.5464   20368706.348
  20368704.705          52.750          45.750
  21038323.102    21038324.831   110557182.0564   86148463.0614   21038322.514
  21038324.040          53.500          46.500
  24875320.549    24875322.626   130720729.8734  101860298.3014   24875320.283
  24875321.901          37.250          19.750
  21299619.244                   111930398.5104   87218419.1204   21299618.737
  21299616.887          49.500          41.750
  24198416.407                   127163532.2334   99088472.9474   24198415.378
  24198414.704          41.750          24.750
  21589016.251                   113451086.1334   88403440.8264   21589016.007
  21589015.967          48.250          39.250
  23166493.209    23166493.251   121740799.4094   94862974.8744   23166493.113
  23166492.630          46.750          35.500
  22619184.737                   118864652.0824   92621812.9504   22619184.481
  22619182.745          44.000          33.000
  20869814.191    20869814.855   109671650.8494   85458430.4714   20869813.608
  20869814.743          51.250          45.000
 19  1 25  0 44 30.0000000  0 11G01G04G07G08G09G11G13G18G27G28G30
  22909923.439    22909924.713   120392618.5684   93812333.5034   22909922.620
  22909924.511          45.750          34.000
  23908091.684                   125637897.4624   97899663.2434   23908091.768
  23908092.903          40.750          26.000
  20373285.939    20373283.961   107062538.7324   83425233.8334   20373285.556
  20373284.055          52.750          45.750
  21049478.223    21049480.009   110615804.5404   86194142.9244   21049477.978
  21049479.546          53.250          46.500
  24894767.274    24894770.465   130822929.0064  101939934.0104   24894765.834
  24894769.384          34.000          15.750
  21286430.738                   111861091.6594   87164413.7904   21286429.899
  21286428.563          50.000          41.750
  24188601.288                   127111960.7274   99048287.3844   24188601.047
  24188600.470          39.750          23.000
  21576664.047                   113386174.3614   88352860.2394   21576663.343
  21576663.305          48.250          39.250
  23185479.139    23185478.720   121840569.5034   94940717.8124   23185478.530
  23185478.564          47.000          35.000
  22606804.797                   118799591.9314   92571116.7684   22606803.615
  22606802.618          44.750          34.000
  20861802.144    20861802.811   109629547.0544   85425622.3214   20861801.543
  20861802.547          52.250          45.000
 19  1 25  0 45  0.0000000  0 11G01G04G07G08G09G11G13G18G27G28G30
  22890036.228    22890037.115   120288113.1574   93730900.7264   22890036.114
  22890038.308          45.500          33.750
  23926363.731                   125733914.5354   97974481.6614   23926363.703
  23926366.077          42.250          28.500
  20377972.222    20377970.336   107087166.1904   83444424.0644   20377971.893
  20377970.596          52.250          45.750
  21060703.449    21060704.959   110674792.4774   86240107.5474   21060702.917
  21060704.749          52.750          46.250
  24914206.445    24914209.767   130925073.0174  102019526.7154   24914204.631
  24914207.485          36.750          18.750
  21273333.187                   111792262.9834   87110781.0424   21273332.244
  21273330.684          49.750          41.750
  24178888.055                   127060915.0014   99008511.5114   24178888.072
  24178887.298          40.500          22.500
  21564413.495                   113321798.0904   88302696.9424   21564412.797
  21564412.780          48.000          39.250
  23204492.043    23204492.630   121940483.7154   95018573.0554   23204491.163
  23204492.805          46.750          36.000
  22594446.566                   118734650.0574   92520512.7084   22594445.706
  22594444.455          44.500          34.250
  20853884.730    20853885.725   109587940.9004   85393201.9464   20853884.111
  20853885.404          52.250          45.000
 19  1 25  0 45 30.0000000  0 12G01G04G07G08G09G11G13G17G18G27G28G30
  22870197.519    22870199.203   120183861.0994   93649665.3834   22870197.009
  22870199.884          45.250          33.500
  23944661.354                   125830066.3204   98049405.1154   23944661.547
  23944661.030          43.250          26.250
  20382766.168    20382764.272   107112357.1554   83464053.3814   20382765.678
  20382764.161          51.750          45.750
  21071997.654    21071999.514   110734143.5224   86286355.1184   21071997.151
  21071998.748          52.750          46.250
  24933631.117    24933632.260   131027159.1034  102099074.2954   24933631.332
  24933631.964          36.000          18.000
  21260326.903                   111723914.6804   87057522.6244   21260325.959
  21260324.768          49.750          42.000
  24169272.776                   127010396.9304   98969146.8014   24169272.698
  24169273.334          37.000          21.250
  25186913.870    25186915.105   132358119.7684  103136206.6794   25186913.395
  25186912.942          38.000          19.750
  21552265.454                   113257959.9364   88252952.9474   21552264.780
  21552264.654          47.500          39.250
  23223532.866    23223532.540   122040539.8684   95096538.8674   23223532.436
  23223532.395          48.000          36.250
  22582111.012                   118669826.6724   92470000.9854   22582111.112
  22582108.801          44.250          35.000
  20846062.321    20846062.890   109546834.2194   85361170.7684   20846061.570
  20846062.948          51.750          45.000
 19  1 25  0 46  0.0000000  0 12G01G04G07G08G09G11G13G17G18G27G28G30
  22850408.193    22850410.194   120079865.8134   93568630.1094   22850408.139
  22850410.481          46.000          34.500
  23962984.568                   125926349.7434   98124431.1834   23962984.191
  23962983.384          43.250          27.250
  20387666.908    20387664.944   107138111.1924   83484121.4564   20387666.621
  20387665.196          52.000          45.750
  21083360.469    21083361.877   110793855.7204   86332884.1084   21083360.048
  21083361.658          52.500          46.250
  24953046.293    24953048.328   131129184.4704  102178574.6134   24953045.671
  24953049.327          35.000          17.000
  21247412.464                   111656049.0624   87004640.3444   21247411.828
  21247410.106          49.500          42.000
  24159761.190                   126960407.9074   98930194.3114   24159761.183
  24159760.739          39.000          21.000
  25167721.340    25167722.006   132257267.5054  103057620.5764   25167720.618
  25167720.912          38.500          21.000
  21540220.402                   113194662.5194   88203630.3214   21540220.254
  21540219.731          48.500          39.250
  23242598.133    23242599.003   122140735.7474   95174613.5844   23242598.220
  23242598.856          46.250          35.250
  22569798.732                   118605122.2394   92419581.9324   22569797.468
  22569795.648          44.500          34.750
  20838335.080    20838336.272   109506228.8154   85329530.1954   20838334.766
  20838335.960          51.250          45.250
 19  1 25  0 46 30.0000000  0 12G01G04G07G08G09G11G13G17G18G27G28G30
  22830667.995    22830669.962   119976130.4804   93487797.4124   22830667.183
  22830669.951          45.000          34.000
  23981331.188                   126022761.6874   98199557.3534   23981331.524
  23981331.331          43.750          29.000
  20392674.845    20392673.067   107164428.0694   83504628.1004   20392674.442
  20392673.028          52.250          45.750
  21094791.954    21094792.976   110853926.5984   86379692.5884   21094791.030
  21094792.646          53.000          46.250
  24972449.599    24972450.934   131231146.5114  102258025.5264   24972448.952
  24972450.687          35.500          15.750
  21234589.958                   111588668.2024   86952135.7924   21234589.180
  21234587.896          49.250          41.750
  24150350.399                   126910949.7784   98891655.5334   24150350.319
  24150349.049          39.500          22.500
  25148550.747    25148549.876   132156520.0384  102979116.1314   25148550.226
  25148549.107          40.000          23.500
  21528278.125                   113131908.1894   88154730.8844   21528277.963
  21528277.398          47.000          39.250
  23261691.258    23261691.912   122241069.2814   95252795.5664   23261691.181
  23261691.922          46.500          35.000
  22557508.186                   118540537.2554   92369255.9974   22557507.240
  22557506.141          43.500          34.500
  20830704.002    20830705.266   109466126.4654   85298281.6144   20830703.364
  20830704.845          51.500          45.250
 19  1 25  0 47  0.0000000  0 12G01G04G07G08G09G11G13G17G18G27G28G30
  22810977.554    22810979.336   119872658.4894   93407169.8834   22810977.620
  22810979.478          46.000          33.750
  23999701.398                   126119299.0884   98274781.2814   23999700.119
  23999700.155          42.250          26.750
  20397789.520    20397787.846   107191307.8094   83525573.3604   20397789.371
  20397787.888          52.000          45.500
  21106290.665    21106292.131   110914354.5024   86426779.2654   21106290.107
  21106291.695          52.250          46.000
  24991838.733    24991842.233   131333042.5104  102337425.0154   24991838.153
  24991841.803          32.750          11.250
  21221860.364                   111521773.9904   86900010.4464   21221860.010
  21221858.652          49.750          42.250
  24141040.498                   126862024.2174   98853531.7074   24141040.330
  24141040.297          41.250          23.250
  25129398.093    25129397.595   132055878.6544  102900694.3054   25129397.734
  25129398.863          38.750          22.250
  21516440.711                   113069699.9264   88106256.9254   21516440.324
  21516440.021          47.500          39.500
  23280809.699    23280811.095   122341538.3364   95331083.1234   23280809.591
  23280810.912          46.000          35.250
  22545240.863                   118476071.7984   92319023.1994   22545239.239
  22545238.903          44.250          34.250
  20823169.010    20823169.639   109426528.9564   85267426.4114   20823168.490
  20823169.689          52.250          45.250
 19  1 25  0 47 30.0000000  0 11G01G04G07G08G11G13G17G18G27G28G30
  22791338.600    22791340.117   119769453.0434   93326750.0714   22791337.907
  22791340.255          45.750          34.750
  24018093.472                   126215958.8734   98350100.5644   24018092.200
  24018095.684          40.250          25.250
  20403011.886    20403010.233   107218750.0354   83546956.9004   20403011.481
  20403010.216          52.000          45.500
  21117857.221    21117858.822   110975136.9464   86474142.2124   21117856.641
  21117858.153          52.500          46.000
  21209224.331                   111455368.7084   86848266.0894   21209223.421
  21209221.804          51.000          42.250
  24131831.667                   126813632.4604   98815823.8664   24131830.674
  24131829.734          40.250          20.250
  25110266.069    25110266.447   131955344.7614  102822356.2354   25110265.765
  25110266.931          37.250          21.250
  21504706.751                   113008040.0814   88058210.3274   21504706.521
  21504706.741          47.000          39.500
  23299953.825    23299954.840   122442140.7684   95409474.6254   23299953.706
  23299954.703          46.250          34.750
  22532996.228                   118411725.9594   92268883.5884   22532995.292
  22532993.827          44.500          34.250
  20815730.674    20815731.447   109387438.0534   85236965.9694   20815729.895
  20815730.958          52.750          45.500
 19  1 25  0 48  0.0000000  0 11G01G04G07G08G11G13G17G18G27G28G30
  22771749.554    22771752.305   119666517.4904   93246540.5724   22771749.825
  22771752.842          45.750          34.750
  24036509.723                   126312737.9584   98425512.7364   24036509.532
  24036512.983          40.250          26.250
  20408340.789    20408339.385   107246754.4294   83568778.4944   20408340.681
  20408339.098          51.750          45.500
  21129490.684    21129492.342   111036272.3414   86521780.1804   21129490.126
  21129491.919          52.000          46.000
  21196681.093                   111389454.7424   86796904.5624   21196680.605
  21196678.964          50.500          42.250
  24122725.698                   126765776.5614   98778533.5164   24122726.194
  24122724.045          42.500          22.500
  25091158.253    25091155.494   131854919.9524  102744103.1694   25091157.714
  25091155.758          39.000          20.250
  21493078.424                   112946931.0934   88010592.9574   21493077.894
  21493077.701          47.250          39.750
  23319123.086    23319123.526   122542874.4744   95487968.4194   23319122.637
  23319122.971          45.750          34.500
  22520774.626                   118347500.3894   92218837.6984   22520773.652
  22520771.710          45.750          34.500
  20808388.276    20808389.012   109348855.5134   85206901.6444   20808387.811
  20808388.769          51.750          45.500
 19  1 25  0 48 30.0000000  0 11G01G04G07G08G11G13G17G18G27G28G30
  22752214.073    22752216.906   119563855.0964   93166543.9294   22752214.501
  22752216.327          45.750          34.500
  24054950.089                   126409633.2254   98501015.5264   24054949.474
  24054948.598          42.000          25.500
  20413776.803    20413774.899   107275321.0124   83591038.1654   20413776.587
  20413775.075          51.750          45.250
  21141191.294    21141192.635   111097758.4284   86569691.4244   21141190.599
  21141192.283          51.750          46.000
  21184231.905                   111324033.7184   86745927.1454   21184231.258
  21184229.491          50.750          42.250
  24113721.203                   126718458.1274   98741662.0044   24113720.229
  24113718.029          42.500          23.500
  25072066.959    25072065.623   131754605.1524  102665935.8934   25072067.874
  25072068.071          37.500          17.750
  21481554.797                   112886375.6064   87963406.8824   21481554.551
  21481554.363          47.250          39.500
  23338317.359    23338316.204   122643737.4284   95566562.9224   23338316.468
  23338316.291          47.000          34.250
  22508575.583                   118283395.1894   92168885.6194   22508575.054
  22508573.484          46.000          34.750
  20801143.387    20801144.505   109310783.0734   85177234.8074   20801142.945
  20801143.931          52.250          45.500
 19  1 25  0 49  0.0000000  0 11G01G04G07G08G11G13G17G18G27G28G30
  22732730.882    22732733.150   119461469.1594   93086762.7034   22732730.838
  22732733.438          46.750          35.250
  24073409.976                   126506641.5924   98576606.4604   24073409.747
  24073410.104          42.500          26.250
  20419319.904    20419318.119   107304449.5164   83613735.6914   20419319.639
  20419318.219          51.000          45.250
  21152957.825    21152959.656   111159592.7974   86617874.0564   21152957.323
  21152959.066          51.750          46.000
  21171876.507                   111259107.9264   86695335.6564   21171876.246
  21171874.666          49.750          42.250
  24104819.722                   126671678.3964   98705210.2654   24104819.668
  24104816.968          43.250          24.000
  25052999.511    25052999.019   131654402.1184  102587855.5754   25053000.198
  25052999.758          39.750          18.500
  21470137.712                   112826376.2484   87916654.1584   21470137.280
  21470137.351          47.500          39.750
  23357535.265    23357535.215   122744727.4264   95645256.4404   23357534.334
  23357534.978          47.000          35.500
  22496399.825                   118219410.6294   92119027.5134   22496399.106
  22496397.617          46.000          34.750
  20793995.862    20793996.537   109273222.4914   85147966.8184   20793995.175
  20793996.229          52.000          45.250
 19  1 25  0 49 30.0000000  0 11G01G04G07G08G11G13G17G18G27G28G30
  22713300.845    22713302.487   119359362.8994   93007199.3964   22713300.433
  22713302.719          46.500          35.000
  24091891.769                   126603759.9764   98652283.0984   24091891.065
  24091891.720          42.750          26.250
  20424969.679    20424968.050   107334139.5334   83636870.7634   20424969.483
  20424968.315          51.500          45.250
  21164790.346    21164792.030   111221773.5664   86666326.6084   21164789.919
  21164791.606          51.750          45.750
  21159616.687                   111194679.2084   86645131.4734   21159615.735
  21159614.406          50.250          42.500
  24096020.348                   126625438.7364   98669179.3274   24096020.756
  24096017.452          43.750          24.750
  25033953.124    25033952.245   131554311.6784  102509863.0584   25033953.659
  25033953.101          40.750          20.500
  21458825.989                   112766935.0994   87870336.3944   21458825.905
  21458825.621          47.250          39.750
  23376775.300    23376776.806   122845842.3784   95724047.3064   23376775.744
  23376776.580          45.750          35.000
  22484246.963                   118155547.4644   92069264.0254   22484246.568
  22484245.128          45.750          34.750
  20786946.338    20786946.567   109236175.4394   85119098.9884   20786945.396
  20786946.678          51.750          45.250
 19  1 25  0 50  0.0000000  0 11G01G04G07G08G11G13G17G18G27G28G30
  22693924.400    22693926.017   119257539.6624   92927856.6034   22693924.255
  22693926.158          46.500          34.750
  24110392.106                   126700985.4114   98728043.1464   24110391.533
  24110392.795          41.000          24.000
  20430726.101    20430724.622   107364390.6454   83660443.0584   20430726.084
  20430724.622          51.500          45.250
  21176688.782    21176690.185   111284298.7954   86715047.5614   21176688.112
  21176689.674          51.500          45.750
  21147450.825                   111130749.5754   86595316.1814   21147450.398
  21147448.797          50.250          42.500
  24087324.170                   126579740.8844   98633570.6084   24087323.108
  24087321.935          43.000          24.000
  25014928.197    25014927.408   131454335.0964  102431959.2514   25014928.661
  25014927.560          39.250          20.000
  21447621.663                   112708054.9414   87824455.7734   21447621.619
  21447621.087          47.250          40.500
  23396041.345    23396041.990   122947080.2564   95802933.9474   23396040.766
  23396041.625          47.000          35.500
  22472116.911                   118091805.9314   92019595.3194   22472116.079
  22472115.730          45.750          34.000
  20779994.192    20779995.181   109199643.6394   85090632.6554   20779993.475
  20779994.706          51.750          45.250
 19  1 25  0 50 30.0000000  0 11G01G04G07G08G11G13G17G18G27G28G30
  22674601.821    22674604.565   119156002.7214   92848736.9034   22674602.602
  22674604.939          46.500          35.000
  24128912.395                   126798314.7174   98803884.1794   24128912.825
  24128911.991          39.500          22.750
  20436589.467    20436587.916   107395202.6504   83684452.4074   20436589.355
  20436587.819          51.500          45.500
  21188651.800    21188653.183   111347166.0854   86764035.0684   21188651.176
  21188653.038          51.250          45.750
  21135380.701                   111067321.1604   86545891.4554   21135380.409
  21135378.977          49.750          42.500
  24078731.836                   126534586.4014   98598385.2924   24078730.956
  24078730.228          42.250          24.000
  24995925.344    24995925.584   131354474.2594  102354145.6524   24995924.944
  24995925.027          41.000          22.000
  21436524.495                   112649738.2404   87779014.2084   21436524.126
  21436524.160          47.750          40.250
  23415329.042    23415329.479   123048438.9644   95881914.7554   23415328.929
  23415329.015          46.500          35.000
  22460010.490                   118028186.0884   91970021.4314   22460009.591
  22460008.802          45.500          34.250
  20773140.647    20773141.727   109163628.7634   85062569.1174   20773140.067
  20773141.288          51.250          45.250
 19  1 25  0 51  0.0000000  0 11G01G04G07G08G11G13G17G18G27G28G30
  22655334.224    22655337.788   119054755.4074   92769842.9324   22655334.604
  22655337.611          45.750          34.250
  24147454.101                   126895744.9064   98879803.7804   24147453.688
  24147454.898          41.250          25.250
  20442559.738    20442558.028   107426575.2004   83708898.5404   20442559.415
  20442558.053          51.750          45.500
  21200679.673    21200681.498   111410373.6184   86813287.6994   21200679.241
  21200681.110          51.000          45.500
  21123406.619                   111004396.0604   86496858.9344   21123406.265
  21123404.430          50.500          42.500
  24070242.575                   126489976.4794   98563624.3154   24070242.608
  24070239.209          42.000          22.750
  24976944.691    24976943.928   131254730.2264  102276423.0874   24976944.255
  24976943.241          42.000          22.500
  21425534.549                   112591987.3634   87734013.5414   21425534.389
  21425534.463          47.750          40.500
  23434639.180    23434639.742   123149916.4724   95960988.1454   23434638.788
  23434640.083          45.750          34.250
  22447927.105                   117964688.5664   91920542.8594   22447926.913
  22447925.814          46.000          34.750
  20766385.766    20766386.901   109128132.4904   85034909.6854   20766385.401
  20766386.662          51.250          45.250
 19  1 25  0 51 30.0000000  0 11G01G04G07G08G11G13G17G18G27G28G30
  22636124.129    22636126.631   118953800.8244   92691177.0224   22636124.789
  22636126.430          46.500          35.500
  24166012.561                   126993272.8474   98955799.5014   24166012.115
  24166012.518          40.500          25.750
  20448636.467    20448634.450   107458507.9744   83733781.2214   20448635.988
  20448634.505          52.000          45.250
  21212772.038    21212773.933   111473918.9994   86862803.5824   21212771.580
  21212773.414          50.750          45.500
  21111528.553                   110941976.0234   86448219.9504   21111528.065
  21111526.276          50.500          42.500
  24061857.293                   126445912.7514   98529288.9244   24061856.949
  24061853.900          42.250          22.250
  24957987.638    24957988.126   131155104.0844  102198792.3614   24957986.439
  24957987.335          43.500          22.750
  21414653.184                   112534804.7754   87689455.6984   21414652.876
  21414652.995          47.000          40.250
  23453972.222    23453973.674   123251510.7264   96040152.4574   23453971.732
  23453972.947          45.250          34.500
  22435867.604                   117901313.6944   91871159.8354   22435867.082
  22435865.257          45.250          35.000
  20759729.975    20759731.056   109093156.4674   85007655.6394   20759729.555
  20759730.815          50.750          45.250
 19  1 25  0 52  0.0000000  0 11G01G04G07G08G11G13G17G18G27G28G30
  22616969.709    22616972.314   118853142.3354   92612741.8714   22616969.202
  22616972.579          46.750          35.500
  24184588.721                   127090895.4724   99031869.0874   24184589.169
  24184589.284          40.250          26.250
  20454819.445    20454817.728   107491000.4194   83759100.0054   20454819.193
  20454817.681          51.500          45.250
  21224928.268    21224929.885   111537800.4384   86912581.3334   21224927.666
  21224929.584          51.000          45.750
  21099746.987                   110880063.2434   86399976.2464   21099746.341
  21099744.850          50.250          42.500
  24053575.743                   126402396.4654   98495380.1414   24053576.049
  24053574.069          41.750          23.000
  24939051.334    24939050.329   131055597.1854  102121254.5254   24939050.835
  24939050.659          44.000          23.500
  21403880.627                   112478192.6894   87645342.4084   21403880.050
  21403879.778          47.750          40.000
  23473326.963    23473327.760   123353219.6464   96119406.1764   23473326.851
  23473327.265          45.750          34.250
  22423831.234                   117838061.6264   91821872.5164   22423829.514
  22423828.894          45.500          34.750
  20753173.977    20753175.053   109058702.3404   84980808.2714   20753173.190
  20753174.575          51.000          45.500
 19  1 25  0 52 30.0000000  0 11G01G04G07G08G11G13G17G18G27G28G30
  22597872.129    22597873.703   118752783.2154   92534539.9654   22597872.908
  22597873.778          47.250          35.750
  24203184.183                   127188609.7604   99108010.0784   24203184.541
  24203184.990          41.500          28.500
  20461109.116    20461107.013   107524052.1004   83784854.5554   20461108.640
  20461107.092          51.750          45.500
  21237148.438    21237149.828   111602015.5944   86962619.1184   21237147.805
  21237149.370          51.250          45.750
  21088062.064                   110818659.6074   86352129.2684   21088061.800
  21088060.185          50.500          42.500
  24045398.967                   126359429.0654   98461899.0434   24045398.853
  24045396.407          41.000          22.250
  24920138.420    24920136.016   130956210.9244  102043810.7114   24920137.658
  24920137.187          44.250          24.250
  21393216.897                   112422153.5854   87601675.5974   21393216.236
  21393215.770          48.250          40.250
  23492702.911    23492703.322   123455041.2054   96198747.6794   23492702.288
  23492702.744          45.750          34.000
  22411817.754                   117774932.8434   91772681.2674   22411817.080
  22411816.493          45.250          35.000
  20746717.017    20746717.680   109024771.7344   84954368.8394   20746716.538
  20746717.848          51.250          45.250
 19  1 25  0 53  0.0000000  0 11G01G04G07G08G11G13G17G18G27G28G30
  22578831.466    22578834.161   118652726.7424   92456573.8964   22578831.315
  22578834.644          46.000          35.000
  24221795.555                   127286412.6214   99184220.0384   24221795.147
  24221796.445          40.250          27.500
  20467505.086    20467503.193   107557662.7744   83811044.6864   20467504.657
  20467503.050          52.500          45.500
  21249431.337    21249432.893   111666562.4684   87012915.3884   21249430.548
  21249432.241          51.750          45.750
  21076474.510                   110757767.0544   86304680.5234   21076474.433
  21076472.615          50.250          42.500
  24037327.938                   126317011.9934   98428846.7924   24037327.955
  24037325.920          41.500          24.000
  24901249.538    24901247.932   130856946.5364  101966461.8434   24901249.698
  24901248.825          45.500          25.000
  21382662.343                   112366689.7004   87558456.9824   21382661.619
  21382661.475          47.750          40.500
  23512100.369    23512099.673   123556973.3994   96278175.3334   23512098.873
  23512099.637          46.000          33.000
  22399828.648                   117711927.7954   91723586.4614   22399828.387
  22399826.506          46.500          35.750
  20740360.403    20740361.203   108991366.2634   84928338.5984   20740359.546
  20740361.039          51.000          45.500
 19  1 25  0 53 30.0000000  0 11G01G04G07G08G11G13G17G18G27G28G30
  22559850.609    22559851.730   118552976.1764   92378846.2214   22559850.169
  22559852.247          46.750          35.500
  24240423.098                   127384301.0994   99260496.7514   24240422.649
  24240423.496          41.000          27.750
  20474007.165    20474005.147   107591831.6354   83837669.7724   20474006.816
  20474005.136          51.750          45.250
  21261776.602    21261778.211   111731438.8904   87063468.4544   21261776.119
  21261777.576          50.750          45.500
  21064985.124                   110697387.4844   86257631.5134   21064984.166
  21064982.386          48.750          42.500
  24029360.649                   126275146.6174   98396224.4224   24029361.607
  24029358.622          42.000          24.000
  24882383.660    24882382.915   130757805.2484  101889208.8994   24882382.893
  24882382.507          45.000          26.000
  21372217.509                   112311803.5984   87515688.6104   21372217.033
  21372217.019          48.000          40.500
  23531517.201    23531517.964   123659014.1864   96357687.6344   23531516.659
  23531517.537          45.750          33.250
  22387863.352                   117649046.8194   91674588.2884   22387862.532
  22387861.162          44.250          36.000
  20734103.620    20734104.633   108958487.5244   84902718.7964   20734103.021
  20734104.406          51.000          45.500
 19  1 25  0 54  0.0000000  0 11G01G04G07G08G11G13G17G18G27G28G30
  22540927.131    22540928.526   118453534.6954   92301359.3804   22540926.436
  22540928.477          46.500          35.500
  24259066.232                   127482272.0654   99336837.7754   24259065.804
  24259066.306          39.500          28.250
  20480615.094    20480613.686   107626558.5804   83864729.7224   20480614.949
  20480613.406          52.000          45.250
  21274184.573    21274186.234   111796642.7854   87114276.6834   21274183.964
  21274185.553          51.000          45.500
  21053592.984                   110637522.8444   86210983.7514   21053592.439
  21053590.711          50.000          42.750
  24021500.263                   126233834.3924   98364033.0864   24021500.108
  24021497.307          41.500          24.000
  24863540.290    24863540.070   130658788.6114  101812053.0964   24863540.672
  24863540.286          43.250          26.500
  21361883.607                   112257497.3804   87473372.0974   21361883.020
  21361882.853          47.750          40.500
  23550956.039    23550956.365   123761161.5524   96437282.9464   23550955.768
  23550955.709          46.750          33.750
  22375920.855                   117586290.1714   91625687.0204   22375919.940
  22375918.310          45.750          35.500
  20727947.386    20727948.571   108926137.0964   84877510.6714   20727947.034
  20727948.282          51.500          45.500
 19  1 25  0 54 30.0000000  0 11G01G04G07G08G11G13G17G18G27G28G30
  22522063.493    22522065.507   118354405.6184   92224115.9644   22522063.299
  22522065.942          45.750          36.000
  24277724.773                   127580322.5084   99413240.6544   24277724.569
  24277725.072          39.000          28.000
  20487329.671    20487328.135   107661842.9504   83892224.0254   20487329.390
  20487327.845          51.750          45.250
  21286654.346    21286655.868   111862172.3304   87165338.6644   21286653.784
  21286655.479          51.250          45.750
  21042299.514                   110578174.8384   86164738.5684   21042298.762
  21042297.215          49.500          42.500
  24013744.040                   126193076.5574   98332273.7354   24013743.613
  24013742.229          41.250          23.000
  24844723.533    24844722.421   130559897.6104  101734995.1874   24844722.225
  24844721.945          43.000          27.250
  21351660.168                   112203773.2994   87431509.1854   21351659.655
  21351658.955          47.500          40.500
  23570413.553    23570413.830   123863413.5554   96516959.8484   23570413.065
  23570413.787          46.000          33.750
  22364002.489                   117523658.3654   91576882.9984   22364001.657
  22363999.466          45.750          35.500
  20721892.231    20721893.278   108894316.5604   84852715.4514   20721891.754
  20721892.920          50.750          45.250
 19  1 25  0 55  0.0000000  0 11G01G04G07G08G11G13G17G18G27G28G30
  22503259.565    22503262.316   118255592.1824   92147118.5084   22503259.720
  22503262.734          45.500          35.750
  24296397.731                   127678449.3394   99489703.1054   24296397.803
  24296397.593          38.750          27.000
  20494149.899    20494148.362   107697684.2854   83920152.3354   20494149.701
  20494148.231          52.250          45.250
  21299185.824    21299186.899   111928025.1844   87216652.5784   21299185.347
  21299186.791          51.250          45.250
  21031104.742                   110519345.4214   86118897.4764   21031103.924
  21031102.313          50.250          42.500
  24006094.269                   126152874.2324   98300947.2364   24006093.206
  24006091.372          41.750          23.750
  24825928.663    24825927.605   130461133.1704  101658035.8784   24825928.893
  24825928.181          42.250          26.000
  21341548.084                   112150633.8374   87390101.8244   21341547.911
  21341547.590          48.000          40.750
  23589890.952    23589891.031   123965768.1634   96596716.7014   23589890.517
  23589890.771          45.500          33.250
  22352107.747                   117461151.6304   91528176.4644   22352106.927
  22352105.243          45.500          35.750
  20715938.104    20715938.853   108863027.4314   84828334.3084   20715937.628
  20715938.812          51.500          45.500
 19  1 25  0 55 30.0000000  0 11G01G04G07G08G11G13G17G18G27G28G30
  22484517.065    22484518.811   118157097.6274   92070369.5134   22484516.813
  22484519.410          46.500          36.000
  24315085.280                   127776649.5814   99566222.7494   24315085.488
  24315085.332          37.250          26.250
  20501076.478    20501074.455   107734081.9934   83948514.1724   20501075.892
  20501074.587          51.250          45.250
  21311778.422    21311779.879   111994199.3614   87268216.8784   21311777.715
  21311779.086          51.000          45.500
  21020008.777                   110461036.5904   86073462.0294   21020008.310
  21020006.648          50.250          42.500
  23998549.690                   126113228.6554   98270054.5744   23998550.075
  23998548.776          41.750          24.000
  24807158.569    24807158.175   130362496.9174  101581176.5464   24807158.607
  24807158.516          41.500          25.750
  21331547.767                   112098080.8804   87349151.4854   21331547.293
  21331546.728          47.750          40.500
  23609387.419    23609388.356   124068223.3954   96676551.9444   23609386.834
  23609388.006          45.750          34.000
  22340237.414                   117398770.4184   91479567.7414   22340236.284
  22340235.166          46.500          35.750
  20710085.544    20710086.474   108832271.2794   84804368.4784   20710084.890
  20710085.990          51.000          45.500
 19  1 25  0 56  0.0000000  0 11G01G04G07G08G11G13G17G18G27G28G30
  22465835.068    22465837.551   118058925.1584   91993871.5024   22465835.418
  22465837.718          46.750          36.500
  24333785.410                   127874920.2094   99642797.2164   24333784.462
  24333784.661          36.000          24.750
  20508108.381    20508106.372   107771035.2534   83977308.9124   20508107.932
  20508106.519          52.500          45.000
  21324431.516    21324432.953   112060692.6014   87320029.8034   21324431.076
  21324432.292          51.750          45.500
  21009012.535                   110403249.8944   86028433.4334   21009011.926
  21009010.082          50.750          43.000
  23991111.839                   126074141.4054   98239596.9964   23991111.655
  23991110.211          41.750          24.500
  24788412.504    24788411.840   130263990.2814  101504418.1394   24788412.247
  24788412.071          41.750          27.000
  21321658.998                   112046116.9524   87308660.1254   21321658.354
  21321658.657          48.250          40.500
  23628902.925    23628902.840   124170777.2654   96756464.0414   23628902.168
  23628902.785          45.500          33.250
  22328389.770                   117336515.2124   91431057.2024   22328389.261
  22328387.637          47.000          35.750
  20704334.706    20704335.166   108802049.5884   84780819.1094   20704333.936
  20704335.030          51.750          45.750
 19  1 25  0 56 30.0000000  0 11G01G04G07G08G11G13G17G18G27G28G30
  22447215.785    22447217.793   117961078.0994   91917627.0814   22447216.238
  22447217.870          47.500          36.500
  24352497.057                   127973258.1874   99719424.2034   24352498.088
  24352496.833          35.500          22.250
  20515246.007    20515244.277   107808543.8704   84006536.3964   20515245.798
  20515244.287          51.750          45.250
  21337145.137    21337146.344   112127503.0194   87372089.8644   21337144.594
  21337146.100          50.750          45.250
  20998115.544                   110345987.2894   85983813.2314   20998114.973
  20998113.460          50.750          42.500
  23983780.636                   126035613.4764   98209575.1884   23983780.678
  23983777.770          43.750          26.250
  24769692.347    24769692.617   130165614.5884  101427761.8254   24769692.360
  24769692.723          41.000          25.250
  21311883.047                   111994744.0224   87268629.2784   21311882.831
  21311882.492          48.500          40.750
  23648437.065    23648437.282   124273427.8324   96836451.4984   23648436.621
  23648437.073          45.750          33.500
  22316567.995                   117274386.3474   91382645.0984   22316566.965
  22316564.908          47.750          36.250
  20698685.219    20698686.242   108772363.8974   84757687.4044   20698685.047
  20698686.204          51.500          45.500
 19  1 25  0 57  0.0000000  0 11G01G04G07G08G11G13G17G18G27G28G30
  22428658.751    22428660.365   117863559.6044   91841638.6394   22428658.063
  22428660.812          47.250          36.750
  24371222.700                   128071660.5484   99796101.3484   24371222.710
  24371224.185          33.250          20.000
  20522489.341    20522487.680   107846606.9344   84036195.9144   20522488.978
  20522487.317          52.500          45.250
  21349918.637    21349920.137   112194628.3694   87424395.3334   21349918.166
  21349919.658          51.250          45.000
  20987319.056                   110289250.7364   85939602.9454   20987318.460
  20987316.522          50.250          43.000
  23976555.229                   125997646.0544   98179990.2274   23976554.807
  23976553.618          42.500          25.750
  24750998.539    24750995.994   130067370.7374  101351208.1884   24750997.826
  24750996.511          43.000          25.250
  21302219.840                   111943964.4794   87229060.8244   21302219.668
  21302219.447          48.750          40.750
  23667988.160    23667989.402   124376173.1664   96916512.8104   23667987.722
  23667988.759          45.000          33.750
  22304768.890                   117212384.2534   91334331.7834   22304768.427
  22304765.726          47.250          36.000
  20693138.872    20693139.573   108743215.6614   84734974.4924   20693138.353
  20693139.307          51.500          45.500
 19  1 25  0 57 30.0000000  0 11G01G04G07G08G11G13G17G18G27G28G30
  22410164.425    22410166.444   117766372.9214   91765908.7874   22410164.761
  22410166.595          47.250          36.500
  24389960.932                   128170124.1234   99872826.1884   24389959.757
  24389960.870          35.750          21.500
  20529837.731    20529836.052   107885223.9824   84066287.1174   20529837.538
  20529835.817          52.250          45.000
  21362751.555    21362753.261   112262066.5644   87476944.5734   21362751.139
  21362752.535          50.750          45.000
  20976623.022                   110233041.8054   85895803.7774   20976622.387
  20976620.384          50.750          43.000
  23969437.975                   125960240.1744   98150842.7804   23969435.885
  23969435.093          43.500          25.500
  24732327.457    24732326.642   129969260.0084  101274758.2854   24732327.831
  24732326.674          42.000          24.000
  21292670.661                   111893780.3174   87189956.2814   21292669.703
  21292669.654          48.750          40.500
  23687557.003    23687558.125   124479011.2684   96996646.3904   23687557.185
  23687558.162          43.750          32.500
  22292994.502                   117150509.4124   91286117.6374   22292993.583
  22292992.030          47.250          36.250
  20687694.513    20687695.068   108714606.3634   84712681.5304   20687694.055
  20687695.033          51.750          45.750
 19  1 25  0 58  0.0000000  0 11G01G04G07G08G11G13G17G18G27G28G30
  22391734.493    22391736.433   117669521.2634   91690439.9754   22391734.357
  22391736.450          47.750          36.750
  24408708.436                   128268646.0244   99949596.4264   24408708.727
  24408708.787          36.000          22.250
  20537291.535    20537289.828   107924394.1944   84096809.3534   20537291.213
  20537289.857          50.750          45.000
  21375643.507    21375645.574   112329815.4414   87529735.9044   21375643.107
  21375644.832          49.250          45.250
  20966027.431                   110177362.4054   85852417.2324   20966026.824
  20966025.111          50.500          43.000
  23962424.791                   125923397.2474   98122133.9824   23962424.690
  23962423.155          41.500          23.750
  24713683.333    24713683.207   129871283.4704  101198412.9494   24713683.235
  24713683.226          42.500          25.000
  21283234.161                   111844193.6844   87151317.3484   21283234.160
  21283233.198          49.250          40.750
  23707143.950    23707144.372   124581940.2224   97076850.7434   23707144.152
  23707144.781          43.000          33.000
  22281243.991                   117088762.0834   91238002.8364   22281243.359
  22281242.750          47.750          36.000
  20682353.229    20682354.015   108686537.4634   84690809.6574   20682352.718
  20682353.869          51.750          45.750
 19  1 25  0 58 30.0000000  0 11G01G04G07G08G11G13G17G18G27G28G30
  22373368.129    22373370.779   117573007.8914   91615234.7894   22373368.234
  22373370.331          47.000          36.750
  24427467.077                   128367223.1654  100026409.8214   24427466.582
  24427466.249          36.500          23.500
  20544850.544    20544849.046   107964117.0554   84127762.2194   20544850.263
  20544848.887          51.750          45.250
  21388594.595    21388596.293   112397873.1614   87582767.8934   21388594.207
  21388596.016          50.750          45.000
  20955532.633                   110122214.2404   85809444.6344   20955532.497
  20955530.737          50.000          42.750
  23955521.759                   125887118.5684   98093864.8704   23955522.329
  23955519.424          41.750          23.750
  24695065.437    24695062.272   129773442.4994  101122173.3054   24695066.067
  24695063.329          44.750          26.000
  21273912.507                   111795206.6414   87113145.6424   21273911.986
  21273911.466          48.750          40.750
  23726748.168    23726749.073   124684958.0644   97157124.3924   23726747.407
  23726749.088          43.000          33.000
  22269518.150                   117027142.7544   91189987.7984   22269517.190
  22269516.654          47.500          36.000
  20677115.006    20677115.969   108659010.3674   84669359.9714   20677114.376
  20677115.645          51.250          45.500
 19  1 25  0 59  0.0000000  0 11G01G04G07G08G11G13G17G18G27G28G30
  22355067.566    22355069.163   117476835.9654   91540295.6384   22355067.112
  22355069.433          47.500          36.750
  24446235.772                   128465852.6434  100103263.9044   24446235.831
  24446235.003          37.750          24.250
  20552515.002    20552512.822   108004391.8484   84159145.1714   20552514.426
  20552512.833          52.750          44.750
  21401603.644    21401606.009   112466237.6094   87636038.8984   21401603.319
  21401605.189          50.500          44.750
  20945139.835                   110067599.4144   85766887.6374   20945139.688
  20945137.885          49.750          43.000
  23948726.074                   125851405.0274   98066036.0954   23948726.202
  23948724.895          42.250          24.750
  24676473.042    24676472.982   129675738.4904  101046040.3234   24676473.208
  24676471.390          45.250          26.250
  21264704.831                   111746821.4144   87075442.8914   21264704.493
  21264704.230          48.500          41.000
  23746368.514    23746368.764   124788062.9774   97237465.8974   23746368.352
  23746368.408          42.250          32.250
  22257817.097                   116965651.6954   91142072.6904   22257816.041
  22257814.557          47.750          36.000
  20671980.354    20671980.644   108632026.5234   84648333.6024   20671979.661
  20671980.777          52.250          45.750
 19  1 25  0 59 30.0000000  0 11G01G04G07G08G11G13G17G18G27G28G30
  22336832.021    22336833.981   117381008.6774   91465625.0374   22336831.522
  22336834.920          47.000          36.750
  24465012.981                   128564531.3414  100180156.3744   24465012.849
  24465014.352          38.250          25.750
  20560283.407    20560281.950   108045217.7964   84190957.5884   20560283.164
  20560281.890          52.750          44.750
  21414671.351    21414673.070   112534906.4214   87689547.0574   21414670.830
  21414672.642          51.000          44.750
  20934848.654                   110013518.9384   85724747.0114   20934848.446
  20934846.814          49.250          43.000
  23942037.801                   125816257.4234   98038648.3564   23942037.991
  23942034.886          41.500          24.000
  24657906.210    24657905.893   129578172.7804  100970015.1494   24657905.650
  24657903.822          44.000          25.750
  21255612.786                   111699040.0054   87038210.6304   21255612.222
  21255611.774          50.250          41.250
  23766005.257    23766006.119   124891252.9524   97317873.6534   23766004.162
  23766005.489          42.500          33.000
  22246140.551                   116904289.5254   91094258.0134   22246139.567
  22246138.077          48.250          36.250
  20666948.943    20666949.706   108605587.3504   84627731.6494   20666948.460
  20666949.752          51.500          45.750
 19  1 25  1  0  0.0000000  0 11G01G04G07G08G11G13G17G18G27G28G30
  22318662.819    22318665.306   117285529.3044   91391225.5474   22318663.044
  22318664.929          47.000          37.000
  24483801.832                   128663256.3614  100257084.9634   24483801.285
  24483801.264          39.750          26.250
  20568156.992    20568155.828   108086594.0204   84223198.7974   20568156.592
  20568155.538          51.750          44.750
  21427796.007    21427797.886   112603877.9294   87743291.1024   21427795.484
  21427797.186          50.750          44.500
  20924659.501                   109959974.5124   85683024.0984   20924659.140
  20924657.595          49.000          43.000
  23935458.071                   125781677.1504   98011702.6574   23935457.989
  23935455.927          42.000          25.000
  24639366.956    24639365.502   129480746.1364  100894098.3164   24639366.764
  24639365.631          44.250          27.000
  21246635.212                   111651864.3154   87001450.3834   21246634.639
  21246634.332          49.750          41.000
  23785657.549    23785657.992   124994526.1014   97398346.2154   23785657.007
  23785657.897          42.500          33.250
  22234487.992                   116843056.5604   91046544.0134   22234487.233
  22234485.927          48.250          36.500
  20662021.695    20662022.754   108579694.1964   84607555.1624   20662021.222
  20662022.324          52.250          46.000
 19  1 25  1  0 30.0000000  0 11G01G04G07G08G11G13G17G18G27G28G30
  22300560.442    22300562.500   117190400.9734   91317099.5944   22300559.840
  22300562.366          46.750          37.000
  24502594.735                   128762024.6414  100334047.2014   24502595.223
  24502595.189          38.750          25.750
  20576135.049    20576133.619   108128519.6074   84255868.0804   20576134.942
  20576133.685          52.500          44.750
  21440977.842    21440979.408   112673149.9144   87797269.2784   21440977.493
  21440979.205          50.750          44.750
  20914572.981                   109906968.4714   85641720.6944   20914572.366
  20914570.824          49.500          43.000
  23928985.791                   125747665.4274   97985200.0064   23928985.057
  23928983.535          41.500          25.000
  24620853.046    24620853.029   129383459.8264  100818290.8244   24620854.190
  24620852.763          43.250          27.250
  21237773.480                   111605296.4294   86965163.7254   21237773.293
  21237772.863          49.500          41.250
  23805324.976    23805326.385   125097880.6444   97478882.2554   23805324.343
  23805326.461          41.250          33.000
  22222860.297                   116781953.2534   90998931.0574   22222859.374
  22222857.817          47.750          36.750
  20657198.595    20657199.610   108554348.4534   84587805.2264   20657198.208
  20657199.128          52.250          45.750
 19  1 25  1  1  0.0000000  0 11G01G04G07G08G11G13G17G18G27G28G30
  22282525.510    22282527.630   117095626.9454   91243249.7564   22282525.423
  22282527.733          47.500          37.500
  24521398.029                   128860833.2574  100411040.9054   24521397.598
  24521398.002          38.750          27.000
  20584218.063    20584216.280   108170994.3224   84288965.2604   20584217.643
  20584216.154          53.000          44.750
  21454216.799    21454218.619   112742720.0604   87851479.7874   21454216.175
  21454218.097          51.250          44.750
  20904589.245                   109854502.2744   85600837.9594   20904588.564
  20904586.539          49.250          42.750
  23922620.980                   125714222.8554   97959140.8754   23922620.842
  23922619.512          40.750          22.750
  24602367.714    24602367.421   129286315.0694  100742593.6164   24602367.637
  24602366.658          44.750          25.750
  21229028.128                   111559338.4674   86929352.3444   21229027.639
  21229027.385          50.000          41.500
  23825007.494    23825007.587   125201314.5634   97559480.0624   23825006.018
  23825008.543          41.250          32.250
  22211257.302                   116720979.8114   90951419.2814   22211257.068
  22211255.197          48.250          36.500
  20652480.119    20652480.806   108529551.4274   84568482.8744   20652479.373
  20652480.604          51.500          45.750
 19  1 25  1  1 30.0000000  0 11G01G04G07G08G11G13G17G18G27G28G30
  22264558.928    22264560.304   117001210.3644   91169678.4354   22264558.637
  22264560.436          47.750          37.500
  24540207.343                   128959679.2334  100488063.7064   24540207.129
  24540208.735          38.000          25.250
  20592404.801    20592403.345   108214017.0914   84322489.4844   20592404.560
  20592403.522          52.500          45.000
  21467511.646    21467513.648   112812586.5534   87905921.2134   21467511.305
  21467513.358          50.500          44.500
  20894707.893                   109802577.2094   85560376.8654   20894707.442
  20894706.023          49.500          42.500
  23916365.243                   125681350.6674   97933526.1804   23916365.263
  23916363.762          40.000          23.000
  24583909.403    24583908.311   129189313.3654  100667007.9294   24583908.644
  24583908.266          44.000          25.500
  21220399.362                   111513992.2254   86894017.6374   21220398.517
  21220398.142          50.250          41.250
  23844705.218    23844706.095   125304825.9974   97640138.3364   23844704.367
  23844705.123          42.000          33.500
  22199679.212                   116660136.9334   90904009.2594   22199678.665
  22199677.432          48.000          36.750
  20647865.550    20647866.852   108505304.4924   84549589.1614   20647865.148
  20647866.567          51.500          45.750
 19  1 25  1  2  0.0000000  0 11G01G04G07G08G11G13G17G18G27G28G30
  22246660.487    22246662.297   116907154.4034   91096388.1044   22246660.945
  22246662.400          47.750          38.000
  24559023.739                   129058559.5854  100565113.3404   24559024.039
  24559023.311          37.500          24.250
  20600695.970    20600694.739   108257586.9184   84356439.9924   20600695.825
  20600694.376          52.750          45.000
  21480863.461    21480864.139   112882747.2084   87960591.8474   21480862.594
  21480864.149          50.500          44.750
  20884930.330                   109751195.1304   85520338.8954   20884930.098
  20884928.157          50.000          43.000
  23910218.344                   125649049.9114   97908356.8004   23910218.452
  23910216.693          40.250          24.250
  24565476.889    24565476.492   129092455.6604  100591534.4034   24565476.716
  24565475.085          42.000          24.500
  21211886.625                   111469259.5714   86859161.0254   21211886.206
  21211885.901          50.000          41.250
  23864416.321    23864418.469   125408413.1334   97720855.5644   23864416.176
  23864416.720          39.750          31.500
  22188126.228                   116599425.0894   90856701.3284   22188125.676
  22188124.149          48.250          36.750
  20643356.381    20643357.871   108481608.9454   84531125.1014   20643355.769
  20643357.435          51.750          45.750
 19  1 25  1  2 30.0000000  0 11G01G04G07G08G11G13G17G18G27G28G30
  22228831.337    22228832.980   116813462.1924   91023381.2274   22228831.421
  22228833.486          47.500          38.250
  24577847.217                   129157471.3274  100642187.3874   24577845.439
  24577847.398          37.000          24.250
  20609090.749    20609089.237   108301703.2734   84390816.3614   20609090.949
  20609089.375          52.750          44.750
  21494269.665    21494271.521   112953199.7524   88015489.9434   21494269.337
  21494271.023          50.750          44.500
  20875256.421                   109700357.3284   85480725.0284   20875255.828
  20875253.946          50.250          43.250
  23904181.201                   125617321.4194   97883633.2624   23904181.232
  23904180.040          40.500          24.250
  24547072.912    24547072.633   128995743.0984  100516173.9904   24547072.493
  24547072.429          41.500          24.000
  21203491.364                   111425142.4304   86824784.0574   21203491.119
  21203490.675          49.750          41.250
  23884143.516    23884145.420   125512074.1084   97801630.3694   23884143.286
  23884142.898          41.500          32.500
  22176598.563                   116538844.6694   90809495.8124   22176597.934
  22176596.211          48.500          37.250
  20638952.728    20638953.873   108458466.1084   84513091.7164   20638951.989
  20638953.315          51.750          45.750
 19  1 25  1  3  0.0000000  0 11G01G04G07G08G11G13G17G18G27G28G30
  22211072.713    22211073.962   116720136.9204   90950660.2454   22211072.237
  22211074.306          48.250          37.750
  24596674.999                   129256411.4924  100719283.5804   24596673.298
  24596676.031          35.250          22.750
  20617590.033    20617588.005   108346365.1744   84425617.8284   20617589.802
  20617588.256          53.250          45.000
  21507731.898    21507732.992   113023942.5514   88070614.1954   21507731.201
  21507732.665          51.000          44.750
  20865686.107                   109650065.7424   85441536.7924   20865685.591
  20865683.763          49.750          43.000
  23898252.386                   125586166.0874   97859356.3974   23898253.048
  23898250.947          40.750          24.500
  24528697.099    24528696.529   128899177.0824  100440927.7624   24528696.855
  24528696.969          42.000          25.250
  21195213.537                   111381642.7684   86790888.2304   21195213.169
  21195213.178          49.750          41.000
  23903883.253    23903883.620   125615807.1364   97882461.3094   23903882.226
  23903883.947          42.000          33.500
  22165095.575                   116478396.0984   90762393.0344   22165094.831
  22165093.044          48.250          37.250
  20634654.236    20634655.112   108435877.2204   84495489.9864   20634653.566
  20634654.954          51.500          45.750
 19  1 25  1  3 30.0000000  0 11G01G04G07G08G11G13G17G18G27G28G30
  22193383.161    22193385.608   116627181.7114   90878227.6144   22193383.104
  22193385.614          47.250          38.000
  24615506.740                   129355377.1794  100796399.6534   24615506.756
  24615507.238          35.250          22.250
  20626192.622    20626190.700   108391571.8164   84460843.7834   20626192.379
  20626190.818          53.000          45.000
  21521248.658    21521249.832   113094973.2634   88125962.8074   21521247.984
  21521249.519          50.750          44.750
  20856220.107                   109600321.8634   85402775.3324   20856219.611
  20856217.833          49.250          43.000
  23892433.619                   125555584.8114   97835526.8464   23892432.954
  23892432.980          41.500          25.750
  24510350.352    24510348.117   128802758.6334  100365796.5704   24510349.643
  24510348.185          43.000          25.750
  21187053.825                   111338762.6474   86757475.1884   21187053.399
  21187053.230          49.500          41.000
  23923636.623    23923635.984   125719610.2604   97963346.8474   23923635.525
  23923635.978          42.250          32.250
  22153617.330                   116418079.6024   90715393.1794   22153616.536
  22153615.244          47.750          37.000
  20630461.231    20630462.449   108413843.5474   84478320.8914   20630460.718
  20630462.042          51.500          45.750
 19  1 25  1  4  0.0000000  0 11G01G04G07G08G11G13G17G18G27G28G30
  22175765.474    22175767.497   116534599.7654   90806085.8614   22175765.505
  22175767.664          47.250          38.250
  24634344.548                   129454365.2934  100873533.1964   24634343.675
  24634343.319          34.500          21.500
  20634898.735    20634896.805   108437322.0014   84496493.2734   20634898.287
  20634896.894          53.500          44.750
  21534820.054    21534821.101   113166290.0014   88181534.2914   21534819.383
  21534820.753          51.000          44.500
  20846859.114                   109551127.2784   85364441.8914   20846858.217
  20846856.365          49.250          43.250
  23886724.359                   125525578.3864   97812145.1994   23886722.992
  23886721.115          41.750          25.250
  24492029.953    24492029.411   128706488.9544  100290781.2864   24492030.148
  24492028.594          43.250          27.000
  21179012.364                   111296503.6214   86724546.1004   21179011.639
  21179011.711          50.000          41.250
  23943402.523    23943402.096   125823481.7274   98044285.6484   23943400.973
  23943401.806          41.750          31.500
  22142164.907                   116357895.9674   90668496.8374   22142164.305
  22142162.883          48.250          37.250
  20626374.284    20626375.463   108392366.3554   84461585.4114   20626373.700
  20626375.000          50.750          45.750
 19  1 25  1  4 30.0000000  0 11G01G04G07G08G11G13G17G18G27G28G30
  22158219.034    22158221.487   116442394.2724   90734237.4684   22158219.297
  22158221.744          47.250          38.250
  24653183.482                   129553373.1434  100950682.1294   24653183.214
  24653185.175          34.250          21.000
  20643707.951    20643706.077   108483614.9064   84532565.6614   20643707.734
  20643706.033          53.750          44.750
  21548444.613    21548445.925   113237890.7514   88237327.0874   21548444.327
  21548445.638          50.750          44.000
  20837602.023                   109502483.4584   85326537.6344   20837601.490
  20837599.918          49.500          43.250
  23881122.421                   125496147.9654   97789212.3814   23881122.698
  23881121.022          40.000          23.000
  24473740.270    24473737.812   128610369.2314  100215882.8284   24473739.571
  24473738.961          45.250          27.500
  21171089.108                   111254867.7224   86692102.5724   21171088.655
  21171088.316          50.250          41.500
  23963180.776    23963180.850   125927419.6764   98125276.2164   23963180.305
  23963180.582          42.000          31.500
  22130737.938                   116297845.5844   90621704.3364   22130737.198
  22130735.444          48.000          37.500
  20622393.505    20622394.361   108371446.8724   84445284.5084   20622392.822
  20622394.169          51.000          45.750
 19  1 25  1  5  0.0000000  0 11G01G04G07G08G11G13G17G18G27G28G30
  22140745.492    22140747.633   116350568.2614   90662684.7424   22140745.233
  22140747.408          47.500          38.000
  24672028.111                   129652397.4624  101027843.8954   24672027.140
  24672028.853          36.250          20.750
  20652620.037    20652618.590   108530449.5154   84569060.1544   20652619.910
  20652618.316          54.000          44.750
  21562123.746    21562125.286   113309773.2474   88293339.4274   21562123.068
  21562124.571          50.750          44.500
  20828450.660                   109454391.8854   85289063.6924   20828450.100
  20828448.374          49.500          43.250
  23875631.874                   125467294.1034   97766728.8774   23875632.046
  23875630.662          40.500          23.250
  24455478.319    24455475.584   128514400.3084  100141101.8774   24455477.727
  24455475.101          45.750          27.500
  21163284.895                   111213856.4514   86660145.7584   21163284.454
  21163284.394          50.500          41.250
  23982971.760    23982972.873   126031422.3614   98206317.2764   23982971.313
  23982972.428          42.000          32.750
  22119336.091                   116237928.8524   90575015.9754   22119335.448
  22119333.513          48.500          37.500
  20618519.179    20618519.653   108351086.2694   84429419.0994   20618518.402
  20618519.646          51.500          46.000
 19  1 25  1  5 30.0000000  0 11G01G04G07G08G11G13G17G18G27G28G30
  22123344.410    22123346.559   116259124.9174   90591430.2294   22123344.373
  22123346.219          47.750          38.250
  24690873.992                   129751435.6574  101105016.4794   24690873.744
  24690873.750          35.750          20.750
  20661635.538    20661633.477   108577824.9414   84605976.0624   20661635.215
  20661633.321          54.250          44.750
  21575855.390    21575857.128   113381935.2694   88349569.5734   21575854.881
  21575856.470          50.500          44.000
  20819404.259                   109406854.1904   85252021.3504   20819403.932
  20819402.196          49.500          43.250
  23870250.071                   125439017.8134   97744695.3934   23870251.053
  23870250.018          40.500          24.500
  24437242.925    24437243.415   128418583.6724  100066439.5864   24437242.880
  24437243.400          43.500          25.250
  21155599.540                   111173471.7224   86628677.1644   21155599.388
  21155599.311          50.000          41.500
  24002774.610    24002776.335   126135487.9754   98287407.3874   24002774.501
  24002775.795          41.500          31.750
  22107959.904                   116178146.0724   90528431.9964   22107958.854
  22107957.754          48.500          37.500
  20614750.776    20614752.319   108331285.7484   84413990.1234   20614750.404
  20614751.871          51.250          45.750
 19  1 25  1  6  0.0000000  0 11G01G04G07G08G11G13G17G18G27G28G30
  22106016.582    22106018.189   116168067.3624   90520476.3084   22106016.717
  22106018.119          47.750          38.250
  24709722.386                   129850484.5174  101182197.4274   24709721.621
  24709722.408          36.750          21.250
  20670753.452    20670751.700   108625740.1964   84643312.6194   20670753.051
  20670751.536          54.000          44.750
  21589640.541    21589641.441   113454375.0824   88406016.1804   21589640.060
  21589641.298          49.750          44.000
  20810463.903                   109359871.6224   85215411.5724   20810463.098
  20810461.616          49.500          43.000
  23864982.061                   125411319.9184   97723112.6264   23864979.945
  23864978.662          42.000          25.000
  24419039.928    24419037.907   128322920.3514   99991896.8024   24419039.232
  24419038.029          45.750          27.000
  21148034.923                   111133715.2134   86597698.0974   21148034.183
  21148033.679          51.250          41.750
  24022589.270    24022590.861   126239614.6484   98368545.0624   24022588.413
  24022590.106          40.500          31.250
  22096608.913                   116118498.0944   90481953.0604   22096608.385
  22096606.882          48.500          37.500
  20611090.012    20611091.061   108312046.4734   84398998.4724   20611089.376
  20611090.882          50.750          46.000
 19  1 25  1  6 30.0000000  0 11G01G04G07G08G11G13G17G18G27G28G30
  22088763.055    22088765.192   116077398.6684   90449825.3914   22088762.908
  22088765.349          47.250          38.000
  24728572.381                   129949541.2294  101259384.4364   24728571.331
  24728573.173          38.250          21.750
  20679973.711    20679972.242   108674194.2514   84681069.0194   20679973.325
  20679972.211          53.250          44.500
  21603478.031    21603479.208   113527090.7014   88462677.6964   21603477.151
  21603478.764          50.500          44.000
  20801629.625                   109313445.6424   85179235.4844   20801628.803
  20801627.178          49.750          43.500
  23859820.012                   125384200.9094   97701980.9274   23859820.598
  23859818.621          41.750          24.500
  24400864.419    24400862.960   128227411.6114   99917474.4304   24400863.728
  24400863.498          43.750          26.000
  21140589.038                   111094588.6404   86567209.8794   21140588.768
  21140588.348          50.500          41.500
  24042414.773    24042416.486   126343800.6934   98449728.9614   24042415.699
  24042416.456          39.750          32.000
  22085284.051                   116058985.2514   90435579.4254   22085283.312
  22085282.285          48.000          37.750
  20607535.888    20607537.058   108293369.6224   84384445.0834   20607535.139
  20607536.797          51.500          46.000
 19  1 25  1  7  0.0000000  0 11G01G04G07G08G11G13G17G18G27G28G30
  22071584.294    22071585.474   115987121.9744   90379479.9274   22071583.935
  22071586.019          48.000          39.000
  24747422.981                   130048602.8124  101336575.2994   24747424.247
  24747424.733          39.500          22.000
  20689296.751    20689295.107   108723186.0164   84719244.4034   20689296.300
  20689294.976          53.750          44.250
  21617367.073    21617368.572   113600079.4534   88519552.0534   21617366.465
  21617368.007          50.250          44.000
  20792900.988                   109267577.4114   85143494.0264   20792900.482
  20792898.698          49.250          43.250
  23854769.793                   125357661.6484   97681301.0064   23854769.040
  23854767.862          41.750          23.000
  24382720.419    24382718.996   128132058.6484   99843173.4414   24382719.255
  24382719.304          43.750          25.750
  21133263.701                   111056093.8094   86537213.9244   21133263.416
  21133262.585          50.750          41.750
  24062252.117    24062252.920   126448044.3154   98530957.7604   24062252.075
  24062253.399          40.500          30.750
  22073984.724                   115999607.8694   90389311.3404   22073984.624
  22073982.999          48.000          38.000
  20604089.012    20604089.874   108275256.2934   84370330.8114   20604088.463
  20604089.894          50.500          46.000
 19  1 25  1  7 30.0000000  0 11G01G04G07G08G11G13G17G18G27G28G30
  22054480.113    22054482.202   115897240.3864   90309442.3484   22054480.046
  22054482.071          47.500          39.250
  24766273.772                   130147666.4804  101413767.7574   24766273.895
  24766274.195          39.000          21.250
  20698721.780    20698719.888   108772714.5534   84757838.0604   20698721.435
  20698719.793          54.000          44.500
  21631307.980    21631309.364   113673340.0704   88576638.2414   21631307.430
  21631309.138          50.000          44.000
  20784278.661                   109222269.0844   85108188.8464   20784278.218
  20784276.783          49.500          43.250
  23849830.360                   125331702.8544   97661073.3444   23849829.621
  23849826.976          42.250          24.500
  24364603.766    24364603.698   128036862.4584   99768994.6104   24364603.935
  24364603.725          43.000          26.500
  21126058.786                   111018232.3544   86507711.5134   21126058.443
  21126057.825          50.500          41.500
  24082099.823    24082100.605   126552343.7564   98612230.0544   24082099.043
  24082100.318          40.500          30.750
  22062712.082                   115940366.6634   90343149.3624   22062711.004
  22062709.622          48.000          38.000
  20600749.667    20600750.594   108257707.5994   84356656.5064   20600749.030
  20600750.299          50.750          46.000
 19  1 25  1  8  0.0000000  0 11G01G04G07G08G11G13G17G18G27G28G30
  22037452.166    22037453.734   115807756.9514   90239715.0214   22037451.852
  22037454.109          47.500          39.000
  24785125.667                   130246729.2844  101490959.5434   24785125.012
  24785126.697          40.500          22.250
  20708248.404    20708246.655   108822778.4584   84796848.8894   20708248.034
  20708246.735          53.750          44.500
  21645299.901    21645301.676   113746870.0544   88633934.3344   21645299.736
  21645301.270          50.000          43.750
  20775763.941                   109177521.6994   85073320.7694   20775763.354
  20775761.722          49.250          43.500
  23845000.005                   125306325.2034   97641298.5564   23845000.220
  23844999.073          41.000          23.500
  24346518.987    24346518.711   127941824.1894   99694938.8624   24346519.072
  24346518.145          42.750          28.750
  21118974.894                   110981005.7034   86478703.7614   21118974.461
  21118973.744          50.500          41.750
  24101958.045    24101958.660   126656697.1924   98693544.4144   24101957.332
  24101958.284          40.250          30.750
  22051464.589                   115881261.7984   90297093.6354   22051463.762
  22051461.940          48.000          37.500
  20597517.686    20597518.753   108240724.6254   84343423.0194   20597517.284
  20597518.533          51.000          46.000
 19  1 25  1  8 30.0000000  0 11G01G04G07G08G11G13G17G18G27G28G30
  22020500.472    22020502.001   115718674.8164   90170300.3804   22020500.225
  22020502.249          48.250          39.000
  24803976.287                   130345788.2424  101568148.2914   24803975.907
  24803975.806          39.750          20.750
  20717876.954    20717875.341   108873376.8594   84836276.2054   20717876.636
  20717875.356          53.500          44.250
  21659343.794    21659345.102   113820667.7734   88691439.0434   21659343.008
  21659344.608          50.250          44.000
  20767355.913                   109133336.4864   85038890.7474   20767355.062
  20767353.386          50.000          43.250
  23840282.891                   125281529.4604   97621977.2044   23840282.730
  23840279.983          42.750          24.000
  24328464.022    24328462.508   127846944.8854   99621006.9624   24328463.437
  24328463.405          41.750          28.500
  21112011.780                   110944415.7454   86450192.1174   21112011.747
  21112011.066          50.250          41.500
  24121824.942    24121826.186   126761102.9924   98774899.5414   24121824.891
  24121826.122          40.000          31.750
  22040243.660                   115822294.1544   90251144.8184   22040242.686
  22040240.948          49.000          37.750
  20594394.016    20594394.895   108224308.4244   84330631.1824   20594393.449
  20594394.897          51.250          46.250
 19  1 25  1  9  0.0000000  0 11G01G04G07G08G11G13G17G18G27G28G30
  22003625.176    22003627.197   115629996.9414   90101200.7484   22003625.038
  22003627.166          47.250          38.750
  24822824.002                   130444840.4694  101645331.8184   24822823.816
  24822825.679          39.000          20.750
  20727607.050    20727605.885   108924508.8544   84876119.3074   20727606.946
  20727605.509          53.500          44.250
  21673437.460    21673439.069   113894731.1454   88749150.7644   21673436.830
  21673438.459          50.250          43.750
  20759054.960                   109089714.9224   85004899.9314   20759054.079
  20759052.619          49.500          43.250
  23835674.253                   125257316.1044   97603109.6394   23835674.367
  23835673.207          42.250          25.250
  24310439.886    24310439.483   127752225.5964   99547199.7474   24310439.744
  24310438.353          43.750          29.750
  21105170.586                   110908463.7204   86422177.5754   21105169.930
  21105169.899          50.750          41.500
  24141702.473    24141703.116   126865559.3694   98856294.1164   24141702.737
  24141702.927          40.500          31.750
  22029048.383                   115763463.9264   90205303.0794   22029047.630
  22029046.212          48.250          38.000
  20591378.022    20591379.286   108208460.0924   84318281.8334   20591377.504
  20591378.983          51.000          46.250
 19  1 25  1  9 30.0000000  0 11G01G04G07G08G11G13G17G18G27G28G30
  21986827.749    21986829.932   115541726.4764   90032418.5694   21986827.750
  21986829.966          47.500          38.750
  24841671.017                   130543883.1424  101722507.8894   24841670.863
  24841671.898          38.750          20.750
  20737438.282    20737437.008   108976173.1354   84916377.1784   20737438.095
  20737436.825          53.250          44.250
  21687581.604    21687582.530   113969057.7054   88807067.5624   21687581.095
  21687582.112          50.000          43.750
  20750861.482                   109046658.2774   84971349.3154   20750860.882
  20750859.034          50.500          43.500
  23831177.879                   125233685.6924   97584696.3464   23831177.417
  23831176.245          42.750          25.500
  24292445.309    24292443.840   127657667.6714   99473518.2814   24292445.820
  24292445.295          43.250          30.500
  21098450.479                   110873151.5064   86394661.5864   21098450.173
  21098449.971          50.500          41.500
  24161590.843    24161590.386   126970064.5874   98937726.7514   24161588.547
  24161590.238          41.000          32.000
  22017878.675                   115704771.8474   90159568.9924   22017878.409
  22017877.453          47.750          38.000
  20588470.474    20588471.402   108193180.6304   84306375.7564   20588470.124
  20588471.354          50.750          46.250
 19  1 25  1 10  0.0000000  0 11G01G04G07G08G11G13G17G18G27G28G30
  21970109.049    21970110.534   115453866.4274   89963956.2204   21970108.805
  21970110.332          48.000          39.250
  24860515.946                   130642913.3534  101799674.2774   24860516.282
  24860517.298          40.000          21.750
  20747371.121    20747369.114   109028368.4574   84957048.8524   20747370.538
  20747369.448          53.500          44.500
  21701774.690    21701776.251   114043645.5574   88865187.9674   21701774.221
  21701775.877          49.750          43.750
  20742776.021                   109004167.9294   84938239.9624   20742775.296
  20742773.425          50.000          43.500
  23826793.277                   125210639.1564   97566738.0064   23826792.222
  23826791.855          43.250          25.500
  24274483.371    24274481.211   127563272.0024   99399963.2364   24274482.925
  24274482.084          44.500          30.500
  21091852.965                   110838480.2884   86367645.0684   21091852.463
  21091852.387          50.500          41.750
  24181484.772    24181485.205   127074616.9574   99019196.1424   24181484.006
  24181485.093          40.500          29.750
  22006737.033                   115646218.4334   90113942.9614   22006736.552
  22006735.163          47.750          38.000
  20585671.496    20585672.463   108178471.0654   84294913.7584   20585670.852
  20585672.041          50.750          46.000
 19  1 25  1 10 30.0000000  0 11G01G04G07G08G11G13G17G18G27G28G30
  21953468.014    21953470.107   115366419.8644   89895816.0624   21953467.982
  21953470.350          47.500          39.250
  24879359.169                   130741928.3164  101876828.8064   24879359.393
  24879359.649          40.000          21.750
  20757404.217    20757402.782   109081093.7084   84998133.4584   20757404.017
  20757402.638          53.500          44.500
  21716017.864    21716019.236   114118493.0834   88923510.7174   21716017.405
  21716019.126          50.750          43.750
  20734798.427                   108962245.1194   84905572.8464   20734797.531
  20734795.842          49.750          43.500
  23822518.352                   125188176.8104   97549234.8684   23822518.274
  23822516.352          43.000          25.750
  24256551.659    24256549.584   127469039.5834   99326535.4304   24256551.544
  24256549.888          44.250          30.000
  21085377.977                   110804451.9584   86341129.5054   21085377.404
  21085376.932          50.750          41.500
  24201390.061    24201390.514   127179214.7884   99100700.9314   24201388.947
  24201389.825          41.250          31.000
  21995621.552                   115587804.1204   90068425.3214   21995620.612
  21995619.289          48.250          38.250
  20582981.047    20582982.172   108164332.3524   84283896.5784   20582980.287
  20582981.514          50.500          46.000
 19  1 25  1 11  0.0000000  0 11G01G04G07G08G11G13G17G18G27G28G30
  21936906.669    21936908.685   115279389.8424   89828000.4894   21936906.546
  21936909.113          47.500          39.500
  24898195.761                   130840925.0584  101953969.1534   24898196.743
  24898196.898          37.500          20.000
  20767538.167    20767536.967   109134347.4864   85039629.8964   20767537.927
  20767536.532          53.750          44.250
  21730309.669    21730311.842   114193598.0204   88982034.0394   21730309.321
  21730311.136          50.750          43.750
  20726928.624                   108920890.9914   84873348.8674   20726928.065
  20726926.313          50.750          43.250
  23818355.053                   125166299.2014   97532187.3644   23818353.926
  23818353.183          42.500          25.500
  24238650.783    24238649.895   127374972.0304   99253236.0804   24238650.057
  24238649.716          43.500          29.500
  21079024.629                   110771067.7514   86315115.8574   21079024.579
  21079023.847          50.500          41.500
  24221302.408    24221302.335   127283856.3294   99182239.7854   24221302.576
  24221302.998          42.250          31.500
  21984532.397                   115529529.3224   90023016.3864   21984531.095
  21984530.099          48.500          38.500
  20580399.313    20580400.405   108150765.4914   84273324.9944   20580398.489
  20580400.028          51.500          46.250
 19  1 25  1 11 30.0000000  0 11G01G04G07G08G11G13G17G18G27G28G30
  21920425.405    21920427.157   115192779.3134   89760511.7974   21920425.114
  21920427.420          47.500          39.250
  24917031.344                   130939900.7244  102031092.9914   24917031.485
  24917033.925          38.250          21.250
  20777772.442    20777770.689   109188129.0074   85081537.5684   20777772.335
  20777770.696          53.500          44.250
  21744650.289    21744651.688   114268958.4294   89040756.4354   21744650.036
  21744651.385          50.250          43.500
  20719167.427                   108880106.7694   84841568.9804   20719166.980
  20719165.276          50.250          43.500
  23814302.489                   125145006.8864   97515596.0004   23814302.601
  23814302.032          42.500          24.500
  24220781.798    24220780.712   127281069.7244   99180065.4864   24220781.703
  24220780.401          43.250          29.500
  21072794.685                   110738328.9934   86289605.1584   21072794.510
  21072793.954          50.500          41.500
  24241223.178    24241223.222   127388539.8914   99263811.4014   24241221.995
  24241223.162          41.750          29.750
  21973469.422                   115471394.5774   89977716.5854   21973468.443
  21973467.287          48.250          38.250
  20577926.513    20577927.477   108137771.4404   84263199.7604   20577925.937
  20577927.377          50.750          46.000
 19  1 25  1 12  0.0000000  0 11G01G04G07G08G11G13G17G18G27G28G30
  21904024.492    21904026.749   115106591.3404   89693352.3514   21904024.368
  21904026.702          48.750          39.750
  24935861.066                   131038852.4194  102108198.1854   24935861.179
  24935861.829          38.000          20.500
  20788106.817    20788104.914   109242436.9094   85123855.4084   20788106.663
  20788105.172          53.750          44.000
  21759039.039    21759040.938   114344571.9524   89099676.0634   21759038.486
  21759040.192          50.500          43.500
  20711515.391                   108839893.9704   84810234.3394   20711514.693
  20711512.937          50.750          43.500
  23810362.374                   125124300.3164   97499460.9944   23810361.391
  23810359.473          42.500          23.750
  24202944.104    24202943.079   127187334.1204   99107024.7854   24202943.589
  24202943.081          42.250          27.750
  21066687.813                   110706237.3854   86264598.7414   21066687.592
  21066686.774          50.750          41.750
  24261150.946    24261152.362   127493263.8804   99345414.5024   24261151.186
  24261152.425          41.000          29.000
  21962433.185                   115413400.5334   89932526.4294   21962432.610
  21962431.143          48.750          38.500
  20575562.875    20575564.054   108125351.1124   84253521.5794   20575562.458
  20575564.014          51.500          46.000
 19  1 25  1 12 30.0000000  0 11G01G04G07G08G11G13G17G18G27G28G30
  21887704.100    21887705.597   115020828.8594   89626524.4404   21887704.378
  21887706.329          48.750          39.750
  24954685.944                   131137777.3534  102185282.5244   24954685.380
  24954687.325          39.000          21.250
  20798541.224    20798539.600   109297269.5614   85166582.1374   20798540.944
  20798539.540          53.750          44.000
  21773476.163    21773477.095   114420436.7824   89158791.5164   21773475.339
  21773476.851          51.750          43.500
  20703972.155                   108800253.6234   84779345.7624   20703971.325
  20703969.730          50.000          43.500
  23806533.400                   125104179.8854   97483782.7164   23806533.133
  23806531.145          42.750          23.500
  24185138.941    24185137.355   127093766.4374   99034114.9454   24185138.369
  24185137.712          40.750          26.750
  21060705.114                   110674794.1064   86240097.5044   21060704.591
  21060703.686          51.250          42.000
  24281086.438    24281087.699   127598026.6194   99427047.7994   24281086.889
  24281087.710          41.250          29.750
  21951424.522                   115355547.6584   89887446.2744   21951423.572
  21951422.222          48.500          38.250
  20573308.863    20573309.903   108113505.4104   84244291.1614   20573308.303
  20573309.672          51.500          46.000
 19  1 25  1 13  0.0000000  0 11G01G04G07G08G11G13G17G18G27G28G30
  21871465.583    21871467.476   114935494.9434   89560030.5094   21871465.529
  21871467.768          48.500          40.000
  24973505.991                   131236672.7534  102262343.8464   24973505.716
  24973506.632          39.250          20.750
  20809075.424    20809073.345   109352625.8584   85209716.9054   20809074.945
  20809073.589          54.000          44.250
  21787959.819    21787961.568   114496551.2074   89218101.4574   21787959.348
  21787960.836          51.000          43.250
  20696538.454                   108761186.9444   84748904.1944   20696537.481
  20696535.580          51.000          43.500
  23802816.091                   125084646.1404   97468561.5994   23802816.404
  23802814.667          43.000          24.750
  24167365.945    24167365.164   127000367.3024   98961336.4324   24167365.867
  24167364.360          41.250          27.250
  21054844.543                   110644000.5654   86216102.5414   21054844.336
  21054843.654          50.750          41.750
  24301029.193    24301030.092   127702826.3384   99508709.9274   24301029.813
  24301030.057          42.500          30.000
  21940442.376                   115297836.5844   89842476.5994   21940441.369
  21940440.286          48.500          38.250
  20571164.232    20571165.311   108102235.2264   84235509.1964   20571163.754
  20571164.941          52.000          46.250
 19  1 25  1 13 30.0000000  0 11G01G04G07G08G11G13G17G18G27G28G30
  21855309.780    21855310.735   114850592.5544   89493872.8134   21855309.533
  21855311.481          49.250          40.000
  24992319.331                   131335535.6684  102339379.8764   24992318.917
  24992318.196          39.250          19.500
  20819708.484    20819706.850   109408504.5434   85253258.7314   20819708.373
  20819706.961          53.750          44.250
  21802490.724    21802492.880   114572912.8874   89277604.0664   21802490.665
  21802492.148          51.250          43.000
  20689213.066                   108722695.0034   84718910.4784   20689212.656
  20689210.788          50.500          43.250
  23799211.919                   125065699.5344   97453798.0174   23799211.308
  23799210.001          43.250          25.000
  24149625.607    24149623.246   126907137.9304   98888690.2154   24149624.424
  24149623.117          41.500          26.000
  21049108.659                   110613858.0334   86192614.8524   21049108.202
  21049108.046          50.500          41.500
  24320979.513    24320980.161   127807661.4604   99590399.6334   24320979.228
  24320979.666          42.750          30.250
  21929487.388                   115240267.8324   89797617.8424   21929486.639
  21929485.529          48.500          38.750
  20569129.480    20569130.099   108091541.4204   84227176.3664   20569128.621
  20569129.861          52.000          46.250
 19  1 25  1 14  0.0000000  0 11G01G04G07G08G11G13G17G18G27G28G30
  21839235.248    21839237.594   114766124.6294   89428053.6634   21839235.517
  21839237.886          48.750          40.250
  25011123.771                   131434363.3524  102416388.4574   25011122.644
  25011126.243          37.250          19.500
  20830440.942    20830439.411   109464904.4514   85297206.7054   20830440.649
  20830439.417          53.500          44.250
  21817068.913    21817070.199   114649519.9324   89337297.8604   21817068.458
  21817069.772          51.250          43.000
  20681998.093                   108684779.1914   84689365.6974   20681997.533
  20681995.689          50.250          43.500
  23795718.248                   125047340.4594   97439492.2244   23795717.839
  23795716.238          43.500          25.750
  24131916.764    24131914.844   126814079.5304   98816177.2154   24131916.202
  24131914.824          42.250          27.250
  21043496.605                   110584367.8254   86169635.4894   21043496.488
  21043496.179          50.750          42.000
  24340933.699    24340935.911   127912530.3804   99672115.6724   24340934.122
  24340935.006          40.250          27.500
  21918559.522                   115182841.8524   89752870.3304   21918558.467
  21918557.517          48.250          39.000
  20567204.300    20567205.064   108081424.8714   84219293.3364   20567203.482
  20567204.873          52.000          46.000
 19  1 25  1 14 30.0000000  0 11G01G04G07G08G11G13G17G18G27G28G30
  21823246.288    21823246.985   114682094.1204   89362575.3504   21823245.536
  21823247.440          50.000          40.500
  25029923.707                   131533152.9514  102493367.3414   25029923.360
  25029924.383          37.500          16.750
  20841272.445    20841270.919   109521824.1464   85341559.7044   20841272.339
  20841270.939          53.500          44.250
  21831693.255    21831694.587   114726370.2864   89397181.2534   21831692.425
  21831694.152          51.750          43.000
  20674892.740                   108647440.5694   84660270.6684   20674892.115
  20674890.300          50.000          43.500
  23792336.112                   125029569.1904   97425644.4744   23792335.826
  23792334.850          42.750          25.500
  24114241.375    24114237.470   126721193.3104   98743798.3394   24114239.810
  24114239.115          42.000          27.000
  21038009.558                   110555531.3094   86147165.4864   21038008.950
  21038008.797          50.750          41.750
  24360896.488    24360898.037   128017431.4444   99753856.7394   24360895.160
  24360897.844          40.750          29.250
  21907658.960                   115125559.2444   89708234.5474   21907658.267
  21907657.036          48.000          39.000
  20565388.881    20565390.201   108071886.3744   84211860.7384   20565388.441
  20565389.718          51.500          46.250
 19  1 25  1 15  0.0000000  0 11G01G04G07G08G11G13G17G18G27G28G30
  21807338.661    21807340.474   114598504.0404   89297440.2614   21807338.542
  21807340.569          49.000          40.250
  25048715.851                   131631901.5704  102570314.3824   25048714.537
  25048715.282          37.500          16.750
  20852202.689    20852200.930   109579262.0074   85386316.4664   20852202.268
  20852200.892          53.500          44.250
  21846363.101    21846364.368   114803462.3314   89457252.9774   21846362.679
  21846364.151          51.250          43.000
  20667897.207                   108610679.8174   84631625.9494   20667896.762
  20667894.947          49.500          43.500
  23789065.698                   125012386.0854   97412255.0464   23789065.881
  23789063.958          43.250          25.750
  24096598.342    24096597.056   126628479.9524   98671554.2114   24096597.584
  24096597.198          42.500          29.000
  21032646.669                   110527349.8184   86125205.9014   21032646.345
  21032646.028          50.500          42.000
  24380865.632    24380864.574   128122363.0354   99835621.5854   24380864.804
  24380865.464          41.500          29.500
  21896785.758                   115068420.6524   89663710.9764   21896785.023
  21896784.096          48.250          38.750
  20563684.177    20563684.916   108062926.7364   84204879.2074   20563683.708
  20563684.763          52.250          46.250
 19  1 25  1 15 30.0000000  0 11G01G04G07G08G11G13G17G18G27G28G30
  21791516.195    21791518.007   114515357.3004   89232650.6334   21791516.025
  21791518.086          49.250          40.000
  25067499.059                   131730606.5564  102647227.2814   25067498.359
  25067498.268          36.000          16.750
  20863230.941    20863229.534   109637216.8654   85431476.0854   20863230.863
  20863229.432          53.250          44.000
  21861078.787    21861080.415   114880793.6274   89517511.1264   21861078.220
  21861079.970          52.000          42.750
  20661012.448                   108574498.4044   84603432.6534   20661011.725
  20661009.895          50.250          43.500
  23785908.578                   124995791.6584   97399324.3064   23785907.877
  23785906.842          43.500          26.250
  24078988.339    24078985.969   126535940.7394   98599445.7314   24078988.317
  24078986.800          42.750          29.500
  21027408.628                   110499824.5184   86103757.6364   21027408.294
  21027407.805          50.250          41.750
  24400838.388    24400839.400   128227323.5144   99917408.9764   24400838.659
  24400839.597          42.750          30.250
  21885940.134                   115011426.3434   89619299.8284   21885939.523
  21885938.259          47.750          38.750
  20562089.559    20562090.557   108054546.7484   84198349.3444   20562088.810
  20562090.373          52.750          46.250
 19  1 25  1 16  0.0000000  0 11G01G04G07G08G11G13G17G18G27G28G30
  21775778.741    21775780.392   114432656.7814   89168208.6784   21775778.833
  21775780.554          49.000          40.250
  25086272.734                   131829264.9484  102724103.9424   25086272.062
  25086273.329          36.250          17.500
  20874357.667    20874356.211   109695687.5414   85477037.6444   20874357.580
  20874355.802          53.500          44.000
  21875839.360    21875840.815   114958362.4194   89577954.3384   21875839.345
  21875840.397          51.750          43.000
  20654237.041                   108538897.1344   84575691.4114   20654237.022
  20654235.191          50.500          43.500
  23782862.539                   124979785.8754   97386852.2704   23782862.467
  23782860.205          43.000          25.500
  24061411.464    24061410.934   126443576.6384   98527473.7284   24061411.541
  24061410.543          44.250          31.500
  21022295.573                   110472956.3514   86082821.3994   21022295.586
  21022294.866          50.500          41.500
  24420817.489    24420817.544   128332311.3274   99999217.6514   24420816.665
  24420817.053          43.750          31.000
  21875122.549                   114954577.2314   89575001.8254   21875121.809
  21875119.860          48.000          39.500
  20560605.251    20560606.168   108046747.1784   84192271.7594   20560604.589
  20560605.975          52.750          46.250
 19  1 25  1 16 30.0000000  0 11G01G04G07G08G11G13G17G18G27G28G30
  21760126.862    21760128.603   114350405.4714   89104116.7924   21760126.683
  21760128.628          49.250          40.250
  25105036.856                   131927874.1054  102800942.2334   25105036.549
  25105036.834          34.500          14.500
  20885582.416    20885580.431   109754672.3234   85522999.8024   20885582.149
  20885580.613          53.250          43.750
  21890645.328    21890646.743   115036166.6274   89638580.9884   21890644.796
  21890646.366          52.000          42.500
  20647573.481                   108503877.1124   84548403.0854   20647573.061
  20647571.193          49.750          43.750
  23779927.354                   124964369.0794   97374839.1734   23779928.179
  23779926.343          41.500          24.750
  24043869.235    24043868.589   126351388.7274   98455638.9844   24043869.129
  24043868.048          44.250          33.000
  21017308.330                   110446746.7364   86062398.3354   21017308.239
  21017307.620          51.000          41.500
  24440799.689    24440799.615   128437324.8444  100081046.3674   24440799.832
  24440800.187          42.250          28.250
  21864331.834                   114897873.9554   89530817.4554   21864331.265
  21864329.797          48.000          39.000
  20559231.553    20559232.575   108039528.7454   84186647.0004   20559230.964
  20559232.235          52.000          46.000
 19  1 25  1 17  0.0000000  0 11G01G04G07G08G11G13G17G18G27G28G30
  21744561.087    21744562.549   114268606.1914   89040377.1214   21744560.880
  21744563.225          49.250          40.250
  25123791.729                   132026431.1994  102877740.0044   25123790.573
  25123791.607          32.500          12.750
  20896904.130    20896902.594   109814169.8154   85569361.4704   20896903.822
  20896902.495          52.750          44.000
  21905495.534    21905497.022   115114204.1724   89699389.4684   21905494.873
  21905496.170          51.750          42.750
  20641020.684                   108469439.8104   84521568.8344   20641019.825
  20641017.865          50.250          44.000
  23777108.363                   124949541.5534   97363285.2434   23777107.308
  23777105.443          42.750          25.250
  24026360.351    24026359.512   126259377.7454   98383942.1164   24026360.410
  24026358.770          44.500          32.750
  21012446.258                   110421196.9224   86042489.3964   21012446.000
  21012445.725          50.750          42.000
  24460787.475    24460788.887   128542362.4864  100162893.8694   24460787.699
  24460788.337          42.250          30.000
  21853569.030                   114841316.8494   89486746.9894   21853568.279
  21853567.267          48.000          39.000
  20557968.422    20557969.363   108032892.1814   84181475.6504   20557968.051
  20557969.361          52.500          46.000
 19  1 25  1 17 30.0000000  0 11G01G04G07G08G11G13G17G18G27G28G30
  21729082.187    21729083.101   114187261.8334   88976991.9354   21729081.667
  21729083.588          49.750          40.500
  25142537.768                   132124933.4544  102954494.9964   25142536.990
  25142537.889          32.250          12.000
  20908323.733    20908321.916   109874178.6174   85616121.5614   20908323.197
  20908321.788          53.250          44.000
  21920389.619    21920391.140   115192473.6204   89760378.6444   21920389.038
  21920390.776          52.250          42.750
  20634578.206                   108435585.8024   84495189.0944   20634577.503
  20634575.846          49.750          43.750
  23774397.992                   124935303.4404   97352190.6334   23774397.141
  23774395.693          42.250          25.500
  24008885.091    24008883.975   126167545.2524   98312384.3434   24008884.536
  24008883.337          43.000          32.000
  21007709.929                   110396307.7434   86023095.2374   21007709.998
  21007709.352          51.250          42.000
  24480781.114    24480780.976   128647422.6564  100244758.9404   24480780.813
  24480781.917          44.250          31.500
  21842835.209                   114784906.1794   89442790.6264   21842834.262
  21842832.765          47.500          39.500
  20556816.794    20556817.548   108026838.1884   84176758.2534   20556816.215
  20556817.456          52.500          46.000
 19  1 25  1 18  0.0000000  0 10G01G07G08G11G13G17G18G27G28G30
  21713689.304    21713691.242   114106375.3134   88913963.4954   21713689.346
  21713691.510          49.250          40.750
  20919839.762    20919838.303   109934697.1754   85663278.8654   20919839.635
  20919838.384          53.250          43.750
  21935327.398    21935328.601   115270972.5804   89821546.6614   21935326.668
  21935328.404          51.750          42.750
  20628247.017                   108402315.9484   84469264.5464   20628246.360
  20628244.778          49.500          44.000
  23771800.773                   124921654.9254   97341555.4284   23771800.506
  23771797.312          42.500          24.500
  23991443.882    23991443.007   126075891.4204   98240965.8224   23991443.118
  23991442.866          43.000          32.000
  21003099.813                   110372080.2204   86004216.6524   21003099.559
  21003098.869          51.250          41.750
  24500777.286    24500777.052   128752503.8144  100326640.3664   24500776.103
  24500777.329          44.000          30.500
  21832128.569                   114728642.9334   89398949.1514   21832127.845
  21832126.221          48.500          39.500
  20555776.052    20555776.408   108021367.4424   84172495.3304   20555775.156
  20555776.281          52.500          46.000
 19  1 25  1 18 30.0000000  0 10G01G07G08G11G13G17G18G27G28G30
  21698385.211    21698386.330   114025949.4994   88851294.0594   21698385.021
  21698387.128          50.250          40.750
  20931452.925    20931451.119   109995724.1954   85710832.3734   20931452.424
  20931451.141          53.000          44.000
  21950308.009    21950310.396   115349699.3124   89882892.1664   21950307.826
  21950309.646          51.000          42.500
  20622027.166                   108369631.2224   84443795.9384   20622026.815
  20622024.961          49.250          43.750
  23769314.891                   124908596.4074   97331379.9404   23769315.069
  23769314.137          42.000          25.000
  23974036.343    23974035.513   125984417.5234   98169687.4734   23974036.393
  23974035.422          41.750          30.750
  20998615.454                   110348515.5794   85985854.5934   20998614.976
  20998614.854          51.250          42.000
  24520777.216    24520778.096   128857604.4104  100408536.9534   24520777.156
  24520777.601          43.750          31.750
  21821449.819                   114672527.8524   89355223.1164   21821449.411
  21821447.476          48.250          39.000
  20554845.823    20554846.624   108016480.5914   84168687.3984   20554845.020
  20554846.386          52.250          46.250
 19  1 25  1 19  0.0000000  0 10G01G07G08G11G13G17G18G27G28G30
  21683168.312    21683170.163   113945987.2414   88788985.8334   21683167.968
  21683170.323          49.250          40.750
  20943162.063    20943160.865   110057257.9654   85758780.7454   20943161.914
  20943160.797          52.750          43.500
  21965332.906    21965334.523   115428651.8004   89944413.5814   21965332.286
  21965333.868          52.250          42.500
  20615918.990                   108337532.5544   84418784.0044   20615918.685
  20615916.760          49.250          43.750
  23766943.637                   124896127.8944   97321664.2104   23766944.274
  23766941.455          43.250          26.750
  23956663.370    23956663.669   125893124.9544   98098550.4564   23956663.064
  23956663.192          41.500          30.500
  20994257.712                   110325614.7954   85968009.8364   20994257.552
  20994256.942          52.000          42.000
  24540780.265    24540780.224   128962722.9624  100490447.4484   24540780.026
  24540780.495          42.500          29.500
  21810800.087                   114616561.4484   89311612.9334   21810799.002
  21810797.424          47.750          39.000
  20554027.246    20554027.896   108012178.2674   84165334.9264   20554026.440
  20554027.688          52.000          46.250
 19  1 25  1 19 30.0000000  0 10G01G07G08G11G13G17G18G27G28G30
  21668040.795    21668042.848   113866491.2754   88727040.9364   21668040.718
  21668043.014          49.000          40.500
  20954967.695    20954966.197   110119297.0414   85807122.8654   20954967.470
  20954966.363          53.500          43.500
  21980399.317    21980401.175   115507828.0274   90006109.3454   21980398.767
  21980400.711          51.500          42.500
  20609922.587                   108306021.0834   84394229.6204   20609922.164
  20609920.271          49.250          44.000
  23764682.158                   124884249.4294   97312408.2824   23764681.850
  23764680.920          41.500          25.000
  23939326.898    23939325.927   125802014.4994   98027555.3404   23939326.178
  23939325.617          42.000          30.500
  20990026.276                   110303378.9264   85950683.1844   20990025.798
  20990025.375          52.000          42.000
  24560786.567    24560787.189   129067857.8554  100572370.7444   24560785.139
  24560787.413          42.750          30.250
  21800178.016                   114560743.8924   89268118.7364   21800177.130
  21800176.000          47.750          39.250
  20553319.566    20553320.566   108008461.0614   84162438.4064   20553319.130
  20553320.547          52.000          46.500
 19  1 25  1 20  0.0000000  0 10G01G07G08G11G13G17G18G27G28G30
  21653002.464    21653004.447   113787464.5404   88665461.6934   21653002.108
  21653004.574          48.250          40.500
  20966869.679    20966867.755   110181839.8184   85855857.4964   20966869.275
  20966867.843          53.500          43.500
  21995508.423    21995509.694   115587226.2174   90067978.0634   21995507.714
  21995509.669          51.500          42.500
  20604037.929                   108275097.4304   84370133.2704   20604037.504
  20604035.895          48.250          43.750
  23762534.226                   124872960.8194   97303611.9544   23762534.116
  23762531.262          41.250          23.750
  23922023.758    23922021.579   125711087.0754   97956702.8384   23922023.163
  23922022.357          42.250          30.750
  20985921.952                   110281808.7094   85933875.2264   20985921.291
  20985921.051          52.000          42.000
  24580795.977    24580796.310   129173007.5344  100654305.5304   24580794.467
  24580796.365          42.000          28.750
  21789585.354                   114505076.3684   89224741.4494   21789584.697
  21789582.769          48.250          39.500
  20552724.116    20552724.886   108005329.5924   84159998.2954   20552723.205
  20552724.598          51.500          46.500
 19  1 25  1 20 30.0000000  0 10G01G07G08G11G13G17G18G27G28G30
  21638054.009    21638055.855   113708909.8394   88604250.2694   21638054.146
  21638056.173          49.250          41.000
  20978866.647    20978864.718   110244884.7734   85904983.4304   20978866.158
  20978864.886          52.750          43.500
  22010659.395    22010660.864   115666844.5184   90130018.2924   22010658.974
  22010660.517          51.750          42.250
  20598265.441                   108244762.5704   84346495.7264   20598264.918
  20598263.135          49.250          43.750
  23760498.704                   124862262.6274   97295275.6874   23760497.337
  23760495.936          41.500          23.250
  23904755.790    23904754.583   125620343.8304   97885993.8204   23904755.841
  23904754.458          43.000          31.000
  20981943.849                   110260905.2814   85917586.8524   20981943.781
  20981943.130          52.000          42.250
  24600808.167    24600809.522   129278170.5324  100736250.7114   24600807.245
  24600808.313          42.750          29.750
  21779020.373                   114449559.1804   89181481.3084   21779019.872
  21779017.898          48.500          40.000
  20552239.238    20552240.329   108002784.4084   84158015.0304   20552238.811
  20552240.197          51.000          46.250
 19  1 25  1 21  0.0000000  0 10G01G07G08G11G13G17G18G27G28G30
  21623195.648    21623197.857   113630829.9254   88543408.8094   21623195.999
  21623197.880          49.000          41.250
  20990958.584    20990958.004   110308430.4044   85954499.4914   20990958.484
  20990957.218          52.500          43.750
  22025851.666    22025853.236   115746680.8254   90192228.4034   22025851.170
  22025852.681          51.250          42.000
  20592605.512                   108215017.4364   84323317.7044   20592604.640
  20592603.102          49.500          43.750
  23758574.534                   124852154.7804   97287399.4674   23758574.191
  23758573.417          39.750          23.250
  23887522.839    23887521.873   125529785.9144   97815429.2394   23887522.764
  23887521.945          43.000          31.500
  20978093.666                   110240669.4954   85901818.7044   20978092.953
  20978092.382          52.500          42.250
  24620821.856    24620822.878   129383345.3454  100818205.0884   24620820.802
  24620822.636          41.750          28.250
  21768484.436                   114394192.9044   89138338.7604   21768483.951
  21768482.302          48.000          39.500
  20551866.646    20551867.636   108000826.0674   84156489.0484   20551866.275
  20551867.355          52.500          46.000
 19  1 25  1 21 30.0000000  0 10G01G07G08G11G13G17G18G27G28G30
  21608428.503    21608430.330   113553227.6104   88482939.4984   21608428.510
  21608431.058          49.250          41.250
  21003145.795    21003144.370   110372475.0604   86004404.4074   21003145.658
  21003144.539          52.750          43.500
  22041085.359    22041087.022   115826733.0764   90254606.7834   22041084.787
  22041086.256          51.250          42.000
  20587057.352                   108185862.9324   84300599.9214   20587056.825
  20587055.020          49.000          43.750
  23756762.255                   124842637.2944   97279983.2224   23756762.924
  23756762.993          39.250          23.500
  23870325.738    23870324.254   125439413.7604   97745009.3894   23870325.948
  23870324.333          43.250          31.500
  20974369.666                   110221102.2034   85886571.4864   20974369.595
  20974368.843          52.250          42.500
  24640837.688    24640839.139   129488530.4914  100900167.5314   24640837.681
  24640838.659          41.250          28.250
  21757978.309                   114338978.3034   89095314.3934   21757976.935
  21757975.799          49.000          40.250
  20551605.988    20551606.777   107999455.0574   84155420.7264   20551605.193
  20551606.341          51.750          46.250
 19  1 25  1 22  0.0000000  0 10G01G07G08G11G13G17G18G27G28G30
  21593752.771    21593754.909   113476105.6404   88422844.4874   21593752.936
  21593754.886          49.000          41.750
  21015428.226    21015426.470   110437017.2274   86054696.9864   21015427.920
  21015426.771          52.750          43.500
  22056358.921    22056360.727   115906999.7004   90317152.2034   22056358.466
  22056360.391          50.250          41.750
  20581621.781                   108157299.5234   84278342.7294   20581621.143
  20581619.418          48.750          43.750
  23755064.940                   124833709.8604   97273026.7904   23755065.239
  23755064.295          41.750          25.250
  23853164.013    23853162.183   125349228.4434   97674735.1484   23853163.526
  23853162.743          43.500          30.500
  20970773.811                   110202204.1044   85871845.6884   20970773.235
  20970772.668          51.750          42.500
  24660855.328    24660856.954   129593724.4774  100982136.8074   24660855.703
  24660856.562          41.000          27.750
  21747499.915                   114283915.9894   89052408.6894   21747499.192
  21747497.207          48.000          40.000
  20551456.429    20551457.652   107998671.9074   84154810.4764   20551456.012
  20551457.568          51.500          46.000
 19  1 25  1 22 30.0000000  0 10G01G07G08G11G13G17G18G27G28G30
  21579168.570    21579170.493   113399466.7504   88363125.8874   21579168.733
  21579170.922          48.750          41.500
  21027804.569    21027802.756   110502055.1214   86105375.8534   21027804.209
  21027802.721          52.750          43.250
  22071674.015    22071675.180   115987478.3864   90379862.8624   22071673.354
  22071675.077          50.750          42.000
  20576299.090                   108129328.1754   84256546.8954   20576298.562
  20576296.637          49.000          43.750
  23753478.697                   124825372.4834   97266530.1304   23753478.744
  23753477.049          42.750          26.250
  23836038.367    23836036.306   125259231.1064   97604607.3624   23836037.524
  23836037.435          43.750          31.250
  20967305.199                   110183976.2564   85857642.1814   20967304.464
  20967303.861          52.000          42.250
  24680874.335    24680874.485   129698925.7654  101064111.8204   24680873.717
  24680874.368          40.000          26.000
  21737050.370                   114229006.4264   89009622.0244   21737049.640
  21737048.761          47.250          39.750
  20551419.649    20551420.614   107998477.0584   84154658.6484   20551418.962
  20551420.468          52.000          46.250
 19  1 25  1 23  0.0000000  0 10G01G07G08G11G13G17G18G27G28G30
  21564677.507    21564679.009   113323313.7534   88303785.9144   21564677.578
  21564679.419          49.250          41.500
  21040274.784    21040272.743   110567587.0434   86156439.6764   21040274.564
  21040273.066          52.500          43.250
  22087028.476    22087030.365   116068167.6834   90442737.6324   22087027.914
  22087029.578          50.750          41.750
  20571089.076                   108101949.5884   84235212.9364   20571088.551
  20571086.643          48.500          44.000
  23752005.318                   124817625.3944   97260493.4404   23752005.153
  23752003.076          43.250          26.500
  23818948.726    23818946.571   125169422.6644   97534626.7584   23818948.081
  23818946.873          44.250          30.500
  20963963.866                   110166419.1244   85843961.3074   20963963.485
  20963963.182          51.750          42.250
  24700895.400    24700896.468   129804132.8654  101146091.4304   24700894.733
  24700896.598          40.000          27.750
  21726630.806                   114174250.3584   88966954.9634   21726629.984
  21726628.855          46.750          39.750
  20551494.509    20551495.860   107998871.0324   84154965.6344   20551494.155
  20551495.279          51.500          46.000
 19  1 25  1 23 30.0000000  0 10G01G07G08G11G13G17G18G27G28G30
  21550279.328    21550280.331   113247649.2854   88244826.6064   21550278.976
  21550280.979          48.750          41.500
  21052838.777    21052837.265   110633611.3894   86207887.2074   21052838.464
  21052836.890          52.500          43.250
  22102422.784    22102424.697   116149065.3744   90505774.7954   22102421.977
  22102424.037          50.750          41.500
  20565992.168                   108075164.4174   84214341.3894   20565991.480
  20565989.815          48.500          44.000
  23750642.664                   124810468.2554   97254916.4204   23750642.423
  23750640.212          42.750          26.000
  23801893.927    23801892.882   125079803.9584   97464794.0264   23801893.449
  23801892.873          44.000          31.250
  20960750.373                   110149533.8284   85830803.9324   20960750.403
  20960749.695          51.500          42.250
  24720915.979    24720917.344   129909344.4404  101228074.4244   24720915.087
  24720916.754          39.000          27.000
  21716240.660                   114119648.5624   88924408.1174   21716239.724
  21716238.101          47.250          40.000
  20551681.744    20551682.724   107999854.1894   84155731.7274   20551681.243
  20551682.472          51.750          46.000
 19  1 25  1 24  0.0000000  0 10G01G07G08G11G13G17G18G27G28G30
  21535973.971    21535975.312   113172476.0964   88186250.0984   21535974.226
  21535975.923          49.250          41.500
  21065496.506    21065494.483   110700126.5034   86259717.1514   21065496.089
  21065494.487          52.750          43.500
  22117856.746    22117858.398   116230169.8324   90568973.0754   22117856.214
  22117857.610          51.250          42.000
  20561008.080                   108048973.1184   84193932.5974   20561007.323
  20561005.420          48.500          44.000
  23749393.333                   124803901.2294   97249799.2764   23749393.430
  23749390.768          43.500          26.000
  23784877.106    23784875.796   124990375.9834   97395109.9024   23784876.598
  23784874.779          44.750          30.750
  20957665.545                   110133320.8994   85818170.4834   20957665.159
  20957664.634          52.000          42.250
  24740936.560    24740938.201   130014558.9534  101310059.7534   24740936.747
  24740938.071          38.000          25.250
  21705879.635                   114065201.4734   88881981.8184   21705878.559
  21705877.433          47.000          39.750
  20551980.971    20551982.150   108001426.9854   84156957.2794   20551980.467
  20551981.788          52.000          46.000
 19  1 25  1 24 30.0000000  0 10G01G07G08G11G13G17G18G27G28G30
  21521763.164    21521764.230   113097796.9304   88128058.5744   21521763.358
  21521765.022          49.000          41.750
  21078246.987    21078245.025   110767130.7184   86311928.2154   21078246.587
  21078245.031          53.000          43.250
  22133329.006    22133330.725   116311478.8124   90632330.7174   22133328.448
  22133329.972          51.000          41.750
  20556137.396                   108023376.8274   84173987.4364   20556136.716
  20556134.584          49.250          43.750
  23748255.313                   124797923.7924   97245141.5464   23748254.301
  23748254.254          42.250          25.750
  23767896.021    23767894.222   124901139.5574   97325575.0544   23767895.570
  23767894.241          45.750          31.500
  20954708.239                   110117781.0514   85806061.5104   20954708.057
  20954707.108          51.500          42.000
  24760958.391    24760959.810   130119774.9274  101392046.2404   24760959.103
  24760961.006          37.750          25.500
  21695548.222                   114010910.0034   88839676.7684   21695547.531
  21695546.419          47.250          40.000
  20552392.361    20552393.515   108003589.7814   84158642.5704   20552392.057
  20552393.306          51.250          46.000
 19  1 25  1 25  0.0000000  0 10G01G07G08G11G13G17G18G27G28G30
  21507646.430    21507648.399   113023614.4044   88070254.0394   21507646.326
  21507648.634          49.250          41.750
  21091089.972    21091088.646   110834622.1484   86364518.9284   21091089.793
  21091088.340          53.500          43.500
  22148840.481    22148842.419   116392990.8474   90695846.5884   22148839.668
  22148841.467          51.000          41.750
  20551379.833                   107998376.0494   84154506.3294   20551379.064
  20551377.202          49.250          44.000
  23747230.638                   124792536.1664   97240943.3794   23747229.538
  23747229.408          42.000          25.750
  23750950.449    23750949.932   124812095.5574   97256190.1414   23750950.695
  23750949.657          45.000          31.750
  20951879.461                   110102915.0574   85794477.6164   20951878.964
  20951878.443          51.750          42.250
  24780981.007    24780983.741   130224991.0454  101474032.7364   24780982.660
  24780982.657          39.000          26.000
  21685246.694                   113956774.6334   88797493.3724   21685245.792
  21685244.584          47.500          40.250
  20552916.338    20552917.564   108006342.9404   84160787.8874   20552915.845
  20552917.356          50.750          46.000
 19  1 25  1 25 30.0000000  0 10G01G07G08G11G13G17G18G27G28G30
  21493625.322    21493626.599   112949931.2184   88012838.5894   21493625.063
  21493627.223          49.250          41.750
  21104025.732    21104024.349   110902599.1154   86417487.9754   21104025.457
  21104023.826          52.750          43.500
  22164389.953    22164391.157   116474703.9134   90759519.1004   22164389.267
  22164390.808          51.000          41.500
  20546735.310                   107973971.5934   84135489.8864   20546734.903
  20546733.227          48.500          44.000
  23746317.739                   124787737.7644   97237204.3694   23746316.785
  23746315.057          43.250          25.000
  23734042.955    23734041.916   124723245.0594   97186955.9964   23734042.773
  23734041.995          44.500          32.000
  20949178.827                   110088723.3414   85783419.1474   20949178.448
  20949178.204          51.500          42.250
  24801003.739    24801004.099   130330205.8004  101556018.2434   24801002.631
  24801003.364          38.750          24.000
  21674974.676                   113902796.0414   88755432.1304   21674974.037
  21674972.760          46.750          40.000
  20553553.064    20553553.730   108009686.8024   84163393.4894   20553552.462
  20553553.693          51.000          46.250
 19  1 25  1 26  0.0000000  0 10G01G07G08G11G13G17G18G27G28G30
  21479698.777    21479700.649   112876749.9724   87955814.2534   21479699.326
  21479701.103          49.750          41.750
  21117053.249    21117051.593   110971059.8054   86470833.9564   21117053.018
  21117051.480          52.750          43.000
  22179977.237    22179978.726   116556616.1894   90823346.8544   22179976.365
  22179978.171          50.750          41.000
  20542205.341                   107950163.8154   84116938.3844   20542204.614
  20542202.688          47.750          43.750
  23745514.959                   124783528.8594   97233924.6804   23745515.412
  23745513.986          41.750          24.250
  23717172.174    23717171.641   124634589.0274   97117873.4004   23717172.221
  23717171.137          44.500          31.250
  20946606.623                   110075206.6624   85772886.6664   20946606.420
  20946605.799          52.000          42.500
  24821024.339    24821025.580   130435417.8284  101638001.6334   24821023.866
  24821025.620          39.750          26.000
  21664732.975                   113848974.5224   88713493.2874   21664732.083
  21664730.835          46.500          40.000
  20554301.952    20554302.744   108013621.7094   84166459.6484   20554301.225
  20554302.249          51.250          46.250
 19  1 25  1 26 30.0000000  0 10G01G07G08G11G13G17G18G27G28G30
  21465868.909    21465871.104   112804073.3714   87899183.1544   21465869.038
  21465871.190          48.500          42.000
  21130172.499    21130170.834   111040002.7174   86524555.6854   21130172.363
  21130171.218          52.000          43.250
  22195601.849    22195603.475   116638725.7054   90887328.2924   22195601.300
  22195603.214          50.500          41.000
  20537788.173                   107926953.2474   84098852.2294   20537787.816
  20537785.786          48.750          43.750
  23744827.333                   124779908.6904   97231103.7834   23744826.700
  23744824.504          43.750          24.000
  23700339.374    23700337.900   124546128.3294   97048943.0104   23700338.601
  23700338.263          45.250          31.500
  20944162.912                   110062365.5374   85762880.5984   20944162.554
  20944162.495          51.250          42.250
  24841045.110    24841045.419   130540625.6924  101719981.7574   24841045.039
  24841045.240          40.750          27.000
  21654521.185                   113795311.4194   88671677.8984   21654520.422
  21654519.171          47.000          40.250
  20555163.140    20555163.903   108018147.9344   84169986.5794   20555162.297
  20555163.811          51.500          46.000
 19  1 25  1 27  0.0000000  0 10G01G07G08G11G13G17G18G27G28G30
  21452136.155    21452137.380   112731903.9044   87842947.2404   21452135.887
  21452137.648          49.500          42.000
  21143382.941    21143381.889   111109425.7864   86578651.5734   21143383.079
  21143382.135          52.250          43.000
  22211263.998    22211265.884   116721030.7334   90951462.0764   22211263.452
  22211265.909          49.750          41.000
  20533485.075                   107904340.5954   84081231.9974   20533484.682
  20533482.967          48.250          44.000
  23744249.651                   124776876.7624   97228741.2404   23744250.555
  23744248.160          42.500          24.750
  23683542.343    23683541.340   124457863.8964   96980165.5424   23683541.974
  23683541.351          44.750          31.000
  20941848.036                   110050200.4934   85753401.3454   20941847.797
  20941847.397          51.750          42.500
  24861063.833    24861064.347   130645828.0164  101801957.6344   24861063.111
  24861064.862          41.500          27.250
  21644339.802                   113741806.9334   88629986.0884   21644339.096
  21644337.572          48.000          40.250
  20556136.660    20556137.888   108023265.7304   84173974.4624   20556136.285
  20556137.581          51.500          46.000
 19  1 25  1 27 30.0000000  0 10G01G07G08G11G13G17G18G27G28G30
  21438499.676    21438501.057   112660244.3304   87787108.6324   21438499.456
  21438501.361          49.000          42.000
  21156684.959    21156683.786   111179327.0584   86633120.0884   21156685.032
  21156683.697          52.750          43.250
  22226963.410    22226964.933   116803529.0354   91015746.4664   22226962.710
  22226964.175          50.250          41.250
  20529296.006                   107882326.2954   84064077.9984   20529295.639
  20529293.844          48.000          44.000
  23743784.958                   124774433.3714   97226837.2954   23743784.582
  23743783.724          41.500          24.250
  23666784.895    23666782.932   124369796.4584   96911541.5684   23666784.109
  23666782.808          45.250          31.750
  20939661.969                   110038712.0204   85744449.2964   20939661.492
  20939661.277          51.750          42.500
  24881082.551    24881083.509   130751023.3904  101883928.0774   24881082.218
  24881083.333          42.000          27.500
  21634188.508                   113688461.9614   88588418.5824   21634187.826
  21634186.144          47.250          40.250
  20557223.512    20557224.337   108028975.3664   84178423.5264   20557222.833
  20557224.040          51.000          46.000
 19  1 25  1 28  0.0000000  0 10G01G07G08G11G13G17G18G27G28G30
  21424960.638    21424961.961   112589097.1774   87731669.3054   21424960.676
  21424962.573          49.500          42.000
  21170077.519    21170076.125   111249705.1264   86687960.1334   21170077.138
  21170076.117          52.500          43.000
  22242698.395    22242700.043   116886219.1884   91080180.3414   22242698.248
  22242699.620          49.750          41.000
  20525221.003                   107860911.0524   84047390.8014   20525220.215
  20525218.372          48.750          43.750
  23743432.368                   124772578.0744   97225391.6054   23743431.494
  23743429.732          42.000          23.500
  23650064.027    23650061.338   124281926.9364   96843071.8344   23650063.428
  23650062.431          46.000          33.000
  20937604.748                   110027900.7214   85736024.9104   20937604.502
  20937603.650          51.750          42.250
  24901098.404    24901099.918   130856210.4984  101965892.0294   24901098.898
  24901100.148          41.500          27.000
  21624067.599                   113635277.1634   88546975.8884   21624066.851
  21624065.192          47.750          40.250
  20558422.504    20558423.278   108035277.0714   84183333.9394   20558422.054
  20558423.241          51.500          46.000
 19  1 25  1 28 30.0000000  0 10G01G07G08G11G13G17G18G27G28G30
  21411519.447    21411521.253   112518464.9864   87676631.2514   21411519.540
  21411521.438          48.500          42.000
  21183560.658    21183559.026   111320557.9244   86743170.0844   21183560.181
  21183559.086          52.750          42.750
  22258470.249    22258471.301   116969099.3094   91144762.2514   22258469.677
  22258471.028          49.500          41.000
  20521259.323                   107840095.2434   84031170.7044   20521259.227
  20521257.453          48.250          44.000
  23743190.328                   124771310.4494   97224403.8324   23743190.081
  23743189.991          41.500          24.500
  23633380.197    23633378.612   124194256.1674   96774756.9884   23633379.429
  23633378.807          46.750          33.250
  20935676.302                   110017766.8574   85728128.3954   20935675.695
  20935675.255          50.750          42.250
  24921112.172    24921113.361   130961387.8304  102047848.3654   24921112.074
  24921113.737          40.000          25.000
  21613977.479                   113582253.2614   88505658.5694   21613976.689
  21613975.187          48.000          40.250
  20559734.367    20559735.435   108042171.0454   84188705.8634   20559734.014
  20559735.233          51.250          46.000
 19  1 25  1 29  0.0000000  0 10G01G07G08G11G13G17G18G27G28G30
  21398177.389    21398179.310   112448350.3184   87621996.4594   21398177.663
  21398179.257          49.000          42.500
  21197133.305    21197131.745   111391883.8394   86798748.6924   21197132.917
  21197131.840          52.500          42.750
  22274278.162    22274279.364   117052167.4804   91209490.6954   22274277.246
  22274278.929          49.500          41.500
  20517412.507                   107819879.6544   84015418.2904   20517412.196
  20517410.429          48.750          43.500
  23743061.324                   124770630.0094   97223873.5894   23743060.853
  23743059.495          41.000          24.500
  23616735.309    23616733.967   124106785.0164   96706597.6614   23616735.261
  23616733.267          48.000          33.750
  20933876.857                   110008310.9694   85720760.1764   20933876.517
  20933875.859          50.750          42.500
  24941126.154    24941127.492   131066554.0914  102129796.1384   24941124.770
  24941126.157          41.250          25.750
  21603917.623                   113529390.8284   88464467.0624   21603917.128
  21603916.141          48.000          40.250
  20561159.166    20561160.102   108049657.4424   84194539.4144   20561158.633
  20561159.686          51.500          46.250
 19  1 25  1 29 30.0000000  0 10G01G07G08G11G13G17G18G27G28G30
  21384933.881    21384935.552   112378755.7104   87567766.9084   21384933.684
  21384935.671          49.750          42.250
  21210795.248    21210794.055   111463680.7574   86854694.3324   21210795.618
  21210794.254          51.750          42.500
  22290120.501    22290121.882   117135422.0704   91274364.3874   22290119.805
  22290121.317          49.000          41.000
  20513680.253                   107800264.1434   84000133.4764   20513679.428
  20513677.808          48.750          43.750
  23743043.561                   124770536.4584   97223800.7174   23743043.282
  23743041.889          41.000          24.000
  23600127.872    23600126.270   124019514.4174   96638594.6174   23600127.461
  23600126.234          48.500          33.750
  20932206.689                   109999533.5614   85713920.6394   20932206.301
  20932205.546          51.250          42.500
  24961135.831    24961135.860   131171707.9644  102211734.1714   24961135.028
  24961136.231          40.750          26.500
  21593889.434                   113476690.6774   88423402.0174   21593888.729
  21593887.461          48.250          40.250
  20562696.380    20562697.146   108057736.4624   84200834.7504   20562695.975
  20562697.187          51.250          46.000
 19  1 25  1 30  0.0000000  0 10G01G07G08G11G13G17G18G27G28G30
  21371790.045    21371791.302   112309683.6804   87513944.5624   21371789.916
  21371791.686          49.000          42.250
  21224547.692    21224545.993   111535946.6944   86911005.4304   21224547.231
  21224546.187          52.250          42.750
  22305998.531    22305999.947   117218861.2114   91339381.8924   22305997.977
  22305999.332          48.750          41.000
  20510061.907                   107781249.4514   83985316.8474   20510061.320
  20510059.474          49.000          44.000
  23743136.660                   124771029.2924   97224184.7394   23743135.289
  23743135.421          40.250          24.500
  23583559.295    23583557.777   123932445.4004   96570748.6244   23583558.902
  23583557.549          48.250          32.750
  20930665.377                   109991434.8294   85707609.9464   20930665.046
  20930664.469          50.500          42.500
  24981142.974    24981144.787   131276848.1254  102293661.5454   24981142.721
  24981144.308          39.250          26.250
  21583892.007                   113424153.3314   88382463.8274   21583891.401
  21583889.664          48.750          40.250
  20564346.571    20564347.558   108066408.2134   84207591.9584   20564346.154
  20564347.259          51.250          46.000
 19  1 25  1 30 30.0000000  0 10G01G07G08G11G13G17G18G27G28G30
  21358745.749    21358747.578   112241136.7204   87460531.3684   21358745.768
  21358747.637          49.250          42.250
  21238388.416    21238387.318   111608680.1564   86967680.8294   21238388.215
  21238387.299          53.000          43.000
  22321910.943    22321912.175   117302482.8194   91404541.5854   22321910.491
  22321911.771          48.500          40.750
  20506557.947                   107762835.8554   83970968.5854   20506557.105
  20506555.483          49.250          43.750
  23743343.076                   124772108.2144   97225025.4754   23743342.563
  23743340.896          41.750          25.000
  23567028.320    23567026.962   123845578.3794   96503060.0594   23567028.661
  23567027.610          46.750          32.500
  20929253.462                   109984015.0664   85701828.3074   20929253.173
  20929252.408          51.250          42.500
  25001148.994    25001148.334   131381973.2004  102375577.2084   25001148.162
  25001148.030          40.750          26.250
  21573925.904                   113371779.7154   88341653.2234   21573925.295
  21573923.489          49.500          40.500
  20566109.937    20566110.641   108075672.7904   84214811.1164   20566109.188
  20566110.502          51.500          46.250
 19  1 25  1 31  0.0000000  0 10G01G07G08G11G13G17G18G27G28G30
  21345802.486    21345803.913   112173117.3494   87407529.2874   21345802.221
  21345803.982          50.000          42.750
  21252317.330    21252315.990   111681878.9594   87024718.8564   21252317.367
  21252315.965          51.750          42.250
  22337858.450    22337859.604   117386285.4604   91469842.3504   22337857.784
  22337858.772          48.250          40.500
  20503168.293                   107745024.0604   83957089.2764   20503167.598
  20503165.842          48.500          43.750
  23743659.382                   124773772.7244   97226322.4584   23743658.991
  23743658.318          40.000          24.250
  23550537.380    23550535.387   123758914.4864   96435529.8044   23550537.509
  23550536.361          47.000          32.750
  20927970.602                   109977274.8094   85696576.1634   20927970.379
  20927969.803          51.000          42.500
  25021150.038    25021151.469   131487081.8354  102457479.9644   25021148.280
  25021150.853          39.250          26.000
  21563990.883                   113319570.1344   88300970.4314   21563990.149
  21563988.432          49.500          40.500
  20567985.469    20567986.270   108085530.2934   84222492.2844   20567985.021
  20567986.014          51.500          46.000
 19  1 25  1 31 30.0000000  0 10G01G07G08G11G13G17G18G27G28G30
  21332959.630    21332961.117   112105627.9814   87354940.1924   21332959.270
  21332961.131          49.500          42.500
  21266334.919    21266333.580   111755540.7554   87082117.6404   21266334.762
  21266333.649          52.000          42.500
  22353839.246    22353840.710   117470267.1864   91535282.6604   22353838.835
  22353840.114          48.000          40.500
  20499893.460                   107727814.1684   83943678.9844   20499892.843
  20499891.012          48.750          44.000
  23744087.488                   124776022.1794   97228075.2954   23744086.219
  23744085.065          39.250          24.000
  23534085.450    23534082.609   123672454.4574   96368158.3624   23534084.547
  23534082.194          47.500          33.000
  20926817.912                   109971214.0574   85691853.5004   20926817.177
  20926816.573          50.750          42.500
  25041149.336    25041148.561   131592172.7774  102539368.9794   25041147.868
  25041148.771          40.000          27.250
  21554086.954                   113267525.8424   88260416.4394   21554086.131
  21554084.599          49.250          40.250
  20569974.375    20569974.983   108095980.7694   84230635.5074   20569973.517
  20569974.762          51.000          46.000
 19  1 25  1 32  0.0000000  0 10G01G07G08G11G13G17G18G27G28G30
  21320217.980    21320219.696   112038671.0654   87302765.9854   21320217.673
  21320219.844          49.000          42.750
  21280440.275    21280438.657   111829663.9134   87139875.9274   21280439.778
  21280438.663          52.000          42.500
  22369854.158    22369855.323   117554426.1054   91600861.0414   22369854.007
  22369855.257          47.750          40.500
  20496732.736                   107711206.4794   83930737.9264   20496732.329
  20496730.710          48.500          44.000
  23744626.202                   124778855.9214   97230283.4094   23744626.275
  23744625.810          40.250          25.000
  23517670.553    23517669.089   123586199.3304   96300946.6074   23517669.800
  23517669.079          47.000          32.500
  20925793.771                   109965833.2454   85687660.6614   20925793.347
  20925792.555          50.500          42.500
  25061143.812    25061143.199   131697244.7104  102621243.1964   25061141.496
  25061142.405          39.500          26.250
  21544214.812                   113215647.3324   88219991.6284   21544213.755
  21544212.427          49.500          40.500
  20572075.775    20572076.391   108107024.2554   84239240.8214   20572075.215
  20572076.529          51.000          45.750
 19  1 25  1 32 30.0000000  0 10G01G07G08G11G13G17G18G27G28G30
  21307578.454    21307579.557   111972249.0484   87251008.5904   21307577.989
  21307580.126          49.250          42.750
  21294632.624    21294631.480   111904246.7904   87197992.4344   21294632.563
  21294631.235          52.250          42.500
  22385902.509    22385904.395   117638760.6644   91666576.2864   22385901.610
  22385903.462          47.000          40.000
  20493687.445                   107695201.0894   83918266.2014   20493686.764
  20493685.009          49.000          43.750
  23745276.970                   124782273.5424   97232946.4634   23745276.681
  23745275.753          40.500          24.000
  23501295.931    23501294.472   123500149.8114   96233895.0214   23501295.629
  23501294.048          46.750          32.750
  20924899.122                   109961132.4114   85683997.6754   20924898.962
  20924898.295          51.250          42.500
  25081132.657    25081134.436   131802296.3284  102703101.5404   25081132.543
  25081134.027          38.250          27.250
  21534374.323                   113163935.4894   88179696.6874   21534373.351
  21534371.881          50.000          40.500
  20574290.064    20574290.928   108118660.7724   84248308.2314   20574289.363
  20574290.692          51.500          45.750
 19  1 25  1 33  0.0000000  0 10G01G07G08G11G13G17G18G27G28G30
  21295040.506    21295041.962   111906364.3354   87199669.8794   21295040.624
  21295042.517          49.000          43.000
  21308912.282    21308911.019   111979287.3464   87256465.5834   21308912.339
  21308911.180          51.000          42.750
  22401983.777    22401985.557   117723268.8394   91732426.8074   22401982.993
  22401984.858          47.500          40.250
  20490756.279                   107679798.4484   83906264.1464   20490755.802
  20490753.812          48.500          43.750
  23746038.975                   124786274.5684   97236064.1454   23746037.848
  23746036.734          40.500          24.000
  23484960.776    23484959.483   123414306.8114   96167004.3854   23484960.039
  23484959.327          47.000          33.500
  20924134.007                   109957111.9774   85680864.8794   20924133.606
  20924133.058          51.000          42.500
  25101118.993    25101120.016   131907326.3694  102784943.1024   25101119.463
  25101119.258          37.000          25.250
  21524565.860                   113112390.6184   88139531.8514   21524565.136
  21524563.424          50.500          40.750
  20576617.058    20576618.276   108130890.3124   84257837.7434   20576616.478
  20576617.932          50.750          46.250
 19  1 25  1 33 30.0000000  0 10G01G07G08G11G13G17G18G27G28G30
  21282606.263    21282607.606   111841019.3014   87148751.6884   21282605.828
  21282608.084          49.250          42.750
  21323279.174    21323277.922   112054782.9434   87315293.3034   21323278.764
  21323277.600          52.500          42.500
  22418098.271    22418099.052   117807949.0564   91798411.3884   22418097.724
  22418098.681          48.000          40.000
  20487940.014                   107664999.2264   83894732.2844   20487939.387
  20487937.516          49.500          44.000
  23746910.423                   124790858.3354   97239635.8954   23746909.985
  23746908.225          39.750          23.250
  23468664.522    23468663.901   123328670.9254   96100275.1444   23468663.753
  23468663.811          46.750          34.250
  20923498.164                   109953771.9074   85678262.2254   20923498.074
  20923497.679          50.750          42.500
  25121102.759    25121102.171   132012333.5764  102866766.8724   25121101.382
  25121102.872          38.000          24.500
  21514789.220                   113061013.9194   88099498.0524   21514788.622
  21514786.891          51.000          41.000
  20579057.151    20579058.143   108143712.8544   84267829.3294   20579056.690
  20579058.052          51.750          46.000
 19  1 25  1 34  0.0000000  0 10G01G07G08G11G13G17G18G27G28G30
  21270273.979    21270275.657   111776216.3344   87098255.8854   21270274.263
  21270275.995          49.000          42.750
  21337731.711    21337730.343   112130732.3174   87374474.6174   21337731.363
  21337730.238          51.000          41.750
  22434244.470    22434246.389   117892799.2704   91864528.4434   22434243.776
  22434246.017          47.750          40.000
  20485238.857                   107650803.4464   83883670.6504   20485238.223
  20485236.280          49.250          44.000
  23747892.466                   124796024.0114   97243661.0644   23747893.321
  23747891.457          39.250          23.000
  23452408.094    23452406.826   123243243.1244   96033708.0484   23452407.843
  23452407.399          48.250          35.500
  20922992.571                   109951112.3004   85676189.8044   20922991.943
  20922991.406          51.000          42.250
  25141077.331    25141079.839   132117316.5734  102948571.7734   25141079.079
  25141079.898          34.500          23.000
  21505044.536                   113009806.0354   88059595.7984   21505043.747
  21505042.455          50.750          41.000
  20581610.033    20581611.047   108157128.3204   84278282.9334   20581609.557
  20581610.850          51.000          45.750
 19  1 25  1 34 30.0000000  0 10G01G07G08G11G13G17G18G27G28G30
  21258046.198    21258048.011   111711957.8174   87048184.3404   21258046.106
  21258048.133          49.250          42.750
  21352270.118    21352269.497   112207133.2124   87434007.7624   21352269.803
  21352268.839          51.500          42.000
  22450423.274    22450424.693   117977818.1144   91930776.8884   22450422.729
  22450424.243          48.250          40.250
  20482652.306                   107637211.2464   83873079.3344   20482651.464
  20482649.580          49.000          43.750
  23748986.991                   124801771.3274   97248139.4874   23748986.824
  23748986.295          39.500          25.000
  23436191.835    23436190.844   123158024.1954   95967303.7074   23436191.333
  23436190.821          48.500          35.500
  20922615.663                   109949133.1734   85674647.6204   20922615.421
  20922614.649          51.250          42.250
  25161051.628    25161053.931   132222274.3054  103030356.9364   25161050.976
  25161053.750          35.500          25.250
  21495332.067                   112958767.6084   88019825.5984   21495331.555
  21495330.114          50.250          41.000
  20584275.415    20584276.716   108171136.6344   84289198.4984   20584275.133
  20584276.573          51.500          45.750
 19  1 25  1 35  0.0000000  0 10G01G07G08G11G13G17G18G27G28G30
  21245922.460    21245923.869   111648246.0144   86998538.8054   21245922.279
  21245924.216          49.000          42.750
  21366894.216    21366892.794   112283983.5114   87493891.0834   21366893.906
  21366893.106          51.000          42.000
  22466633.510    22466634.749   118063003.4634   91997155.0774   22466633.100
  22466634.459          48.500          40.250
  20480180.452                   107624222.7484   83862958.4264   20480180.048
  20480178.054          49.000          43.750
  23750191.232                   124808099.2664   97253070.3344   23750189.962
  23750190.516          39.500          24.500
  23420014.821    23420013.353   123073015.7074   95901063.3504   23420014.470
  23420013.379          47.750          34.250
  20922368.454                   109947834.7964   85673635.9084   20922368.358
  20922367.538          51.000          42.500
  25181019.847    25181021.459   132327205.3274  103112121.3324   25181021.355
  25181021.320          35.750          24.250
  21485652.116                   112907899.4064   87980188.0334   21485651.524
  21485650.053          50.250          40.750
  20587054.228    20587055.515   108185737.6994   84300575.9464   20587053.639
  20587055.058          51.500          45.750
 19  1 25  1 35 30.0000000  0 10G01G07G08G11G13G17G18G27G28G30
  21233902.884    21233904.570   111585083.2914   86949321.1274   21233902.747
  21233904.852          49.250          42.750
  21381603.315    21381602.031   112361281.1834   87554123.0244   21381603.492
  21381602.163          51.000          42.000
  22482874.758    22482876.358   118148353.9024   92063661.9084   22482874.375
  22482876.177          48.500          40.250
  20477823.717                   107611837.4084   83853307.5134   20477823.022
  20477821.196          48.500          43.750
  23751506.572                   124815007.1254   97258453.0614   23751505.243
  23751504.910          40.500          25.750
  23403878.334    23403877.238   122988216.8824   95834986.3674   23403878.416
  23403876.460          48.250          34.000
  20922251.418                   109947217.2674   85673154.7254   20922250.793
  20922250.278          51.500          42.250
  25200980.667    25200984.223   132432108.5494  103193864.0204   25200980.474
  25200983.205          33.500          22.000
  21476004.811                   112857202.0544   87940683.6014   21476003.932
  21476002.820          50.250          40.750
  20589945.580    20589946.437   108200931.4034   84312415.1894   20589944.941
  20589946.252          51.500          45.750
 19  1 25  1 36  0.0000000  0 10G01G07G08G11G13G17G18G27G28G30
  21221988.118    21221989.940   111522471.8944   86900533.0414   21221988.186
  21221990.356          50.250          43.000
  21396397.995    21396395.827   112439024.1564   87614701.9444   21396397.386
  21396396.255          51.750          42.000
  22499146.917    22499149.382   118233867.5714   92130295.9354   22499146.726
  22499148.713          48.000          39.500
  20475581.657                   107600056.7874   83844127.8114   20475581.337
  20475579.591          49.250          44.000
  23752930.835                   124822494.2084   97264287.1684   23752930.323
  23752930.339          40.250          25.750
  23387781.490    23387779.561   122903629.1864   95769073.8734   23387781.098
  23387779.369          48.000          33.500
  20922263.093                   109947280.2794   85673203.8244   20922262.807
  20922262.152          52.000          42.500
  25220939.422    25220940.936   132536982.6494  103275584.1204   25220938.594
  25220940.079          35.500          21.750
  21466390.198                   112806676.5094   87901313.0444   21466389.578
  21466387.783          50.500          40.750
  20592949.550    20592950.582   108216717.5724   84324716.0964   20592949.008
  20592950.263          51.000          45.750
 19  1 25  1 36 30.0000000  0 10G01G07G08G11G13G17G18G27G28G30
  21210179.194    21210180.751   111460414.1204   86852176.3524   21210178.749
  21210181.013          49.750          43.250
  21411275.992    21411274.788   112517209.8994   87675625.8824   21411275.525
  21411274.525          51.500          42.000
  22515450.890    22515452.640   118319542.8784   92197055.9124   22515450.412
  22515452.273          48.250          39.750
  20473455.448                   107588880.6974   83835419.1734   20473454.534
  20473452.882          49.500          44.000
  23754466.063                   124830560.1064   97270572.2584   23754466.127
  23754464.974          41.000          25.250
  23371725.573    23371724.027   122819253.5014   95703326.6094   23371725.327
  23371724.110          48.000          33.750
  20922404.996                   109948023.7944   85673783.1824   20922404.352
  20922403.611          51.250          42.500
  25240889.648    25240891.137   132641826.3594  103357280.4954   25240890.922
  25240890.458          35.250          21.250
  21456808.431                   112756323.4734   87862076.9034   21456807.734
  21456806.095          50.750          41.000
  20596066.245    20596067.374   108233096.0474   84337478.5364   20596065.556
  20596067.118          51.250          46.000
 19  1 25  1 37  0.0000000  0 10G01G07G08G11G13G17G18G27G28G30
  21198475.226    21198477.434   111398912.2164   86804252.8124   21198475.358
  21198477.339          49.750          43.000
  21426238.282    21426236.525   112595837.0154   87736893.7524   21426237.871
  21426236.716          52.000          41.750
  22531784.819    22531786.754   118405377.7994   92263940.2684   22531783.975
  22531785.769          48.250          39.500
  20471443.403                   107578308.7124   83827181.2614   20471442.980
  20471440.984          49.500          43.750
  23756110.256                   124839203.4714   97277307.3524   23756109.852
  23756108.938          40.500          25.250
  23355709.403    23355708.870   122735090.6854   95637745.2104   23355709.631
  23355708.635          48.000          34.250
  20922675.495                   109949447.9844   85674892.9494   20922675.250
  20922674.547          52.250          42.250
  25260838.114    25260836.131   132746638.5844  103438952.2514   25260836.005
  25260837.006          38.250          22.500
  21447259.549                   112706143.8234   87822975.8754   21447258.838
  21447257.391          50.500          41.000
  20599295.665    20599296.704   108250066.6154   84350702.3444   20599294.980
  20599296.597          51.750          45.750
 19  1 25  1 37 30.0000000  0 10G01G07G08G11G13G17G18G27G28G30
  21186878.246    21186879.631   111337968.4224   86756764.1464   21186878.357
  21186880.198          50.000          43.000
  21441284.008    21441282.549   112674903.1444   87798503.7044   21441283.871
  21441282.392          51.750          42.000
  22548148.610    22548150.087   118491370.7044   92330947.7284   22548148.671
  22548149.855          48.750          39.750
  20469546.791                   107568341.0924   83819414.2894   20469546.189
  20469544.088          49.250          44.000
  23757865.684                   124848423.7834   97284491.9964   23757865.210
  23757863.532          41.250          25.250
  23339734.941    23339732.952   122651141.3394   95572330.1474   23339734.849
  23339733.678          48.000          34.750
  20923076.100                   109951552.7564   85676533.0274   20923075.813
  20923075.195          51.000          42.250
  25280773.430    25280775.439   132851418.0624  103520598.6154   25280773.586
  25280775.254          36.750          23.000
  21437743.806                   112656138.2644   87784010.5094   21437742.977
  21437741.725          50.250          41.000
  20602637.606    20602638.862   108267629.0584   84364387.3604   20602637.196
  20602638.497          51.500          45.750
 19  1 25  1 38  0.0000000  0 10G01G07G08G11G13G17G18G27G28G30
  21175388.005    21175389.447   111277584.9784   86709712.1324   21175387.500
  21175389.675          50.000          43.000
  21456412.704    21456411.105   112754406.1794   87860454.1064   21456412.631
  21456411.396          50.750          41.750
  22564542.619    22564543.771   118577519.8174   92398076.9044   22564542.082
  22564543.541          49.000          39.750
  20467764.814                   107558977.6924   83812118.1384   20467764.351
  20467762.549          49.000          44.000
  23759728.806                   124858220.2724   97292125.6334   23759728.911
  23759727.714          40.250          25.000
  23323800.915    23323798.968   122567406.1324   95507081.9374   23323800.767
  23323798.788          47.750          34.750
  20923605.955                   109954337.8664   85678703.2464   20923605.948
  20923605.226          51.500          42.250
  25300705.940    25300709.085   132956163.6464  103602218.4964   25300706.035
  25300708.032          37.500          22.250
  21428260.988                   112606307.5004   87745181.3414   21428260.452
  21428259.073          50.250          41.000
  20606091.974    20606093.267   108285783.1384   84378533.3874   20606091.844
  20606093.054          50.750          46.000
 19  1 25  1 38 30.0000000  0  9G01G07G08G11G13G17G18G28G30
  21164004.090    21164005.842   111217764.0384   86663098.4384   21164004.187
  21164006.213          50.500          43.000
  21471624.832    21471623.673   112834344.0774   87922743.3534   21471624.580
  21471623.185          52.000          41.750
  22580965.155    22580967.633   118663823.9074   92465326.8414   22580964.765
  22580966.818          48.750          39.250
  20466097.900                   107550218.7644   83805293.0014   20466097.409
  20466095.772          49.500          44.000
  23761702.948                   124868591.9664   97300207.4424   23761702.888
  23761701.084          41.000          25.000
  23307906.776    23307905.909   122483886.1004   95442001.4164   23307906.172
  23307906.114          46.500          34.500
  20924265.222                   109957803.1874   85681403.4974   20924265.230
  20924264.510          52.000          42.250
  21418811.862                   112556652.4214   87706489.0844   21418811.355
  21418810.275          50.250          41.000
  20609659.514    20609660.224   108304528.5844   84393140.2224   20609658.850
  20609660.058          51.750          45.750
 19  1 25  1 39  0.0000000  0  9G01G07G08G11G13G17G18G28G30
  21152728.453    21152729.829   111158507.8234   86616924.7764   21152728.281
  21152729.837          50.500          43.500
  21486918.550    21486916.729   112914714.3714   87985369.5384   21486918.297
  21486917.220          50.750          41.750
  22597417.697    22597419.898   118750281.0514   92532696.0484   22597417.241
  22597419.505          48.750          39.750
  20464546.079                   107542063.9714   83798938.6144   20464545.653
  20464543.864          48.000          43.750
  23763786.562                   124879537.8744   97308736.7374   23763785.961
  23763783.814          42.000          25.750
  23292054.642    23292053.305   122400581.8954   95377089.0814   23292054.712
  23292053.732          46.750          34.500
  20925054.257                   109961948.6424   85684633.7254   20925054.142
  20925053.543          51.750          42.250
  21409396.553                   112507173.9204   87667934.4154   21409395.929
  21409394.404          50.000          41.000
  20613339.220    20613340.285   108323865.0844   84408207.6194   20613338.531
  20613339.814          50.500          45.750
 19  1 25  1 39 30.0000000  0  9G01G07G08G11G13G17G18G28G30
  21141559.905    21141561.733   111099818.3704   86571192.7374   21141559.807
  21141561.702          50.750          43.750
  21502294.356    21502292.846   112995514.9554   88048331.0014   21502294.406
  21502292.753          51.000          41.500
  22613898.022    22613900.123   118836889.4714   92600183.1254   22613897.438
  22613899.589          48.000          39.000
  20463109.380                   107534513.9524   83793055.4924   20463108.779
  20463107.029          48.750          44.000
  23765977.255                   124891057.3004   97317712.8984   23765978.739
  23765976.836          41.250          26.500
  23276243.593    23276242.242   122317494.1544   95312345.3904   23276243.301
  23276242.153          46.750          34.750
  20925972.359                   109966773.8464   85688393.6254   20925972.212
  20925971.621          51.750          42.250
  21400014.987                   112457872.4844   87629517.7244   21400014.229
  21400012.830          50.500          40.750
  20617131.241    20617131.935   108343792.3514   84423735.3594   20617130.614
  20617131.747          51.500          45.750
 19  1 25  1 40  0.0000000  0  9G01G07G08G11G13G17G18G28G30
  21130500.216    21130501.599   111041697.9204   86525904.0774   21130500.034
  21130501.616          50.750          43.500
  21517752.217    21517750.446   113076743.9654   88111626.3144   21517751.600
  21517750.346          51.500          41.750
  22630408.870    22630410.049   118923647.3574   92667786.6704   22630407.906
  22630409.698          49.000          39.250
  20461787.864                   107527568.3334   83787643.3224   20461787.238
  20461785.318          49.000          44.000
  23768277.663                   124903149.1434   97327135.0934   23768278.137
  23768276.828          41.500          26.000
  23260473.950    23260472.641   122234623.5544   95247770.8974   23260473.873
  23260472.387          47.000          34.250
  20927019.935                   109972278.5874   85692683.0424   20927019.599
  20927019.349          51.250          42.000
  21390667.076                   112408748.9964   87591239.6814   21390666.409
  21390664.791          50.500          41.250
  20621035.371    20621036.594   108364310.0334   84439723.1564   20621034.865
  20621036.214          51.000          46.000
 19  1 25  1 40 30.0000000  0  9G01G07G08G11G13G17G18G28G30
  21119548.549    21119550.316   110984148.5764   86481060.4454   21119548.518
  21119550.603          50.750          43.250
  21533290.380    21533288.620   113158398.8854   88175253.5024   21533290.194
  21533288.803          51.000          41.500
  22646946.291    22646947.975   119010553.4524   92735505.7084   22646945.795
  22646947.123          48.750          39.000
  20460581.375                   107521227.2514   83782702.2214   20460580.570
  20460578.815          49.250          44.250
  23770689.056                   124915812.6254   97337002.7394   23770689.075
  23770687.530          42.000          26.000
  23244745.364    23244744.320   122151970.8224   95183366.2304   23244745.061
  23244744.221          46.750          33.500
  20928196.674                   109978462.7484   85697501.8684   20928196.509
  20928196.128          51.500          42.250
  21381353.149                   112359804.4214   87553101.0524   21381352.398
  21381351.086          50.500          41.250
  20625051.999    20625053.374   108385417.7554   84456170.7174   20625051.518
  20625053.003          50.750          45.750
 19  1 25  1 41  0.0000000  0  9G01G07G08G11G13G17G18G28G30
  21108706.446    21108708.014   110927172.3804   86436663.4284   21108706.431
  21108708.336          50.750          43.500
  21548909.844    21548908.167   113240477.6574   88239210.9594   21548909.251
  21548908.156          50.750          41.500
  22663511.350    22663513.644   119097605.6434   92803338.5674   22663510.790
  22663512.911          47.500          38.750
  20459489.310                   107515490.5944   83778232.0934   20459488.895
  20459487.105          48.250          43.750
  23773207.887                   124929046.6274   97347314.9364   23773207.285
  23773205.591          43.000          27.500
  23229058.729    23229058.325   122069536.8684   95119131.9944   23229059.087
  23229057.574          46.500          35.500
  20929502.680                   109985325.7584   85702849.6774   20929502.458
  20929502.036          50.500          42.250
  21372073.831                   112311039.7504   87515102.6144   21372073.075
  21372071.484          50.500          41.500
  20629181.009    20629182.034   108407115.1404   84473077.7694   20629180.319
  20629181.894          50.000          45.500
 19  1 25  1 41 30.0000000  0  9G01G07G08G11G13G17G18G28G30
  21097973.722    21097975.081   110870771.4824   86392714.7054   21097973.505
  21097975.304          51.250          43.500
  21564608.458    21564606.866   113322978.0164   88303496.9254   21564608.636
  21564607.158          51.000          41.500
  22680104.753    22680106.105   119184802.5114   92871284.1834   22680104.115
  22680106.273          48.500          39.000
  20458512.648                   107510357.9154   83774232.6024   20458512.087
  20458510.497          49.000          44.000
  23775834.568                   124942850.1024   97358070.9074   23775833.723
  23775832.736          43.250          27.500
  23213413.676    23213412.858   121987322.2324   95055068.6574   23213414.389
  23213412.679          47.500          36.000
  20930937.797                   109992867.3004   85708726.1984   20930937.668
  20930937.244          50.750          42.000
  21362828.469                   112262455.4214   87477244.6974   21362827.816
  21362826.226          50.250          41.500
  20633421.997    20633423.136   108429401.7834   84490443.9734   20633421.552
  20633422.917          51.000          45.500
 19  1 25  1 42  0.0000000  0  9G01G07G08G11G13G17G18G28G30
  21087350.540    21087352.193   110814947.8224   86349215.7694   21087350.724
  21087352.714          51.000          43.500
  21580388.193    21580386.050   113405897.7744   88368109.7094   21580387.736
  21580386.201          52.500          41.250
  22696724.711    22696725.771   119272142.4074   92939341.2434   22696724.013
  22696725.604          47.500          39.000
  20457650.914                   107505829.2404   83770703.7684   20457650.273
  20457648.732          49.500          43.750
  23778567.911                   124957222.0574   97369269.8154   23778568.262
  23778567.371          41.500          26.000
  23197810.977    23197808.873   121905327.7024   94991176.8204   23197810.773
  23197809.697          47.250          35.500
  20932502.266                   110001087.3034   85715131.4064   20932501.561
  20932501.565          51.000          42.000
  21353617.335                   112214052.4174   87439528.0744   21353616.912
  21353615.189          50.000          41.500
  20637775.295    20637776.157   108452277.2474   84508269.0024   20637774.504
  20637775.958          51.500          46.000
 19  1 25  1 42 30.0000000  0  9G01G07G08G11G13G17G18G28G30
  21076838.253    21076839.880   110759703.4584   86306168.2294   21076838.176
  21076839.833          51.250          43.250
  21596245.934    21596245.178   113489234.6784   88433047.5334   21596245.745
  21596244.568          50.500          40.750
  22713371.669    22713373.258   119359623.6374   93007508.4264   22713371.112
  22713372.693          46.750          38.750
  20456903.811                   107501904.5344   83767645.5574   20456903.609
  20456901.748          49.250          44.000
  23781411.054                   124972161.5454   97380910.9504   23781412.397
  23781410.476          42.250          26.750
  23182249.678    23182248.218   121823553.9744   94927457.0544   23182249.651
  23182248.542          46.250          34.750
  20934195.098                   110009985.1774   85722064.8084   20934194.855
  20934194.477          50.500          42.500
  21344441.727                   112165831.6264   87401953.4234   21344440.608
  21344439.045          50.500          41.500
  20642240.102    20642241.232   108475741.0594   84526552.4894   20642239.374
  20642240.969          50.500          45.750
 19  1 25  1 43  0.0000000  0  9G01G07G08G11G13G17G18G28G30
  21066435.761    21066437.699   110705040.4164   86263573.6804   21066436.039
  21066438.083          51.250          43.500
  21612183.720    21612182.271   113572986.3074   88498308.5194   21612183.385
  21612182.056          50.250          40.750
  22730045.684    22730047.551   119447244.6934   93075784.5884   22730044.750
  22730046.410          46.250          38.750
  20456272.053                   107498583.4114   83765057.6654   20456271.548
  20456269.563          48.500          44.000
  23784363.349                   124987667.3004   97392993.3504   23784362.375
  23784361.689          43.500          27.000
  23166730.978    23166729.327   121742001.4384   94863909.6554   23166730.344
  23166729.415          46.500          35.000
  20936017.270                   110019560.4994   85729526.1004   20936017.191
  20936016.528          50.750          42.500
  21335300.410                   112117793.7504   87364521.3224   21335299.479
  21335297.970          50.000          41.500
  20646817.006    20646817.944   108499792.7414   84545294.0524   20646816.392
  20646817.834          50.500          45.750
