     3.03           OBSERVATION DATA    M (MIXED)           RINEX VERSION / TYPE
RTCM2RINEX 1.1.15   NRCan               20190125 00:16:29UTCPGM / RUN BY / DATE 
gfzrnx-1.11-7352    HEADER EDIT         20190126 215922 UTC COMMENT             
   918130.0800 -4346072.6500  4561977.9000                  APPROX POSITION XYZ 
GPS: All phase obs. aligned to: L1C, L2W and L5I            COMMENT             
     RNX:GRIL Message(Corr.): L1C:PC(0.00), L1W:P1(-0.25),  COMMENT             
     L2W:P2(0.00), L2X:P3(0.25), L5X:P5(0.25)               COMMENT             
GLONASS : All phase obs. aligned to: L1C and L2C            COMMENT             
     RNX:GRIL Message(Corr.): L1C:PC(0.00), L1P:P1(-0.25),  COMMENT             
     L2C:P3(0.00), L2P:P2(-0.25)                            COMMENT             
GALILEO: All phase obs. aligned to: L1B, L5I, L7I and L8I   COMMENT             
         RNX:GRIL Message(Corr.): L1X:PC(0.00),             COMMENT             
         L5X:P5(0.25), L7I:P2(0.25), L8I:P1(0.25)           COMMENT             
DBHZ                                                        SIGNAL STRENGTH UNIT
    18                  GPS                                 LEAP SECONDS        
     1     1                                                WAVELENGTH FACT L1/2
E L1X  0.00000                                              SYS / PHASE SHIFT   
E L5X  0.25000                                              SYS / PHASE SHIFT   
G L1C                                                       SYS / PHASE SHIFT   
G L1W -0.25000                                              SYS / PHASE SHIFT   
G L2W                                                       SYS / PHASE SHIFT   
G L2X  0.25000                                              SYS / PHASE SHIFT   
G L5X  0.25000                                              SYS / PHASE SHIFT   
R L1C                                                       SYS / PHASE SHIFT   
R L1P -0.25000                                              SYS / PHASE SHIFT   
R L2C                                                       SYS / PHASE SHIFT   
R L2P -0.25000                                              SYS / PHASE SHIFT   
01882               JAVAD TRE_G3TH DELTA3.6.3 Jul,01,2015   REC # / TYPE / VERS 
ALGO CACS-GSD 883160 Algonquin Park ON Canada               MARKER NAME         
        0.1000        0.0000        0.0000                  ANTENNA: DELTA H/E/N
40104M002                                                   MARKER NUMBER       
ACSOPS              NRCan                                   OBSERVER / AGENCY   
 24 R01  1 R02 -4 R03  5 R04  6 R05  1 R06 -4 R07  5 R08  6 GLONASS SLOT / FRQ #
    R09 -2 R10 -7 R11  0 R12 -1 R13 -2 R14 -7 R15  0 R16 -1 GLONASS SLOT / FRQ #
    R17  4 R18 -3 R19  3 R20  2 R21  4 R22 -3 R23  3 R24  2 GLONASS SLOT / FRQ #
 C1C    0.000 C1P    0.000 C2C    0.000 C2P    0.000        GLONASS COD/PHS/BIS 
303                 AOAD/M_T        NONE                    ANT # / TYPE        
E    8 C1X C5X D1X D5X L1X L5X S1X S5X                      SYS / # / OBS TYPES 
G   20 C1C C1W C2W C2X C5X D1C D1W D2W D2X D5X L1C L1W L2W  SYS / # / OBS TYPES 
       L2X L5X S1C S1W S2W S2X S5X                          SYS / # / OBS TYPES 
R   16 C1C C1P C2C C2P D1C D1P D2C D2P L1C L1P L2C L2P S1C  SYS / # / OBS TYPES 
       S1P S2C S2P                                          SYS / # / OBS TYPES 
    77                                                      # OF SATELLITES     
   E01  1399  1399  1399  1399  1399  1399  1399  1399      PRN / # OF OBS      
   E02   270   269   270   269   270   269   270   269      PRN / # OF OBS      
   E03   850   850   850   850   850   850   850   850      PRN / # OF OBS      
   E04  1036  1036  1036  1036  1036  1036  1036  1036      PRN / # OF OBS      
   E05   740   740   740   740   740   740   740   740      PRN / # OF OBS      
   E07   831   831   831   831   831   831   831   831      PRN / # OF OBS      
   E08   787   787   787   787   787   787   787   787      PRN / # OF OBS      
   E09   901   901   901   901   901   901   901   901      PRN / # OF OBS      
   E11   649   649   649   649   649   649   649   649      PRN / # OF OBS      
   E12  1066  1066  1066  1066  1066  1066  1066  1066      PRN / # OF OBS      
   E13  1026  1026  1026  1026  1026  1026  1026  1026      PRN / # OF OBS      
   E14   956   956   956   956   956   956   956   956      PRN / # OF OBS      
   E15   829   829   829   829   829   829   829   829      PRN / # OF OBS      
   E18   448   448   448   448   448   448   448   448      PRN / # OF OBS      
   E19  1011  1011  1011  1011  1011  1011  1011  1011      PRN / # OF OBS      
   E20  1078        1078        1078        1078            PRN / # OF OBS      
   E21  1403  1403  1403  1403  1403  1403  1403  1403      PRN / # OF OBS      
   E24   924   923   924   923   924   923   924   923      PRN / # OF OBS      
   E25   373   373   373   373   373   373   373   373      PRN / # OF OBS      
   E26  1240  1240  1240  1240  1240  1240  1240  1240      PRN / # OF OBS      
   E27  1115  1115  1115  1115  1115  1115  1115  1115      PRN / # OF OBS      
   E30   622   622   622   622   622   622   622   622      PRN / # OF OBS      
   G01   986   976   976   985   985   986   976   976   985PRN / # OF OBS      
         985   986   976   976   985   985   986   976   976PRN / # OF OBS      
         985   985                                          PRN / # OF OBS      
   G02   857   854   854               857   854   854      PRN / # OF OBS      
               857   854   854               857   854   854PRN / # OF OBS      
                                                            PRN / # OF OBS      
   G03  1045  1035  1035  1045  1045  1045  1035  1035  1045PRN / # OF OBS      
        1045  1045  1035  1035  1045  1045  1045  1035  1035PRN / # OF OBS      
        1045  1045                                          PRN / # OF OBS      
   G04  1033  1026  1026              1033  1026  1026      PRN / # OF OBS      
              1033  1026  1026              1033  1026  1026PRN / # OF OBS      
                                                            PRN / # OF OBS      
   G05   779   775   775   779         779   775   775   779PRN / # OF OBS      
               779   775   775   779         779   775   775PRN / # OF OBS      
         779                                                PRN / # OF OBS      
   G06   812   812   812   812   812   812   812   812   812PRN / # OF OBS      
         812   812   812   812   812   812   812   812   812PRN / # OF OBS      
         812   812                                          PRN / # OF OBS      
   G07   873   847   847   871         873   847   847   871PRN / # OF OBS      
               873   847   847   871         873   847   847PRN / # OF OBS      
         871                                                PRN / # OF OBS      
   G08   921   902   902   920   920   921   902   902   920PRN / # OF OBS      
         920   921   902   902   920   920   921   902   902PRN / # OF OBS      
         920   920                                          PRN / # OF OBS      
   G09  1035  1020  1020  1035  1034  1035  1020  1020  1035PRN / # OF OBS      
        1034  1035  1020  1020  1035  1034  1035  1020  1020PRN / # OF OBS      
        1035  1034                                          PRN / # OF OBS      
   G10   765   761   761   765   765   765   761   761   765PRN / # OF OBS      
         765   765   761   761   765   765   765   761   761PRN / # OF OBS      
         765   765                                          PRN / # OF OBS      
   G11   894   868   868               894   868   868      PRN / # OF OBS      
               894   868   868               894   868   868PRN / # OF OBS      
                                                            PRN / # OF OBS      
   G12  1032  1019  1019  1032        1032  1019  1019  1032PRN / # OF OBS      
              1032  1019  1019  1032        1032  1019  1019PRN / # OF OBS      
        1032                                                PRN / # OF OBS      
   G13   975   963   963               975   963   963      PRN / # OF OBS      
               975   963   963               975   963   963PRN / # OF OBS      
                                                            PRN / # OF OBS      
   G14   761   738   738               761   738   738      PRN / # OF OBS      
               761   738   738               761   738   738PRN / # OF OBS      
                                                            PRN / # OF OBS      
   G15   739   739   739   739         739   739   739   739PRN / # OF OBS      
               739   739   739   739         739   739   739PRN / # OF OBS      
         739                                                PRN / # OF OBS      
   G16   766   758   758               766   758   758      PRN / # OF OBS      
               766   758   758               766   758   758PRN / # OF OBS      
                                                            PRN / # OF OBS      
   G17   850   849   849   850         850   849   849   850PRN / # OF OBS      
               850   849   849   850         850   849   849PRN / # OF OBS      
         850                                                PRN / # OF OBS      
   G18   995   967   967               995   967   967      PRN / # OF OBS      
               995   967   967               995   967   967PRN / # OF OBS      
                                                            PRN / # OF OBS      
   G19   742   725   725               742   725   725      PRN / # OF OBS      
               742   725   725               742   725   725PRN / # OF OBS      
                                                            PRN / # OF OBS      
   G20   788   786   786               788   786   786      PRN / # OF OBS      
               788   786   786               788   786   786PRN / # OF OBS      
                                                            PRN / # OF OBS      
   G21   943   929   929               943   929   929      PRN / # OF OBS      
               943   929   929               943   929   929PRN / # OF OBS      
                                                            PRN / # OF OBS      
   G22  1044  1035  1034              1044  1035  1034      PRN / # OF OBS      
              1044  1035  1034              1044  1035  1034PRN / # OF OBS      
                                                            PRN / # OF OBS      
   G23   992   975   975               992   975   975      PRN / # OF OBS      
               992   975   975               992   975   975PRN / # OF OBS      
                                                            PRN / # OF OBS      
   G24   984   981   981   984   984   984   981   981   984PRN / # OF OBS      
         984   984   981   981   984   984   984   981   981PRN / # OF OBS      
         984   984                                          PRN / # OF OBS      
   G25  1028  1011  1011  1028  1028  1028  1011  1011  1028PRN / # OF OBS      
        1028  1028  1011  1011  1028  1028  1028  1011  1011PRN / # OF OBS      
        1028  1028                                          PRN / # OF OBS      
   G26   809   767   767   807   806   809   767   767   807PRN / # OF OBS      
         806   809   767   767   807   806   809   767   767PRN / # OF OBS      
         807   806                                          PRN / # OF OBS      
   G27   986   974   974   986   986   986   974   974   986PRN / # OF OBS      
         986   986   974   974   986   986   986   974   974PRN / # OF OBS      
         986   986                                          PRN / # OF OBS      
   G28   817   815   815               817   815   815      PRN / # OF OBS      
               817   815   815               817   815   815PRN / # OF OBS      
                                                            PRN / # OF OBS      
   G29  1004   992   992  1004        1004   992   992  1004PRN / # OF OBS      
              1004   992   992  1004        1004   992   992PRN / # OF OBS      
        1004                                                PRN / # OF OBS      
   G30   965   954   954   965   965   965   954   954   965PRN / # OF OBS      
         965   965   954   954   965   965   965   954   954PRN / # OF OBS      
         965   965                                          PRN / # OF OBS      
   G31   814   812   812   813         814   812   812   813PRN / # OF OBS      
               814   812   812   813         814   812   812PRN / # OF OBS      
         813                                                PRN / # OF OBS      
   G32   834   834   834   834   834   834   834   834   834PRN / # OF OBS      
         834   834   834   834   834   834   834   834   834PRN / # OF OBS      
         834   834                                          PRN / # OF OBS      
   R01  1016  1016  1016  1005  1016  1016  1016  1005  1016PRN / # OF OBS      
        1016  1016  1005  1016  1016  1016  1005            PRN / # OF OBS      
   R02  1063  1062  1062  1059  1063  1062  1062  1059  1063PRN / # OF OBS      
        1062  1062  1059  1063  1062  1062  1059            PRN / # OF OBS      
   R03  1079  1078  1079  1078  1079  1078  1079  1078  1079PRN / # OF OBS      
        1078  1079  1078  1079  1078  1079  1078            PRN / # OF OBS      
   R04   972   972   972   955   972   972   972   955   972PRN / # OF OBS      
         972   972   955   972   972   972   955            PRN / # OF OBS      
   R05   812   809   809   790   812   809   809   790   812PRN / # OF OBS      
         809   809   790   812   809   809   790            PRN / # OF OBS      
   R06   839   836    19         839   836    19         839PRN / # OF OBS      
         836    19         839   836    19                  PRN / # OF OBS      
   R07   952   952   952   944   952   952   952   944   952PRN / # OF OBS      
         952   952   944   952   952   952   944            PRN / # OF OBS      
   R08   993   993   993   991   993   993   993   991   993PRN / # OF OBS      
         993   993   991   993   993   993   991            PRN / # OF OBS      
   R09   876   876   876   872   876   876   876   872   876PRN / # OF OBS      
         876   876   872   876   876   876   872            PRN / # OF OBS      
   R10   866   864   864   847   866   864   864   847   866PRN / # OF OBS      
         864   864   847   866   864   864   847            PRN / # OF OBS      
   R11  1022  1018  1016  1008  1022  1018  1016  1008  1022PRN / # OF OBS      
        1018  1016  1008  1022  1018  1016  1008            PRN / # OF OBS      
   R12   988   987    24         988   987    24         988PRN / # OF OBS      
         987    24         988   987    24                  PRN / # OF OBS      
   R13  1097  1097  1095  1081  1097  1097  1095  1081  1097PRN / # OF OBS      
        1097  1095  1081  1097  1097  1095  1081            PRN / # OF OBS      
   R14   924   924   924   920   924   924   924   920   924PRN / # OF OBS      
         924   924   920   924   924   924   920            PRN / # OF OBS      
   R15   935   934   934   933   935   934   934   933   935PRN / # OF OBS      
         934   934   933   935   934   934   933            PRN / # OF OBS      
   R17   807   805   806   785   807   805   806   785   807PRN / # OF OBS      
         805   806   785   807   805   806   785            PRN / # OF OBS      
   R18   815   814   804   802   815   814   804   802   815PRN / # OF OBS      
         814   804   802   815   814   804   802            PRN / # OF OBS      
   R19   866   866   866   859   866   866   866   859   866PRN / # OF OBS      
         866   866   859   866   866   866   859            PRN / # OF OBS      
   R20   955   954   954   949   955   954   954   949   955PRN / # OF OBS      
         954   954   949   955   954   954   949            PRN / # OF OBS      
   R21  1152  1152  1152  1151  1152  1152  1152  1151  1152PRN / # OF OBS      
        1152  1152  1151  1152  1152  1152  1151            PRN / # OF OBS      
   R22  1158  1157  1157  1156  1158  1157  1157  1156  1158PRN / # OF OBS      
        1157  1157  1156  1158  1157  1157  1156            PRN / # OF OBS      
   R23  1088  1088  1088  1079  1088  1088  1088  1079  1088PRN / # OF OBS      
        1088  1088  1079  1088  1088  1088  1079            PRN / # OF OBS      
   R24   879   877   876   743   879   877   876   743   879PRN / # OF OBS      
         877   876   743   879   877   876   743            PRN / # OF OBS      
    30.000                                                  INTERVAL            
  2019     1    25     0     0    0.0000000     GPS         TIME OF FIRST OBS   
  2019     1    25    23    59   30.0000000     GPS         TIME OF LAST OBS    
                                                            END OF HEADER      
> 2019 01 25 00 00 00.0000000  0 26
E02  26010369.234    26010374.088        2093.952        1563.668   136685457.265   102070323.845          46.500          48.750
E07  27504592.676    27504599.139        2711.875        2025.079   144537635.511   107933954.422          41.750          43.250
E15  26174008.548    26174015.984       -3139.320       -2344.294   137545377.667   102712458.046          45.500          46.250
E20  24983859.471                        1146.277                   131291069.095                          36.000
E27  24888604.060    24888609.707       -1907.277       -1424.273   130790533.291    97668261.359          49.750          51.250
E30  21806370.154    21806375.485         189.529         141.545   114593295.005    85572927.919          53.250          56.000
G01  24797528.782    24797530.243    24797532.509    24797531.732    24797534.793       -3802.298       -3802.298       -2962.850       -2962.819       -2839.401   130312037.004   130311905.003   101541745.530   101541747.539    97310835.809          37.000          20.250          20.250          37.000          42.000
G04  22456134.933    22456134.589    22456134.891                                        2383.531        2383.531        1857.286                                   118007812.923   118007809.940    91954144.500                                          47.000          35.750          35.750
G07  20377552.828    20377552.544    20377551.374    20377551.232                        -793.582        -793.582        -618.349        -618.358                   107084963.936   107084798.946    83442708.099    83442710.105                          53.750          45.750          45.750          52.500
G08  20373174.174    20373173.343    20373174.796    20373175.233    20373176.976         621.565         621.565         484.335         484.332         464.151   107061798.332   107061794.340    83424787.177    83424794.186    79948760.575          53.250          48.000          48.000          53.500          57.750
G09  23187049.033    23187048.867    23187049.703    23187049.303    23187052.717        3185.265        3185.265        2482.020        2481.966        2378.573   121848806.205   121848786.212    94947112.723    94947116.721    90990983.388          43.000          32.750          32.750          45.000          49.000
G11  22762650.920    22762650.134    22762649.203                                       -3394.141       -3394.141       -2644.749                                   119618675.102   119618571.113    93209282.689                                          45.000          35.250          35.250
G16  24113684.148    24113682.791    24113680.574                                        3117.562        3117.562        2429.199                                   126718305.529   126718306.535    98741549.985                                          41.750          26.750          26.750
G18  23009059.798    23009059.477    23009059.216                                       -3343.991       -3343.991       -2605.675                                   120913455.654   120913441.664    94218272.240                                          43.250          32.000          32.000
G23  24778598.807                                                                        3552.685                                                                   130212496.948                                                                          29.250
G27  21654953.621    21654953.275    21654953.872    21654953.645    21654956.665        2588.942        2588.942        2017.366        2017.369        1933.323   113797602.798   113797602.805    88673470.735    88673465.738    84978744.950          48.250          43.500          43.500          50.000          55.000
G28  23791231.629    23791230.462    23791228.937                                       -2486.651       -2486.651       -1937.718                                   125023790.753   125023787.759    97421140.406                                          39.000          24.000          24.000
G30  21900216.633    21900216.358    21900217.088    21900217.289    21900220.718       -2596.556       -2596.556       -2023.228       -2023.236       -1938.947   115086451.921   115086441.930    89677755.587    89677769.590    85941197.494          49.250          40.250          40.250          48.250          54.000
R02  23237661.287    23237661.566    23237667.411    23237667.396        3071.404        3071.404        2388.876        2388.898   124000645.875   124000635.891    96444952.122    96444947.131          43.750          43.000          40.750          40.000
R03  23101449.258    23101449.119    23101453.155    23101453.345         215.860         215.860         167.893         167.838   123663888.026   123663871.030    96183020.477    96183011.469          45.750          45.500          41.500          40.750
R10  23422630.831    23422630.145    23422638.453    23422637.926        3420.585        3420.585        2660.374        2660.406   124855838.523   124855846.534    97110095.659    97110099.664          46.750          45.750          37.750          36.250
R11  19713191.848    19713191.620    19713195.650    19713195.302        1091.118        1091.118         848.682         848.678   105341357.792   105341360.796    81932173.403    81932167.403          55.000          54.250          51.250          50.000
R12  19932929.913    19932929.191                                       -1902.000       -1902.000                                   106478154.896   106478170.896                                          53.000          52.000
R20  23256584.593    23256585.847    23256592.478    23256590.913        4051.908        4051.908        3151.549        3151.545   124363476.410   124363473.413    96727164.413    96727159.409          38.750          38.250          40.750          39.500
R21  19714949.215    19714949.054    19714953.670    19714953.669         731.719         731.719         569.136         569.128   105498720.931   105498710.932    82054562.685    82054563.681          54.750          54.000          51.750          50.250
R22  20817919.698    20817918.931    20817924.013    20817924.046       -3616.367       -3616.367       -2812.731       -2812.718   111127572.514   111127533.517    86432535.268    86432533.269          54.500          53.500          49.250          48.000
> 2019 01 25 00 00 30.0000000  0 26
E02  26022334.661    26022339.400        2097.960        1566.643   136748335.899   102117278.642          47.000          48.750
E07  27520080.995    27520088.431        2714.332        2026.984   144619028.435   107994734.834          41.250          44.250
E15  26156098.874    26156106.081       -3135.418       -2341.372   137451259.559   102642175.114          45.750          47.250
E20  24990437.132                        1158.838                   131325644.318                          35.000
E27  24877725.234    24877730.574       -1904.173       -1421.939   130733361.560    97625568.200          50.250          51.500
E30  21807471.254    21807476.919         196.345         146.640   114599083.003    85577250.127          53.250          56.000
G01  24775818.945    24775819.004    24775821.400    24775822.119    24775824.254       -3803.516       -3803.516       -2963.754       -2963.780       -2840.248   130197952.464   130197820.480   101452848.631   101452850.634    97225642.981          36.500          21.250          21.250          37.750          42.000
G04  22469780.379    22469780.005    22469780.191                                        2397.041        2397.041        1867.882                                   118079519.812   118079516.818    92010020.004                                          46.500          35.500          35.500
G07  20373069.425    20373069.366    20373068.059    20373067.962                        -777.100        -777.100        -605.524        -605.522                   107061403.941   107061238.950    83424349.659    83424351.666                          54.000          46.000          46.000          52.500
G08  20376772.514    20376771.940    20376773.238    20376773.921    20376775.499         639.121         639.121         498.016         498.010         477.261   107080708.699   107080704.706    83439522.532    83439529.538    79962881.959          53.500          48.000          48.000          53.500          57.750
G09  23205251.859    23205251.571    23205254.036    23205253.202    23205256.216        3192.128        3192.128        2487.450        2487.457        2383.823   121944467.743   121944447.750    95021654.145    95021658.154    91062418.927          42.500          32.750          32.750          44.750          49.000
G11  22743297.834    22743297.597    22743296.296                                       -3385.829       -3385.829       -2638.291                                   119516975.215   119516871.230    93130036.049                                          45.000          35.500          35.500
G16  24131482.864    24131482.626    24131480.979                                        3118.836        3118.836        2430.177                                   126811849.394   126811850.401    98814441.292                                          40.250          24.500          24.500
G18  22989994.731    22989993.752    22989993.520                                       -3335.175       -3335.175       -2598.922                                   120813266.695   120813252.698    94140202.944                                          43.500          32.250          32.250
G23  24798884.863                                                                        3552.097                                                                   130319078.754                                                                          34.000
G27  21669767.999    21669767.241    21669767.854    21669768.210    21669770.941        2600.900        2600.900        2026.700        2026.699        1942.264   113875451.647   113875451.656    88734132.179    88734127.186    85036878.837          49.750          43.250          43.250          50.500          55.000
G28  23777044.156    23777042.922    23777042.239                                       -2483.471       -2483.471       -1935.152                                   124949239.442   124949236.445    97363048.531                                          39.250          22.750          22.750
G30  21885422.865    21885422.745    21885424.005    21885424.123    21885427.054       -2586.316       -2586.316       -2015.315       -2015.295       -1931.333   115008710.204   115008700.215    89617177.621    89617191.633    85883143.627          50.000          40.250          40.250          48.500          54.000
R02  23254966.081    23254965.585    23254971.735    23254971.141        3084.270        3084.270        2398.808        2398.834   124092979.811   124092969.801    96516767.385    96516762.381          46.000          45.000          42.250          41.000
R03  23102729.282    23102728.322    23102732.983    23102733.460         241.006         241.006         187.454         187.458   123670740.182   123670723.182    96188349.964    96188340.969          45.750          45.500          41.250          40.000
R10  23441897.941    23441898.473    23441906.689    23441905.797        3426.708        3426.708        2665.230        2665.287   124958549.108   124958557.109    97189981.636    97189985.639          46.500          46.000          36.000          35.000
R11  19719361.234    19719360.950    19719364.904    19719364.716        1106.620        1106.620         860.720         860.718   105374324.208   105374327.214    81957813.946    81957807.948          55.500          54.250          51.500          50.000
R12  19922280.499    19922280.187                                       -1890.286       -1890.286                                   106421270.561   106421286.564                                          52.500          52.000
R20  23279345.680    23279343.626    23279348.902    23279349.521        4061.336        4061.336        3158.840        3158.843   124485174.606   124485171.619    96821818.591    96821813.593          40.000          39.000          40.500          40.000
R21  19719127.071    19719127.032    19719131.056    19719131.461         758.743         758.743         590.139         590.141   105521077.591   105521067.591    82071951.195    82071952.195          54.750          54.250          51.500          50.500
R22  20797642.661    20797642.458    20797648.618    20797647.678       -3599.271       -3599.271       -2799.425       -2799.431   111019337.764   111019298.767    86348352.701    86348350.705          53.750          53.250          48.750          47.750
> 2019 01 25 00 01 00.0000000  0 26
E02  26034323.237    26034328.182        2102.036        1569.733   136811336.049   102164324.176          46.750          48.750
E07  27535584.059    27535590.839        2716.855        2028.881   144700495.614   108055570.676          41.500          43.500
E15  26138211.062    26138218.617       -3131.331       -2338.349   137357260.205   102571980.853          45.250          47.000
E20  24997090.029                        1171.155                   131360595.510                          36.000
E27  24866862.902    24866868.583       -1901.137       -1419.691   130676281.405    97582943.417          50.250          51.500
E30  21808611.696    21808617.334         203.247         151.761   114605076.211    85581725.578          53.250          56.250
G01  24754105.105    24754104.973    24754107.301    24754106.730    24754109.318       -3804.496       -3804.496       -2964.450       -2964.516       -2841.019   130083838.424   130083706.439   101363928.755   101363930.759    97140428.098          38.000          21.500          21.500          38.500          43.250
G04  22483502.303    22483502.171    22483502.394                                        2410.410        2410.410        1878.194                                   118151630.338   118151627.357    92066209.997                                          46.250          35.250          35.250
G07  20368680.719    20368680.525    20368679.045    20368678.821                        -760.541        -760.541        -592.636        -592.652                   107038339.579   107038174.585    83406377.431    83406379.436                          54.250          46.000          46.000          52.750
G08  20380470.782    20380470.317    20380471.716    20380472.358    20380473.785         656.580         656.580         511.641         511.635         490.315   107100143.848   107100139.857    83454666.812    83454673.821    79977395.230          53.500          48.250          48.250          53.500          58.000
G09  23223495.390    23223494.953    23223496.164    23223495.625    23223499.789        3199.077        3199.077        2492.750        2492.774        2388.907   122040335.347   122040315.345    95096356.155    95096360.170    91134008.334          42.750          32.750          32.750          44.500          49.500
G11  22723992.837    22723992.018    22723991.126                                       -3377.470       -3377.470       -2631.759                                   119415526.405   119415422.422    93050985.043                                          44.750          35.750          35.750
G16  24149291.331    24149291.106    24149289.950                                        3119.955        3119.955        2431.174                                   126905430.555   126905431.561    98887361.630                                          40.750          25.500          25.500
G18  22970978.034    22970977.233    22970977.938                                       -3326.712       -3326.712       -2592.251                                   120713336.321   120713322.332    94062335.174                                          42.500          32.250          32.250
G23  24819161.128                                                                        3551.035                                                                   130425628.140                                                                          35.250
G27  21684650.210    21684649.520    21684650.284    21684650.413    21684653.012        2612.876        2612.876        2036.020        2036.002        1951.174   113953658.563   113953658.575    88795072.636    88795067.634    85095280.105          49.250          43.250          43.250          50.250          55.000
G28  23762877.316    23762877.362    23762875.065                                       -2479.976       -2479.976       -1932.485                                   124874788.193   124874785.187    97305034.553                                          41.000          24.750          24.750
G30  21870687.621    21870687.061    21870688.775    21870688.510    21870691.472       -2575.984       -2575.984       -2007.267       -2007.266       -1923.636   114931276.309   114931266.318    89556839.535    89556853.541    85825319.621          49.250          40.000          40.000          48.250          54.000
R02  23272341.376    23272341.634    23272344.043    23272346.405        3097.086        3097.086        2408.894        2408.857   124185700.933   124185690.931    96588883.814    96588878.803          45.000          44.750          40.500          40.000
R03  23104149.417    23104149.119    23104154.867    23104154.699         266.160         266.160         206.962         206.943   123678345.973   123678328.971    96194265.556    96194256.565          44.500          44.250          41.500          39.750
R10  23461201.047    23461199.831    23461208.756    23461206.777        3432.795        3432.795        2669.989        2669.979   125061440.790   125061448.798    97270008.481    97270012.478          46.250          45.250          37.250          35.750
R11  19725616.839    19725616.976    19725620.662    19725620.812        1122.069        1122.069         872.717         872.715   105407754.320   105407757.322    81983815.144    81983809.142          55.250          54.250          51.250          50.000
R12  19911697.320    19911697.250                                       -1878.510       -1878.510                                   106364738.398   106364754.405                                          52.500          51.750
R20  23302155.977    23302155.071    23302162.782    23302162.185        4070.946        4070.946        3166.312        3166.328   124607157.774   124607154.760    96916694.396    96916689.393          41.000          40.250          43.000          41.750
R21  19723456.006    19723456.253    19723460.680    19723460.925         785.661         785.661         611.079         611.081   105544243.520   105544233.520    82089969.139    82089970.140          54.750          54.250          51.750          50.750
R22  20777464.096    20777463.393    20777468.406    20777467.747       -3582.038       -3582.038       -2786.037       -2786.045   110911617.630   110911578.631    86264570.392    86264568.390          54.750          53.750          49.250          47.500
> 2019 01 25 00 01 30.0000000  0 26
E02  26046335.079    26046340.100        2106.109        1572.734   136874457.635   102211460.376          46.750          49.000
E07  27551099.692    27551107.370        2719.116        2030.511   144782034.988   108116460.461          40.750          43.500
E15  26120346.187    26120354.170       -3127.357       -2335.317   137263381.387   102501876.595          45.000          47.250
E20  25003810.399                        1183.696                   131395921.603                          35.000
E27  24856018.745    24856024.350       -1898.037       -1417.365   130619293.455    97540387.490          50.000          51.750
E30  21809791.526    21809796.869         210.019         156.845   114611274.998    85586354.546          53.500          56.000
G01  24732383.153    24732383.576    24732387.960    24732387.183    24732389.352       -3805.180       -3805.180       -2965.142       -2965.185       -2841.627   129969697.759   129969565.755   101274988.112   101274990.115    97055193.350          37.500          21.500          21.500          37.250          44.250
G04  22497300.751    22497300.856    22497300.586                                        2423.646        2423.646        1888.666                                   118224141.756   118224138.776    92122712.405                                          45.750          35.500          35.500
G07  20364386.268    20364385.942    20364384.768    20364384.759                        -743.947        -743.947        -579.697        -579.694                   107015772.474   107015607.486    83388792.679    83388794.685                          54.250          46.000          46.000          52.500
G08  20384268.776    20384268.188    20384269.724    20384270.192    20384271.746         674.009         674.009         525.203         525.207         503.322   107120102.036   107120098.047    83470218.650    83470225.661    79992299.076          53.500          47.750          47.750          53.500          57.750
G09  23241776.498    23241776.000    23241777.477    23241777.253    23241781.824        3205.703        3205.703        2497.975        2497.982        2393.872   122136405.919   122136385.918    95171216.340    95171220.345    91205749.338          42.750          31.500          31.500          44.250          50.000
G11  22704736.066    22704735.198    22704733.907                                       -3368.879       -3368.879       -2625.051                                   119314331.670   119314227.688    92972132.042                                          45.500          35.750          35.750
G16  24167105.959    24167106.326    24167104.085                                        3121.162        3121.162        2432.159                                   126999048.378   126999049.388    98960310.559                                          40.750          24.000          24.000
G18  22952011.959    22952012.056    22952010.926                                       -3317.834       -3317.834       -2585.386                                   120613668.112   120613654.114    93984671.677                                          42.250          32.000          32.000
G23  24839428.096                                                                        3549.840                                                                   130532142.281                                                                          33.750
G27  21699600.048    21699599.450    21699600.401    21699600.455    21699602.871        2624.686        2624.686        2045.185        2045.190        1959.975   114032220.953   114032220.968    88856290.091    88856285.094    85153946.836          49.000          43.250          43.250          50.500          55.000
G28  23748727.553    23748727.286    23748727.037                                       -2476.669       -2476.669       -1929.897                                   124800436.933   124800433.939    97247098.523                                          40.000          25.000          25.000
G30  21856012.019    21856011.232    21856012.631    21856012.945    21856015.614       -2565.604       -2565.604       -1999.154       -1999.163       -1915.859   114854152.553   114854142.557    89496743.108    89496757.112    85767727.210          49.750          40.250          40.250          49.000          54.000
R02  23289789.353    23289789.021    23289791.264    23289793.911        3109.809        3109.809        2418.731        2418.756   124278804.984   124278794.992    96661298.086    96661293.078          46.250          45.500          39.750          39.000
R03  23105711.728    23105711.335    23105715.060    23105715.114         291.175         291.175         226.406         226.422   123686704.671   123686687.670    96200766.788    96200757.793          45.750          45.250          40.250          40.000
R10  23480537.427    23480536.538    23480542.506    23480543.353        3438.810        3438.810        2674.529        2674.634   125164512.855   125164520.865    97350175.600    97350179.601          45.750          44.750          35.000          34.500
R11  19731959.654    19731959.728    19731963.745    19731963.580        1137.548        1137.548         884.765         884.769   105441648.222   105441651.223    82010177.068    82010171.066          55.000          54.250          51.250          50.000
R12  19901180.994    19901180.357                                       -1866.672       -1866.672                                   106308560.638   106308576.640                                          52.500          51.500
R20  23325020.911    23325019.849    23325026.686    23325025.440        4080.010        4080.010        3173.448        3173.432   124729422.523   124729419.531    97011789.220    97011784.206          40.250          39.000          42.750          42.500
R21  19727936.352    19727936.394    19727941.122    19727940.882         812.541         812.541         631.973         631.970   105568216.981   105568206.983    82108615.174    82108616.171          55.000          54.250          51.500          50.500
R22  20757381.346    20757380.874    20757385.559    20757385.428       -3564.737       -3564.737       -2772.562       -2772.558   110804415.652   110804376.649    86181191.093    86181189.094          54.500          53.750          48.750          47.750
> 2019 01 25 00 02 00.0000000  0 26
E02  26058369.786    26058374.952        2110.134        1575.756   136937700.634   102258687.242          46.500          49.000
E07  27566630.159    27566637.398        2721.469        2032.244   144863644.607   108177402.690          42.750          43.500
E15  26102504.493    26102512.969       -3123.237       -2332.313   137169624.843   102431863.656          45.000          47.750
E20  25010606.114                        1196.186                   131431621.203                          35.750
E27  24845191.909    24845197.457       -1894.954       -1415.073   130562398.243    97497900.818          50.000          51.750
E30  21811010.427    21811015.572         216.923         162.000   114617679.791    85591137.349          53.250          56.000
G01  24710658.729    24710659.438    24710662.203    24710661.949    24710664.800       -3805.838       -3805.838       -2965.444       -2965.417       -2841.873   129855533.525   129855401.541   101186029.085   101186031.106    96969941.024          36.250          18.500          18.500          37.000          43.750
G04  22511175.150    22511174.891    22511174.278                                        2436.936        2436.936        1898.877                                   118297051.278   118297048.298    92179525.006                                          46.250          35.000          35.000
G07  20360187.019    20360186.722    20360185.138    20360185.243                        -727.263        -727.263        -566.690        -566.695                   106993704.280   106993539.292    83371596.687    83371598.693                          54.500          46.250          46.250          52.750
G08  20388165.914    20388165.353    20388166.939    20388167.335    20388168.977         691.323         691.323         538.706         538.700         516.256   107140582.246   107140578.255    83486177.259    83486184.269    80007592.744          53.750          48.000          48.000          53.250          57.750
G09  23260095.484    23260094.600    23260097.270    23260096.819    23260100.481        3212.258        3212.258        2503.010        2503.017        2398.738   122232676.401   122232656.414    95246232.285    95246236.295    91277639.611          40.750          31.250          31.250          44.500          49.000
G11  22685528.447    22685527.356    22685525.729                                       -3360.261       -3360.261       -2618.339                                   119213393.820   119213289.823    92893479.189                                          46.500          35.500          35.500
G16  24184928.579    24184928.457    24184927.044                                        3122.364        3122.364        2432.971                                   127092702.338   127092703.344    99033287.661                                          41.750          25.750          25.750
G18  22933096.160    22933095.443    22933095.737                                       -3308.899       -3308.899       -2578.308                                   120514265.332   120514251.351    93907215.007                                          44.000          32.000          32.000
G23  24859692.951                                                                        3548.627                                                                   130638618.645                                                                          36.250
G27  21714617.038    21714616.429    21714617.403    21714617.737    21714620.093        2636.341        2636.341        2054.307        2054.306        1968.698   114111136.246   114111136.256    88917782.531    88917777.538    85212877.087          49.000          43.500          43.500          50.250          54.750
G28  23734600.053    23734599.077    23734595.903                                       -2473.350       -2473.350       -1927.244                                   124726185.926   124726182.931    97189240.622                                          42.750          26.250          26.250
G30  21841394.969    21841394.262    21841395.935    21841396.581    21841398.769       -2555.166       -2555.166       -1991.067       -1991.032       -1908.083   114777341.201   114777331.207    89436890.108    89436904.115    85710368.090          49.500          40.750          40.750          49.250          54.250
R02  23307309.066    23307308.615    23307312.879    23307313.091        3122.313        3122.313        2428.461        2428.468   124372287.462   124372277.468    96734006.671    96734001.667          47.750          46.500          41.250          40.500
R03  23107412.989    23107413.563    23107416.855    23107416.583         316.219         316.219         245.917         245.940   123695815.432   123695798.430    96207852.931    96207843.935          45.750          45.000          40.750          39.750
R10  23499905.346    23499905.777    23499914.480    23499912.256        3444.698        3444.698        2679.218        2679.211   125267763.923   125267771.936    97430481.980    97430485.987          44.750          44.750          34.750          33.500
R11  19738390.029    19738389.482    19738392.952    19738393.244        1153.045        1153.045         896.818         896.803   105476006.516   105476009.519    82036900.187    82036894.185          55.250          54.000          51.250          49.750
R12  19890731.685    19890731.184                                       -1854.702       -1854.702                                   106252740.050   106252756.052                                          53.000          51.750
R20  23347936.888    23347935.493    23347943.300    23347941.719        4089.307        4089.307        3180.611        3180.616   124851964.457   124851961.437    97107099.557    97107094.559          40.000          38.500          42.750          42.250
R21  19732566.959    19732566.910    19732571.281    19732571.452         839.455         839.455         652.902         652.904   105592996.750   105592986.752    82127888.328    82127889.331          55.250          54.250          51.750          50.500
R22  20737396.329    20737395.965    20737400.577    20737400.777       -3547.255       -3547.255       -2758.959       -2758.975   110697735.560   110697696.564    86098217.710    86098215.710          55.000          53.750          49.000          48.000
> 2019 01 25 00 02 30.0000000  0 26
E02  26070427.156    26070432.421        2114.188        1578.744   137001064.957   102306004.716          46.000          48.500
E07  27582172.949    27582179.699        2723.638        2033.895   144945322.390   108238395.795          41.750          43.000
E15  26084687.069    26084695.367       -3118.973       -2329.070   137075992.393   102361943.360          45.500          48.000
E20  25017468.260                        1208.389                   131467693.049                          34.750
E27  24834382.832    24834388.232       -1891.804       -1412.708   130505596.378    97455483.856          50.500          51.500
E30  21812268.096    21812273.671         223.842         167.154   114624290.978    85596074.269          53.250          55.750
G01  24688930.654    24688931.789    24688932.447    24688932.887    24688934.934       -3806.482       -3806.482       -2966.107       -2966.139       -2842.532   129741348.562   129741216.578   101097053.950   101097055.956    96884673.207          37.250          18.000          18.000          36.750          42.250
G04  22525124.545    22525124.332    22525124.615                                        2449.999        2449.999        1909.109                                   118370356.154   118370353.159    92236645.675                                          45.750          34.750          34.750
G07  20356082.665    20356082.511    20356081.056    20356081.284                        -710.569        -710.569        -553.711        -553.715                   106972136.719   106971971.726    83354790.794    83354792.798                          54.500          46.000          46.000          52.750
G08  20392161.993    20392161.525    20392163.235    20392163.633    20392165.280         708.711         708.711         552.271         552.267         529.258   107161582.808   107161578.815    83502541.335    83502548.345    80023274.985          53.750          48.000          48.000          53.250          58.000
G09  23278453.410    23278453.128    23278453.480    23278454.342    23278457.056        3218.829        3218.829        2508.128        2508.154        2403.640   122329143.723   122329123.717    95321401.608    95321405.611    91349676.864          42.000          31.750          31.750          44.750          48.500
G11  22666369.360    22666369.183    22666367.853                                       -3351.565       -3351.565       -2611.622                                   119112715.369   119112611.387    92815028.478                                          45.750          35.750          35.750
G16  24202756.516    24202756.442    24202755.360                                        3123.575        3123.575        2434.014                                   127186391.509   127186392.521    99106292.206                                          41.500          25.250          25.250
G18  22914231.188    22914231.071    22914231.095                                       -3299.983       -3299.983       -2571.381                                   120415131.217   120415117.226    93829967.684                                          44.000          32.250          32.250
G23  24879947.078                                                                        3547.080                                                                   130745054.315                                                                          34.500
G27  21729700.896    21729700.242    21729701.181    21729701.333    21729703.877        2648.034        2648.034        2063.406        2063.409        1977.432   114190401.856   114190401.863    88979547.937    88979542.941    85272068.942          49.500          43.250          43.250          50.500          54.500
G28  23720489.177    23720488.578    23720487.079                                       -2470.011       -2470.011       -1924.677                                   124652035.292   124652032.308    97131460.912                                          43.500          27.250          27.250
G30  21826838.350    21826837.657    21826838.775    21826839.724    21826842.064       -2544.623       -2544.623       -1982.806       -1982.804       -1900.189   114700844.555   114700834.558    89377282.342    89377296.352    85653243.979          49.750          40.750          40.750          49.000          54.250
R02  23324896.036    23324895.834    23324900.362    23324901.696        3134.746        3134.746        2438.187        2438.156   124466144.123   124466134.131    96807006.274    96807001.269          45.750          45.250          41.500          40.250
R03  23109255.458    23109255.572    23109261.121    23109259.878         341.137         341.137         265.320         265.339   123705677.294   123705660.296    96215523.271    96215514.276          46.000          45.750          42.000          40.500
R10  23519309.634    23519308.406    23519317.221    23519316.238        3450.629        3450.629        2683.838        2683.858   125371193.588   125371201.601    97510927.272    97510931.272          43.750          42.750          36.250          35.000
R11  19744905.938    19744905.895    19744909.837    19744909.743        1168.564        1168.564         908.879         908.869   105510829.339   105510832.338    82063984.607    82063978.603          55.000          54.250          51.250          50.000
R12  19880348.613    19880348.356                                       -1842.741       -1842.741                                   106197277.795   106197293.800                                          52.750          51.750
R20  23370902.712    23370902.107    23370910.000    23370908.164        4098.307        4098.307        3187.566        3187.580   124974779.321   124974776.337    97202622.249    97202617.245          40.000          39.500          42.750          41.500
R21  19737348.356    19737348.169    19737352.179    19737352.426         866.181         866.181         673.706         673.706   105618580.744   105618570.748    82147786.997    82147787.999          55.250          54.500          52.000          50.250
R22  20717510.224    20717509.651    20717515.119    20717514.626       -3529.671       -3529.671       -2745.306       -2745.304   110591581.204   110591542.207    86015653.234    86015651.235          54.750          53.750          49.500          48.250
> 2019 01 25 00 03 00.0000000  0 26
E02  26082508.443    26082513.507        2118.228        1581.833   137064550.575   102353412.742          46.500          48.750
E07  27597727.715    27597736.111        2725.878        2035.558   145027066.337   108299438.305          41.000          43.750
E15  26066893.802    26066900.869       -3114.721       -2325.944   136982485.755   102292117.010          45.500          47.500
E20  25024403.473                        1221.114                   131504136.001                          35.000
E27  24823591.734    24823597.029       -1888.674       -1410.359   130448888.477    97413137.053          50.500          51.500
E30  21813565.777    21813571.228         230.749         172.322   114631108.967    85601165.632          53.000          56.000
G01  24667197.143    24667197.570    24667200.615    24667198.826    24667203.038       -3807.126       -3807.126       -2966.625       -2966.645       -2842.987   129627145.896   129627013.917   101008065.015   101008067.018    96799392.178          36.000          18.500          18.500          36.000          42.500
G04  22539149.110    22539148.489    22539148.566                                        2463.124        2463.124        1919.391                                   118444053.558   118444050.580    92294072.227                                          46.250          34.500          34.500
G07  20352073.835    20352073.693    20352072.289    20352072.196                        -693.851        -693.851        -540.649        -540.658                   106951070.513   106950905.523    83338375.575    83338377.580                          54.500          46.250          46.250          52.750
G08  20396257.089    20396256.565    20396258.305    20396258.712    20396260.321         725.965         725.965         565.698         565.699         542.130   107183102.484   107183098.490    83519309.917    83519316.924    80039344.877          53.500          48.000          48.000          53.500          58.000
G09  23296846.524    23296846.733    23296847.928    23296848.453    23296851.120        3225.211        3225.211        2513.114        2513.177        2408.458   122425804.812   122425784.805    95396721.879    95396725.879    91421858.811          41.250          31.500          31.500          44.750          47.750
G11  22647261.680    22647260.917    22647259.272                                       -3342.782       -3342.782       -2604.782                                   119012299.861   119012195.873    92736782.652                                          46.500          35.750          35.750
G16  24220591.994    24220591.922    24220590.725                                        3124.723        3124.723        2434.810                                   127280115.388   127280116.411    99179323.756                                          41.500          24.750          24.750
G18  22895417.830    22895417.528    22895417.863                                       -3290.816       -3290.816       -2564.244                                   120316269.334   120316255.340    93752932.478                                          43.250          31.500          31.500
G23  24900190.219                                                                        3546.032                                                                   130851446.740                                                                          30.000
G27  21744850.470    21744850.228    21744850.967    21744850.999    21744853.930        2659.550        2659.550        2072.361        2072.387        1986.031   114270015.190   114270015.199    89041584.309    89041579.312    85331520.466          49.000          43.250          43.250          50.250          54.750
G28  23706397.226    23706396.380    23706395.634                                       -2466.572       -2466.572       -1922.015                                   124577985.187   124577982.197    97073759.549                                          39.250          25.750          25.750
G30  21812341.569    21812340.961    21812342.532    21812342.647    21812345.831       -2534.025       -2534.025       -1974.604       -1974.583       -1892.312   114624664.867   114624654.868    89317921.547    89317935.555    85596356.559          49.000          40.500          40.500          48.750          54.500
R02  23342555.093    23342554.884    23342560.910    23342559.311        3146.965        3146.965        2447.720        2447.661   124560370.552   124560360.552    96880293.509    96880288.484          47.250          45.750          40.500          38.750
R03  23111238.475    23111238.690    23111243.146    23111242.796         366.213         366.213         284.827         284.863   123716289.395   123716272.395    96223777.115    96223768.115          46.250          45.250          42.500          41.250
R10  23538746.864    23538745.185    23538755.269    23538753.208        3456.504        3456.504        2688.381        2688.439   125474800.685   125474808.694    97591510.512    97591514.513          44.750          44.250          36.250          35.000
R11  19751510.207    19751509.854    19751513.717    19751513.298        1184.022        1184.022         920.911         920.919   105546117.232   105546120.237    82091430.746    82091424.747          55.500          54.500          51.500          50.000
R12  19870033.658    19870033.165                                       -1830.736       -1830.736                                   106142176.658   106142192.664                                          52.750          52.000
R20  23393919.185    23393919.122    23393927.586    23393925.597        4107.251        4107.251        3194.529        3194.505   125097863.273   125097860.267    97298354.219    97298349.210          40.250          39.500          41.750          41.000
R21  19742278.757    19742278.766    19742283.337    19742283.325         892.917         892.917         694.509         694.489   105644967.326   105644957.326    82168309.896    82168310.895          54.750          54.500          51.750          50.250
R22  20697722.520    20697722.346    20697727.469    20697727.214       -3511.966       -3511.966       -2731.542       -2731.532   110485956.003   110485917.005    85933500.317    85933498.320          54.500          54.000          49.750          48.250
> 2019 01 25 00 03 30.0000000  0 26
E02  26094612.652    26094617.620        2122.291        1584.810   137128157.477   102400911.356          46.000          48.500
E07  27613296.737    27613302.911        2727.924        2037.090   145108874.367   108360528.689          42.000          43.500
E15  26049123.631    26049131.270       -3110.475       -2322.757   136889106.728   102222385.967          45.500          47.500
E20  25031409.277                        1233.464                   131540948.617                          35.000
E27  24812818.200    24812823.866       -1885.508       -1408.019   130392275.110    97370860.846          50.250          51.500
E30  21814902.471    21814908.040         237.648         177.457   114638134.159    85606411.719          53.500          56.000
G01  24645462.681    24645462.650    24645465.474    24645466.596    24645468.094       -3807.544       -3807.544       -2966.875       -2966.906       -2843.248   129512928.504   129512796.507   100919064.585   100919066.564    96714100.179          36.750          18.250          18.250          37.000          43.000
G04  22553246.852    22553246.245    22553247.157                                        2476.049        2476.049        1929.398                                   118518140.698   118518137.711    92351802.448                                          45.750          35.000          35.000
G07  20348160.781    20348160.552    20348159.263    20348159.272                        -677.045        -677.045        -527.568        -527.576                   106930507.432   106930342.445    83322352.401    83322354.407                          54.250          46.000          46.000          52.750
G08  20400450.913    20400450.325    20400451.989    20400452.422    20400453.906         743.192         743.192         579.115         579.115         554.988   107205140.151   107205136.156    83536482.130    83536489.138    80055801.584          54.000          48.000          48.000          53.500          57.750
G09  23315277.050    23315276.829    23315278.399    23315278.444    23315281.532        3231.534        3231.534        2518.011        2518.021        2413.112   122522656.479   122522636.480    95472190.682    95472194.684    91494183.096          42.250          31.000          31.000          44.500          48.000
G11  22628202.700    22628202.936    22628201.650                                       -3333.953       -3333.953       -2597.919                                   118912149.159   118912045.168    92658743.168                                          45.750          35.750          35.750
G16  24238434.154    24238433.774    24238430.969                                        3125.712        3125.712        2435.661                                   127373873.510   127373874.525    99252381.995                                          42.500          24.750          24.750
G18  22876658.009    22876657.435    22876657.213                                       -3281.614       -3281.614       -2557.133                                   120217683.098   120217669.113    93676112.036                                          43.500          31.750          31.750
G23  24920433.513                                                                        3544.048                                                                   130957793.105                                                                          34.000
G27  21760066.519    21760065.910    21760066.559    21760066.832    21760069.112        2671.070        2671.070        2081.324        2081.346        1994.618   114349973.712   114349973.715    89103889.648    89103884.650    85391229.753          49.250          43.250          43.250          50.250          54.250
G28  23692325.078    23692324.590    23692323.095                                       -2463.275       -2463.275       -1919.441                                   124504035.956   124504032.958    97016136.796                                          42.000          26.500          26.500
G30  21797905.911    21797905.283    21797906.973    21797907.373    21797909.797       -2523.349       -2523.349       -1966.230       -1966.215       -1884.298   114548804.457   114548794.468    89258809.545    89258823.551    85539707.562          49.500          40.750          40.750          49.250          54.250
R02  23360280.985    23360280.418    23360286.278    23360285.683        3159.094        3159.094        2457.064        2457.030   124654962.309   124654952.308    96953864.855    96953859.853          45.750          45.250          40.500          39.250
R03  23113361.379    23113360.854    23113364.282    23113365.016         391.256         391.256         304.304         304.296   123727650.785   123727633.792    96232613.735    96232604.740          46.250          45.250          41.000          40.000
R10  23558215.990    23558215.531    23558224.256    23558222.855        3462.373        3462.373        2692.972        2692.953   125578584.295   125578592.295    97672231.086    97672235.072          46.250          45.500          35.000          33.750
R11  19758201.053    19758200.508    19758204.174    19758204.054        1199.511        1199.511         932.963         932.956   105581870.247   105581873.249    82119238.645    82119232.644          55.500          54.500          51.250          50.250
R12  19859786.622    19859785.979                                       -1818.545       -1818.545                                   106087438.516   106087454.521                                          52.750          51.750
R20  23416987.056    23416986.502    23416993.019    23416992.444        4115.934        4115.934        3201.361        3201.331   125221212.256   125221209.253    97394292.317    97394287.315          39.750          39.250          42.000          41.250
R21  19747359.143    19747359.381    19747364.580    19747363.999         919.555         919.555         715.234         715.211   105672154.485   105672144.487    82189455.472    82189456.466          54.750          54.500          52.000          50.250
R22  20678035.312    20678035.143    20678040.570    20678040.341       -3494.185       -3494.185       -2717.697       -2717.696   110380863.717   110380824.720    85851761.900    85851759.895          54.500          53.750          49.750          48.500
> 2019 01 25 00 04 00.0000000  0 25
E02  26106739.819    26106744.544        2126.301        1587.791   137191885.535   102448500.433          46.250          48.500
E07  27628875.394    27628882.327        2729.937        2038.602   145190744.463   108421665.445          40.750          43.500
E15  26031380.172    26031386.898       -3106.092       -2319.493   136795857.092   102152751.530          46.250          47.750
E20  25038483.247                        1245.436                   131578129.806                          35.000
E27  24802063.271    24802068.661       -1882.322       -1405.614   130335756.893    97328655.686          50.000          51.500
E30  21816278.912    21816284.420         244.554         182.631   114645366.968    85611812.849          53.500          55.750
G01  24623724.559    24623725.438    24623729.856    24623728.487    24623730.271       -3807.955       -3807.955       -2967.282       -2967.314       -2843.680   129398699.281   129398567.287   100830054.962   100830056.961    96628799.277          36.750          21.250          21.250          39.000          41.750
G04  22567418.626    22567418.569    22567419.041                                        2488.928        2488.928        1939.462                                   118592614.767   118592611.795    92409834.190                                          45.500          34.500          34.500
G07  20344343.853    20344343.826    20344342.219    20344342.191                        -660.196        -660.196        -514.430        -514.423                   106910449.153   106910284.163    83306722.588    83306724.594                          54.500          46.000          46.000          52.750
G08  20404742.681    20404742.132    20404743.819    20404744.495    20404745.823         760.380         760.380         592.521         592.511         567.832   107227693.861   107227689.867    83554056.452    83554063.461    80072643.643          54.000          48.250          48.250          53.500          58.000
G09  23333742.691    23333742.498    23333745.805    23333745.521    23333748.029        3237.766        3237.766        2522.935        2522.960        2417.837   122619695.684   122619675.692    95547805.643    95547809.646    91566647.425          41.750          31.750          31.750          45.250          48.750
G11  22609196.051    22609195.458    22609194.218                                       -3324.942       -3324.942       -2590.900                                   118812266.440   118812162.445    92580912.482                                          45.500          35.500          35.500
G16  24256282.212    24256281.370    24256280.495                                        3126.898        3126.898        2436.537                                   127467665.218   127467666.237    99325466.404                                          43.000          25.750          25.750
G18  22857951.004    22857950.463    22857950.038                                       -3272.146       -3272.146       -2549.729                                   120119375.835   120119361.839    93599508.978                                          43.250          32.000          32.000
G27  21775346.994    21775346.387    21775347.238    21775347.790    21775349.991        2682.416        2682.416        2090.242        2090.246        2003.150   114430274.808   114430274.815    89166461.939    89166456.944    85451194.867          49.000          43.000          43.000          50.250          54.250
G28  23678271.816    23678271.012    23678270.083                                       -2459.880       -2459.880       -1916.714                                   124430187.282   124430184.303    96958592.395                                          39.750          25.500          25.500
G30  21783531.521    21783530.812    21783532.209    21783532.638    21783535.085       -2512.560       -2512.560       -1957.844       -1957.824       -1876.258   114473265.624   114473255.630    89199948.125    89199962.131    85483298.697          49.500          41.000          41.000          49.000          54.000
R02  23378075.240    23378075.012    23378080.350    23378080.506        3171.041        3171.041        2466.347        2466.360   124749914.809   124749904.812    97027716.771    97027711.773          45.500          44.500          40.500          39.500
R03  23115622.006    23115622.475    23115628.120    23115627.569         416.079         416.079         323.590         323.627   123739760.464   123739743.466    96242032.407    96242023.408          44.750          44.250          42.250          41.000
R10  23577718.676    23577716.969    23577727.318    23577724.840        3468.270        3468.270        2697.549        2697.546   125682542.875   125682550.859    97753087.743    97753091.742          46.000          44.750          36.000          34.500
R11  19764978.669    19764978.342    19764981.741    19764982.065        1215.064        1215.064         945.065         945.057   105618088.977   105618091.979    82147408.764    82147402.762          55.500          54.500          51.250          50.000
R12  19849608.325    19849607.754                                       -1806.321       -1806.321                                   106033065.993   106033081.992                                          53.000          51.750
R20  23440102.671    23440102.651    23440109.740    23440109.001        4124.756        4124.756        3208.212        3208.236   125344822.362   125344819.359    97490433.520    97490428.511          39.750          39.250          43.500          42.250
R21  19752589.393    19752589.132    19752593.593    19752593.829         946.221         946.221         735.968         735.971   105700140.460   105700130.462    82211222.338    82211223.337          55.000          54.500          51.500          50.500
R22  20658448.849    20658448.218    20658453.558    20658453.544       -3476.208       -3476.208       -2703.715       -2703.699   110276308.062   110276269.065    85770440.850    85770438.850          54.750          54.000          49.750          48.750
> 2019 01 25 00 04 30.0000000  0 25
E02  26118889.046    26118894.721        2130.268        1590.808   137255734.775   102496180.005          45.500          48.750
E07  27644467.156    27644473.131        2732.095        2040.169   145272674.665   108482847.067          41.500          43.750
E15  26013659.915    26013666.788       -3101.681       -2316.247   136702738.615   102083215.030          46.000          47.750
E20  25045630.037                        1257.697                   131615678.095                          35.750
E27  24791326.433    24791331.789       -1879.143       -1403.262   130279334.428    97286522.032          50.000          51.250
E30  21817694.535    21817700.257         251.492         187.802   114652807.796    85617369.310          53.000          56.000
G01  24601986.078    24601986.298    24601990.338    24601989.225    24601991.555       -3808.051       -3808.051       -2967.188       -2967.192       -2843.564   129284461.339   129284329.340   100741038.524   100741040.536    96543491.872          39.250          24.250          24.250          39.250          43.000
G04  22581664.284    22581663.965    22581663.471                                        2501.553        2501.553        1949.272                                   118667472.954   118667469.965    92468165.241                                          45.750          34.750          34.750
G07  20340623.353    20340623.186    20340621.489    20340621.664                        -643.303        -643.303        -501.259        -501.271                   106890896.946   106890731.959    83291487.110    83291489.115                          54.750          46.250          46.250          52.750
G08  20409132.400    20409131.985    20409133.423    20409133.963    20409135.651         777.548         777.548         605.887         605.894         580.643   107250762.330   107250758.338    83572031.886    83572038.898    80089870.102          53.750          48.250          48.250          53.500          57.750
G09  23352245.105    23352245.172    23352245.682    23352245.835    23352248.857        3243.840        3243.840        2527.690        2527.705        2422.383   122716919.359   122716899.369    95623564.340    95623568.354    91639249.496          43.500          32.000          32.000          44.500          48.750
G11  22590239.876    22590239.605    22590238.766                                       -3315.935       -3315.935       -2583.797                                   118712654.315   118712550.324    92503292.688                                          45.500          36.000          36.000
G16  24274136.057    24274135.264    24274133.953                                        3128.001        3128.001        2437.424                                   127561489.595   127561490.607    99398576.283                                          42.250          25.000          25.000
G18  22839296.884    22839296.551    22839296.743                                       -3262.766       -3262.766       -2542.417                                   120021350.950   120021336.968    93523126.003                                          42.000          31.750          31.750
G27  21790692.194    21790691.896    21790692.750    21790692.871    21790695.629        2693.694        2693.694        2098.966        2098.975        2011.522   114510915.897   114510915.904    89229299.152    89229294.156    85511413.867          48.750          42.750          42.750          50.000          54.250
G28  23664238.680    23664238.097    23664237.575                                       -2456.574       -2456.574       -1914.219                                   124356439.733   124356436.763    96901126.794                                          41.750          26.750          26.750
G30  21769218.696    21769217.621    21769219.302    21769219.670    21769222.250       -2501.784       -2501.784       -1949.477       -1949.455       -1868.230   114398050.631   114398040.639    89141339.042    89141353.051    85427131.660          49.500          41.000          41.000          49.250          54.500
R02  23395936.254    23395935.581    23395940.435    23395940.796        3182.891        3182.891        2475.609        2475.574   124845223.275   124845213.282    97101845.605    97101840.595          45.750          44.750          40.000          38.750
R03  23118023.974    23118024.656    23118028.688    23118028.685         440.992         440.992         342.969         342.958   123752617.432   123752600.436    96252032.264    96252023.269          46.000          45.000          41.250          39.750
R10  23597253.710    23597252.097    23597259.726    23597260.682        3473.915        3473.915        2701.993        2702.006   125786675.825   125786683.826    97834080.044    97834084.053          44.750          44.000          36.500          35.000
R11  19771843.243    19771843.018    19771846.767    19771847.043        1230.563        1230.563         957.106         957.115   105654773.449   105654776.455    82175941.137    82175935.134          55.500          54.250          51.250          50.000
R12  19839498.474    19839497.609                                       -1794.024       -1794.024                                   105979061.099   105979077.105                                          52.750          52.000
R20  23463266.195    23463266.182    23463274.107    23463272.552        4133.194        4133.194        3214.702        3214.699   125468689.437   125468686.428    97586774.548    97586769.542          39.250          38.000          43.500          42.250
R21  19757968.516    19757968.132    19757972.937    19757972.462         972.695         972.695         756.572         756.575   105728923.482   105728913.481    82233609.139    82233610.138          55.000          54.500          51.500          50.500
R22  20638963.034    20638962.809    20638968.255    20638967.605       -3458.120       -3458.120       -2689.640       -2689.644   110172292.600   110172253.603    85689539.956    85689537.955          55.000          54.000          49.750          48.500
> 2019 01 25 00 05 00.0000000  0 25
E02  26131062.794    26131068.028        2134.407        1593.885   137319705.090   102543949.990          46.000          48.750
E07  27660066.945    27660075.189        2733.815        2041.453   145354662.870   108544071.999          40.750          44.000
E15  25995965.423    25995972.499       -3097.265       -2312.912   136609753.025   102013777.769          46.000          48.000
E20  25052844.539                        1270.134                   131653592.323                          36.000
E27  24780607.566    24780613.355       -1875.964       -1400.892   130223008.325    97244460.340          50.000          51.500
E30  21819150.207    21819155.893         258.454         193.013   114660457.047    85623081.415          53.250          55.750
G01  24580246.737    24580246.527    24580249.982    24580249.512    24580251.467       -3808.121       -3808.121       -2967.417       -2967.361       -2843.752   129170217.603   129170085.617   100652017.562   100652019.582    96458180.132          40.250          24.500          24.500          40.000          44.000
G04  22595981.349    22595981.186    22595981.466                                        2514.337        2514.337        1959.154                                   118742712.436   118742709.445    92526793.398                                          45.500          34.750          34.750
G07  20336999.230    20336998.999    20336997.432    20336997.307                        -626.389        -626.389        -488.092        -488.098                   106871852.004   106871687.017    83276646.896    83276648.903                          54.750          46.250          46.250          52.500
G08  20413619.896    20413619.605    20413621.101    20413621.533    20413623.152         794.619         794.619         619.182         619.189         593.392   107274344.516   107274340.525    83590407.616    83590414.628    80107480.179          54.250          48.000          48.000          53.500          58.000
G09  23370779.824    23370779.651    23370781.999    23370781.522    23370784.558        3249.827        3249.827        2532.329        2532.374        2426.851   122814324.417   122814304.415    95699464.352    95699468.358    91711987.009          43.000          31.000          31.000          44.000          49.250
G11  22571337.094    22571336.069    22571335.357                                       -3306.654       -3306.654       -2576.623                                   118613315.988   118613212.011    92425886.220                                          46.250          36.250          36.250
G16  24291995.227    24291994.748    24291994.851                                        3129.073        3129.073        2438.283                                   127655345.979   127655347.001    99471711.111                                          40.750          24.250          24.250
G18  22820698.052    22820697.832    22820698.539                                       -3253.188       -3253.188       -2534.954                                   119923611.666   119923597.676    93446965.518                                          43.750          32.000          32.000
G27  21806101.931    21806101.582    21806102.645    21806102.416    21806105.307        2704.865        2704.865        2107.734        2107.710        2019.904   114591894.432   114591894.440    89292399.314    89292394.308    85571884.858          48.750          42.750          42.750          50.250          54.250
G28  23650223.878    23650224.274    23650221.541                                       -2453.050       -2453.050       -1911.425                                   124282793.543   124282790.559    96843740.188                                          40.250          28.000          28.000
G30  21754967.125    21754966.806    21754968.573    21754968.911    21754971.379       -2490.850       -2490.850       -1940.875       -1940.893       -1860.008   114323161.797   114323151.807    89082984.122    89082998.123    85371208.191          48.250          41.250          41.250          49.500          54.250
R02  23413864.109    23413862.705    23413868.166    23413867.602        3194.530        3194.530        2484.635        2484.647   124940883.887   124940873.884    97176248.308    97176243.309          46.500          45.500          39.500          38.500
R03  23120564.711    23120565.269    23120571.022    23120570.038         465.822         465.822         362.323         362.320   123766220.422   123766203.425    96262612.390    96262603.386          44.500          44.000          40.750          40.000
R10  23616822.293    23616821.642    23616829.043    23616827.567        3479.687        3479.687        2706.450        2706.463   125890982.148   125890990.149    97915207.149    97915211.153          45.500          44.250          36.250          35.000
R11  19778796.056    19778795.288    19778799.575    19778799.506        1246.118        1246.118         969.211         969.217   105691924.007   105691927.010    82204836.010    82204830.011          55.250          54.250          51.500          50.250
R12  19829457.509    19829457.274                                       -1781.679       -1781.679                                   105925425.597   105925441.599                                          53.000          51.750
R20  23486476.978    23486476.708    23486484.328    23486483.385        4141.409        4141.409        3221.116        3221.114   125592809.365   125592806.356    97683312.260    97683307.250          37.750          37.750          42.250          41.500
R21  19763495.740    19763495.655    19763499.726    19763499.922         999.142         999.142         777.124         777.116   105758501.515   105758491.515    82256614.283    82256615.278          55.500          54.500          51.250          50.500
R22  20619579.631    20619578.996    20619584.043    20619583.898       -3439.970       -3439.970       -2675.524       -2675.527   110068820.789   110068781.792    85609061.922    85609059.914          55.250          54.250          50.000          49.000
> 2019 01 25 00 05 30.0000000  0 25
E02  26143259.069    26143264.093        2138.412        1596.881   137383796.450   102591810.396          46.000          48.250
E07  27675681.185    27675687.726        2735.697        2042.909   145436707.133   108605338.803          40.750          43.000
E15  25978296.540    25978303.327       -3092.788       -2309.561   136516902.123   101944441.083          45.750          47.750
E20  25060128.058                        1281.780                   131691871.041                          36.000
E27  24769907.440    24769913.416       -1872.673       -1398.420   130166779.213    97202471.078          50.250          51.750
E30  21820645.722    21820651.349         265.380         198.193   114668315.133    85628949.470          53.250          55.750
G01  24558505.646    24558506.285    24558509.801    24558509.644    24558511.282       -3808.328       -3808.328       -2967.565       -2967.562       -2843.911   129055971.020   129055839.014   100562994.388   100562996.398    96372866.300          39.500          24.000          24.000          40.000          44.500
G04  22610371.160    22610370.862    22610371.271                                        2526.846        2526.846        1968.986                                   118818330.332   118818327.343    92585716.424                                          45.250          34.750          34.750
G07  20333472.048    20333471.714    20333470.119    20333470.274                        -609.387        -609.387        -474.825        -474.831                   106853315.885   106853150.893    83262203.172    83262205.178                          54.500          46.250          46.250          52.750
G08  20418205.000    20418204.360    20418205.981    20418206.762    20418208.068         811.662         811.662         632.494         632.497         606.139   107298438.638   107298434.648    83609182.263    83609189.272    80125472.548          54.500          47.750          47.750          53.500          58.000
G09  23389349.027    23389349.328    23389350.836    23389351.254    23389354.121        3255.663        3255.663        2536.948        2536.907        2431.198   122911907.702   122911887.720    95775503.300    95775507.292    91784857.631          43.000          31.500          31.500          44.500          49.000
G11  22552486.470    22552485.299    22552484.264                                       -3297.368       -3297.368       -2569.348                                   118514254.198   118514150.205    92348695.220                                          47.500          36.500          36.500
G16  24309861.995    24309861.475    24309860.482                                        3130.075        3130.075        2439.111                                   127749233.907   127749234.924    99544870.499                                          41.000          23.750          23.750
G18  22802154.818    22802154.088    22802153.546                                       -3243.536       -3243.536       -2527.465                                   119826161.390   119826147.395    93371030.229                                          44.500          33.000          33.000
G27  21821575.773    21821575.376    21821576.153    21821576.450    21821579.109        2715.953        2715.953        2116.319        2116.307        2028.130   114673207.817   114673207.828    89355760.399    89355755.400    85632605.894          49.750          43.000          43.000          50.500          54.500
G28  23636228.647    23636227.221    23636227.094                                       -2449.884       -2449.884       -1908.993                                   124209248.603   124209245.615    96786432.456                                          39.000          27.500          27.500
G30  21740778.833    21740778.410    21740780.142    21740780.081    21740782.864       -2479.783       -2479.783       -1932.312       -1932.328       -1851.818   114248601.380   114248591.386    89024885.108    89024899.111    85315529.965          47.750          41.000          41.000          49.000          54.250
R02  23431854.481    23431854.423    23431858.167    23431859.957        3206.056        3206.056        2493.600        2493.581   125036892.025   125036882.026    97250921.322    97250916.326          45.250          45.000          41.250          39.750
R03  23123245.996    23123246.350    23123252.646    23123249.955         490.748         490.748         381.657         381.654   123780568.415   123780551.416    96273771.922    96273762.919          46.000          45.000          41.500          40.500
R10  23636420.242    23636419.617    23636428.274    23636428.128        3485.525        3485.525        2710.982        2710.999   125995460.680   125995468.679    97996468.224    97996472.229          45.500          44.250          36.500          35.250
R11  19785835.270    19785835.073    19785838.813    19785838.812        1261.642        1261.642         981.300         981.292   105729540.938   105729543.937    82234093.622    82234087.621          55.250          54.250          51.250          50.000
R12  19819486.326    19819485.918                                       -1769.214       -1769.214                                   105872162.258   105872178.262                                          52.750          51.500
R20  23509736.942    23509735.386    23509743.104    23509740.676        4149.753        4149.753        3227.572        3227.545   125717178.257   125717175.263    97780043.602    97780038.600          39.750          38.500          42.000          41.000
R21  19769171.155    19769171.121    19769175.490    19769175.541        1025.543        1025.543         797.672         797.657   105788872.626   105788862.627    82280236.260    82280237.258          55.250          54.500          51.750          50.250
R22  20600298.571    20600297.826    20600302.666    20600302.596       -3421.654       -3421.654       -2661.273       -2661.280   109965896.316   109965857.318    85529009.566    85529007.570          55.250          54.500          49.750          48.750
> 2019 01 25 00 06 00.0000000  0 25
E02  26155478.093    26155483.541        2142.422        1599.867   137448008.767   102639761.112          46.000          48.250
E07  27691303.838    27691310.303        2737.527        2044.159   145518805.362   108666645.874          39.750          43.000
E15  25960652.403    25960660.231       -3088.227       -2306.128   136424187.641   101875206.289          45.250          47.750
E20  25067482.498                        1294.260                   131730513.027                          37.000
E27  24759226.713    24759232.293       -1869.349       -1395.948   130110647.723    97160554.714          50.500          52.000
E30  21822180.818    21822186.446         272.399         203.413   114676382.417    85634973.741          53.250          56.000
G01  24536765.275    24536765.435    24536769.119    24536768.506    24536770.701       -3808.161       -3808.161       -2967.460       -2967.450       -2843.811   128941724.701   128941592.720   100473971.398   100473973.411    96287552.623          40.250          25.000          25.000          40.750          44.500
G04  22624831.859    22624832.256    22624831.965                                        2539.355        2539.355        1978.655                                   118894323.821   118894320.822    92644932.098                                          44.750          34.750          34.750
G07  20330041.719    20330041.483    20330040.045    20330039.768                        -592.336        -592.336        -461.563        -461.558                   106835290.274   106835125.287    83248157.241    83248159.246                          54.750          46.250          46.250          52.750
G08  20422887.127    20422886.436    20422888.131    20422888.510    20422890.253         828.645         828.645         645.692         645.699         618.790   107323043.399   107323039.406    83628354.802    83628361.813    80143846.232          54.250          47.750          47.750          53.500          58.000
G09  23407952.571    23407952.203    23407954.193    23407953.889    23407956.993        3261.527        3261.527        2541.479        2541.464        2435.570   123009666.221   123009646.236    95851678.765    95851682.763    91857859.099          43.500          31.000          31.000          44.500          48.500
G11  22533688.844    22533688.307    22533686.431                                       -3288.073       -3288.073       -2562.117                                   118415471.725   118415367.729    92271721.879                                          47.500          36.750          36.750
G16  24327735.170    24327734.017    24327732.827                                        3131.066        3131.066        2439.830                                   127843152.949   127843153.966    99618054.110                                          40.750          23.750          23.750
G18  22783665.968    22783665.323    22783664.420                                       -3233.672       -3233.672       -2519.746                                   119729003.794   119728989.807    93295323.047                                          44.250          32.000          32.000
G27  21837112.343    21837111.902    21837112.778    21837112.990    21837115.602        2727.053        2727.053        2125.008        2124.987        2036.453   114754853.497   114754853.507    89419380.406    89419375.410    85693575.075          49.250          42.500          42.500          50.250          54.250
G28  23622252.880    23622252.312    23622251.207                                       -2446.454       -2446.454       -1906.290                                   124135805.189   124135802.188    96729203.846                                          40.500          27.250          27.250
G30  21726653.316    21726652.969    21726654.400    21726654.793    21726657.521       -2468.770       -2468.770       -1923.728       -1923.742       -1843.576   114174371.707   114174361.716    88967043.812    88967057.808    85260098.723          48.250          41.000          41.000          49.000          54.500
R02  23449912.184    23449911.287    23449915.118    23449915.185        3217.426        3217.426        2502.449        2502.451   125133243.310   125133233.317    97325861.177    97325856.179          46.000          44.750          42.000          40.750
R03  23126066.354    23126066.178    23126068.810    23126069.307         515.462         515.462         400.947         400.915   123795660.256   123795643.249    96285509.998    96285501.006          45.250          44.750          40.000          39.750
R10  23656052.406    23656051.746    23656060.503    23656060.409        3491.112        3491.112        2715.367        2715.361   126100110.835   126100118.839    98077862.809    98077866.799          44.750          43.750          35.500          34.750
R11  19792962.193    19792961.910    19792965.526    19792965.725        1277.237        1277.237         993.417         993.412   105767624.627   105767627.632    82263714.271    82263708.271          55.250          54.250          51.250          50.000
R12  19809585.324    19809585.070                                       -1756.781       -1756.781                                   105819272.764   105819288.765                                          52.500          51.750
R20  23533039.674    23533038.556    23533047.014    23533044.583        4157.942        4157.942        3233.898        3233.912   125841791.891   125841788.885    97876965.345    97876960.335          39.000          37.750          42.000          40.500
R21  19774994.270    19774994.404    19774999.209    19774999.049        1051.901        1051.901         818.152         818.148   105820034.818   105820024.821    82304473.525    82304474.525          55.000          54.250          52.000          50.250
R22  20581120.343    20581119.575    20581125.216    20581124.707       -3403.256       -3403.256       -2646.966       -2646.968   109863522.596   109863483.599    85449385.598    85449383.594          55.250          54.250          50.250          48.500
> 2019 01 25 00 06 30.0000000  0 25
E02  26167720.076    26167726.105        2146.484        1602.893   137512341.874   102687801.983          45.500          48.750
E07  27706935.787    27706943.056        2739.115        2045.496   145600955.532   108727991.772          40.500          42.250
E15  25943036.213    25943043.758       -3083.527       -2302.588   136331611.383   101806074.694          45.500          48.000
E20  25074904.385                        1306.026                   131769516.819                          36.750
E27  24748563.743    24748569.203       -1866.211       -1393.564   130054614.440    97118711.690          50.500          51.750
E30  21823756.239    21823761.502         279.405         208.636   114684659.339    85641154.567          53.500          56.000
G01  24515026.351    24515024.817    24515030.179    24515029.809    24515031.407       -3808.025       -3808.025       -2967.298       -2967.337       -2843.701   128827481.572   128827349.587   100384950.920   100384952.926    96202241.331          39.500          23.500          23.500          40.750          45.000
G04  22639364.640    22639364.272    22639364.003                                        2551.634        2551.634        1988.287                                   118970690.045   118970687.033    92704438.237                                          45.000          34.250          34.250
G07  20326709.020    20326708.582    20326707.237    20326707.163                        -575.252        -575.252        -448.234        -448.236                   106817776.303   106817611.313    83234509.993    83234511.996                          54.500          46.250          46.250          52.500
G08  20427665.909    20427665.345    20427667.071    20427667.530    20427669.174         845.575         845.575         658.893         658.888         631.439   107348157.057   107348153.061    83647923.887    83647930.899    80162599.942          54.250          48.250          48.250          53.500          58.000
G09  23426588.834    23426588.511    23426589.440    23426589.859    23426592.925        3267.264        3267.264        2545.984        2545.960        2439.882   123107596.880   123107576.894    95927988.325    95927992.329    91930989.118          44.750          31.750          31.750          45.000          48.000
G11  22514944.722    22514943.555    22514942.431                                       -3278.628       -3278.628       -2554.780                                   118316970.814   118316866.829    92194967.951                                          47.750          36.000          36.000
G16  24345612.163    24345612.172    24345610.661                                        3132.073        3132.073        2440.667                                   127937101.890   127937102.889    99691261.034                                          41.250          23.500          23.500
G18  22765232.804    22765232.892    22765233.834                                       -3223.735       -3223.735       -2512.027                                   119632142.152   119632128.147    93219846.425                                          44.250          33.000          33.000
G27  21852711.582    21852711.336    21852712.082    21852712.449    21852714.803        2737.924        2737.924        2133.460        2133.470        2044.589   114836828.876   114836828.886    89483257.330    89483252.331    85754790.461          49.000          42.500          42.500          50.250          54.000
G28  23608295.926    23608295.558    23608294.574                                       -2442.928       -2442.928       -1903.637                                   124062463.495   124062460.507    96672054.500                                          40.500          26.000          26.000
G30  21712591.781    21712590.881    21712592.126    21712592.521    21712595.395       -2457.555       -2457.555       -1914.990       -1914.998       -1835.198   114100475.047   114100465.058    88909462.002    88909476.015    85204916.162          49.500          41.250          41.250          48.750          54.500
R02  23468030.523    23468030.701    23468034.796    23468035.230        3228.530        3228.530        2511.095        2511.114   125229933.238   125229923.240    97401064.427    97401059.425          43.500          43.000          41.750          40.750
R03  23129023.040    23129023.489    23129028.347    23129028.033         540.091         540.091         420.111         420.112   123811494.955   123811477.954    96297825.869    96297816.869          45.250          45.250          41.250          40.250
R10  23675718.731    23675716.379    23675721.791    23675725.128        3496.911        3496.911        2719.721        2719.716   126204931.212   126204939.217    98159389.729    98159393.737          45.250          44.000          38.000          36.500
R11  19800176.339    19800176.103    19800179.833    19800179.899        1292.824        1292.824        1005.510        1005.519   105806175.183   105806178.186    82293698.037    82293692.036          55.500          54.250          51.500          50.000
R12  19799754.568    19799754.472                                       -1744.148       -1744.148                                   105766759.402   105766775.407                                          52.750          51.750
R20  23556387.298    23556386.250    23556392.781    23556392.405        4165.897        4165.897        3240.150        3240.127   125966646.624   125966643.633    97974074.575    97974069.566          37.500          36.500          40.750          39.750
R21  19780964.877    19780965.108    19780969.362    19780969.801        1078.178        1078.178         838.624         838.626   105851986.141   105851976.145    82329324.562    82329325.561          54.750          54.250          51.250          50.500
R22  20562046.346    20562045.843    20562050.193    20562050.252       -3384.701       -3384.701       -2632.549       -2632.547   109761703.339   109761664.341    85370192.857    85370190.859          55.500          54.500          49.750          48.250
> 2019 01 25 00 07 00.0000000  0 25
E02  26179985.557    26179990.872        2150.554        1605.925   137576795.859   102735933.131          46.000          48.250
E07  27722578.487    27722585.479        2740.689        2046.651   145683155.629   108789374.944          40.500          41.500
E15  25925445.824    25925453.346       -3078.860       -2299.150   136239175.069   101737047.615          46.000          48.000
E20  25082395.005                        1317.993                   131808881.271                          37.000
E27  24737919.385    24737925.150       -1862.861       -1391.089   129998680.031    97076942.491          50.500          51.750
E30  21825371.154    21825376.524         286.464         213.909   114693146.293    85647492.226          53.250          56.000
G01  24493288.325    24493288.048    24493290.214    24493290.526    24493292.796       -3807.828       -3807.828       -2967.153       -2967.153       -2843.496   128713244.665   128713112.674   100295935.254   100295937.267    96116934.692          41.500          24.750          24.750          40.250          45.750
G04  22653966.881    22653966.021    22653966.537                                        2563.970        2563.970        1997.862                                   119047426.135   119047423.153    92764232.612                                          44.250          33.500          33.500
G07  20323473.387    20323473.322    20323471.960    20323471.830                        -558.151        -558.151        -434.910        -434.902                   106800775.025   106800610.036    83221262.243    83221264.250                          54.000          46.250          46.250          52.500
G08  20432542.004    20432541.068    20432542.669    20432543.074    20432544.748         862.522         862.522         672.104         672.105         644.099   107373778.314   107373774.322    83667888.509    83667895.518    80181732.704          54.750          48.000          48.000          53.500          58.000
G09  23445256.221    23445255.323    23445257.727    23445257.308    23445259.946        3272.747        3272.747        2550.267        2550.233        2443.980   123205696.498   123205676.515    96004429.581    96004433.581    92004245.336          43.750          31.000          31.000          44.500          47.250
G11  22496254.747    22496254.164    22496252.464                                       -3269.122       -3269.122       -2547.410                                   118218755.040   118218651.060    92118436.173                                          48.000          36.500          36.500
G16  24363497.161    24363494.654    24363493.302                                        3133.081        3133.081        2441.350                                   128031080.580   128031081.592    99764491.169                                          41.250          23.000          23.000
G18  22746858.414    22746857.506    22746858.142                                       -3213.759       -3213.759       -2504.215                                   119535579.854   119535565.858    93144603.125                                          44.250          32.750          32.750
G27  21868373.148    21868372.690    21868373.841    21868374.034    21868376.444        2748.886        2748.886        2141.959        2141.970        2052.722   114919131.404   114919131.415    89547389.165    89547384.171    85816250.140          49.000          42.500          42.500          50.000          54.250
G28  23594359.824    23594358.899    23594357.874                                       -2439.529       -2439.529       -1900.950                                   123989223.627   123989220.633    96614984.508                                          41.500          25.250          25.250
G30  21698593.607    21698592.811    21698594.127    21698593.834    21698597.140       -2446.426       -2446.426       -1906.299       -1906.310       -1826.880   114026913.704   114026903.705    88852141.472    88852155.468    85149983.988          49.500          41.250          41.250          48.750          54.500
R02  23486212.601    23486212.141    23486217.451    23486216.733        3239.626        3239.626        2519.720        2519.712   125326957.387   125326947.385    97476527.634    97476522.628          43.000          42.000          41.750          41.000
R03  23132119.078    23132120.176    23132125.339    23132124.418         564.925         564.925         439.397         439.406   123828070.936   123828053.940    96310718.304    96310709.310          46.000          44.750          43.000          41.750
R10  23695413.314    23695412.689    23695420.531    23695419.992        3502.444        3502.444        2724.108        2724.125   126309921.367   126309929.372    98241048.673    98241052.677          44.750          43.750          37.500          36.250
R11  19807477.477    19807477.809    19807481.914    19807481.596        1308.390        1308.390        1017.655        1017.663   105845192.919   105845195.921    82324045.164    82324039.166          55.250          54.250          51.500          50.250
R12  19789995.273    19789994.581                                       -1731.497       -1731.497                                   105714624.416   105714640.422                                          52.750          51.750
R20  23579780.090    23579779.853    23579784.817    23579785.420        4173.735        4173.735        3246.298        3246.282   126091738.270   126091735.264    98071368.061    98071363.058          37.500          37.250          40.250          39.750
R21  19787083.103    19787083.031    19787087.840    19787087.715        1104.387        1104.387         858.977         858.971   105884724.341   105884714.337    82354787.603    82354788.598          54.500          54.250          51.500          50.500
R22  20543076.697    20543076.135    20543081.058    20543080.930       -3366.053       -3366.053       -2618.028       -2618.015   109660441.841   109660402.841    85291433.934    85291431.934          55.750          54.500          50.000          48.750
> 2019 01 25 00 07 30.0000000  0 25
E02  26192274.069    26192279.063        2154.538        1608.868   137641370.619   102784154.484          46.250          48.000
E07  27738229.866    27738237.157        2742.482        2047.938   145765403.647   108850793.934          42.500          42.750
E15  25907883.044    25907890.835       -3074.093       -2295.581   136146880.487   101668126.373          46.500          48.500
E20  25089954.626                        1330.373                   131848604.938                          37.500
E27  24727294.328    24727299.889       -1859.482       -1388.583   129942845.124    97035247.598          50.500          51.750
E30  21827026.046    21827031.565         293.394         219.105   114701843.690    85653987.035          53.500          56.000
G01  24471550.315    24471550.678    24471553.168    24471554.493    24471555.592       -3807.466       -3807.466       -2966.903       -2966.908       -2843.252   128599017.065   128598885.058   100206926.791   100206928.792    96031634.947          41.500          26.250          26.250          40.500          45.000
G04  22668639.296    22668638.440    22668638.714                                        2576.210        2576.210        2007.402                                   119124529.236   119124526.243    92824312.939                                          44.750          33.750          33.750
G07  20320336.561    20320335.921    20320334.480    20320334.504                        -540.929        -540.929        -421.518        -421.516                   106784288.139   106784123.150    83208415.323    83208417.328                          54.250          46.000          46.000          53.000
G08  20437513.655    20437512.954    20437514.483    20437514.925    20437516.569         879.320         879.320         685.170         685.183         656.628   107399905.482   107399901.489    83688247.345    83688254.355    80201243.257          54.750          48.000          48.000          53.500          57.750
G09  23463955.073    23463954.261    23463956.213    23463955.697    23463959.691        3278.299        3278.299        2554.557        2554.568        2448.085   123303962.098   123303942.101    96081000.132    96081004.145    92077625.451          43.250          30.000          30.000          43.250          47.500
G11  22477619.533    22477619.231    22477616.943                                       -3259.465       -3259.465       -2539.851                                   118120826.696   118120722.715    92042128.396                                          48.000          36.500          36.500
G16  24381384.888    24381384.557    24381383.386                                        3134.149        3134.149        2442.178                                   128125088.305   128125089.320    99837743.903                                          40.750          23.750          23.750
G18  22728540.196    22728540.514    22728540.416                                       -3203.556       -3203.556       -2496.258                                   119439320.117   119439306.127    93069595.559                                          44.500          33.250          33.250
G27  21884096.446    21884096.393    21884097.095    21884097.106    21884099.737        2759.639        2759.639        2150.400        2150.387        2060.791   115001758.505   115001758.511    89611773.927    89611768.925    85877952.204          49.000          42.500          42.500          50.000          54.000
G28  23580441.847    23580441.546    23580440.522                                       -2436.218       -2436.218       -1898.333                                   123916085.647   123916082.670    96557993.885                                          41.750          28.000          28.000
G30  21684659.209    21684658.779    21684659.961    21684660.203    21684663.028       -2435.170       -2435.170       -1897.531       -1897.538       -1818.469   113953689.942   113953679.953    88795084.005    88795098.007    85095303.917          48.750          41.250          41.250          49.000          54.500
R02  23504456.739    23504456.192    23504462.336    23504461.675        3250.622        3250.622        2528.299        2528.325   125424311.110   125424301.118    97552247.172    97552242.170          41.750          41.750          43.000          42.000
R03  23135355.240    23135354.711    23135358.545    23135358.434         589.469         589.469         458.469         458.503   123845387.068   123845370.068    96324186.398    96324177.398          45.000          44.500          42.000          41.250
R10  23715142.052    23715139.754    23715148.660    23715148.437        3508.091        3508.091        2728.478        2728.471   126415079.477   126415087.474    98322838.289    98322842.289          46.500          45.250          36.750          35.000
R11  19814866.498    19814866.682    19814870.542    19814870.476        1323.987        1323.987        1029.774        1029.775   105884678.071   105884681.075    82354755.841    82354749.841          55.000          54.250          51.250          49.750
R12  19780306.409    19780306.244                                       -1718.824       -1718.824                                   105662870.181   105662886.184                                          52.500          51.500
R20  23603218.068    23603215.807    23603222.481    23603221.681        4181.286        4181.286        3252.218        3252.228   126217062.927   126217059.936    98168842.799    98168837.808          37.250          36.500          40.750          39.750
R21  19793348.050    19793347.865    19793352.124    19793352.416        1130.479        1130.479         879.284         879.281   105918247.500   105918237.497    82380861.179    82380862.174          55.000          54.250          51.750          50.250
R22  20524211.402    20524211.084    20524215.053    20524215.931       -3347.286       -3347.286       -2603.444       -2603.439   109559741.805   109559702.806    85213111.706    85213109.702          55.000          54.250          49.250          48.500
> 2019 01 25 00 08 00.0000000  0 25
E02  26204585.176    26204590.329        2158.532        1611.852   137706066.071   102832465.982          46.000          48.500
E07  27753889.996    27753896.884        2743.645        2048.831   145847697.535   108912247.139          42.250          42.750
E15  25890346.949    25890354.652       -3069.358       -2292.011   136054729.343   101599312.238          46.000          48.000
E20  25097582.369                        1342.102                   131888686.360                          37.750
E27  24716688.614    24716694.190       -1856.154       -1386.112   129887110.320    96993627.458          50.250          52.000
E30  21828721.282    21828726.691         300.463         224.379   114710751.933    85660639.301          53.500          56.250
G01  24449815.074    24449815.839    24449819.855    24449819.818    24449820.983       -3806.976       -3806.976       -2966.479       -2966.474       -2842.839   128484801.744   128484669.756   100117927.921   100117929.929    95946344.373          40.750          26.500          26.500          42.000          45.500
G04  22683380.325    22683380.168    22683380.730                                        2588.222        2588.222        2016.740                                   119201996.416   119201993.447    92884676.952                                          44.500          34.250          34.250
G07  20317297.057    20317296.783    20317295.233    20317295.542                        -523.775        -523.775        -408.135        -408.126                   106768316.881   106768151.892    83195970.187    83195972.195                          54.250          46.000          46.000          52.750
G08  20442581.235    20442580.662    20442582.225    20442582.645    20442584.386         896.135         896.135         698.292         698.293         669.191   107426537.090   107426533.097    83708999.248    83709006.256    80221130.499          54.750          47.750          47.750          53.250          57.750
G09  23482685.584    23482685.078    23482686.386    23482687.081    23482689.782        3283.625        3283.625        2558.646        2558.613        2452.003   123402390.515   123402370.524    96157697.581    96157701.586    92151127.168          43.750          29.750          29.750          42.750          47.500
G11  22459038.732    22459038.696    22459037.472                                       -3249.673       -3249.673       -2532.282                                   118023188.586   118023084.593    91966046.758                                          45.750          36.250          36.250
G16  24399279.545    24399279.283    24399276.836                                        3135.120        3135.120        2442.950                                   128219124.516   128219125.522    99911018.843                                          40.750          23.500          23.500
G18  22710281.421    22710281.047    22710280.829                                       -3193.345       -3193.345       -2488.179                                   119343366.361   119343352.369    92994826.433                                          42.750          33.250          33.250
G27  21899881.729    21899881.030    21899881.742    21899881.826    21899884.415        2770.319        2770.319        2158.682        2158.683        2068.732   115084707.588   115084707.603    89676409.588    89676404.589    85939894.709          49.500          42.500          42.500          49.750          54.250
G28  23566543.378    23566543.454    23566541.180                                       -2432.794       -2432.794       -1895.681                                   123843049.880   123843046.896    96501082.893                                          41.750          26.250          26.250
G30  21670789.529    21670789.351    21670790.660    21670790.846    21670793.989       -2423.818       -2423.818       -1888.676       -1888.693       -1809.982   113880806.082   113880796.090    88738291.394    88738305.396    85040877.667          49.500          41.500          41.500          49.250          54.750
R02  23522760.921    23522761.197    23522766.950    23522766.534        3261.318        3261.318        2536.562        2536.558   125521990.026   125521980.017    97628219.627    97628214.621          41.500          41.750          43.500          42.250
R03  23138728.203    23138727.506    23138730.871    23138730.676         614.098         614.098         477.638         477.641   123863442.112   123863425.117    96338229.181    96338220.199          45.000          44.000          40.750          40.000
R10  23734898.873    23734897.740    23734905.398    23734907.030        3513.646        3513.646        2732.799        2732.786   126520404.648   126520412.640    98404757.875    98404761.872          44.500          44.000          36.000          34.750
R11  19822343.239    19822343.244    19822347.287    19822347.115        1339.544        1339.544        1041.862        1041.872   105924630.781   105924633.786    82385830.172    82385824.176          55.000          54.000          51.500          50.250
R12  19770689.420    19770689.257                                       -1706.017       -1706.017                                   105611498.677   105611514.680                                          52.500          51.750
R20  23626695.309    23626694.125    23626700.448    23626700.463        4188.983        4188.983        3258.101        3258.088   126342616.554   126342613.527    98266495.567    98266490.551          36.250          35.250          39.750          39.500
R21  19799758.713    19799758.548    19799762.871    19799763.138        1156.508        1156.508         899.521         899.509   105952553.402   105952543.403    82407543.551    82407544.546          55.250          54.250          51.500          50.000
R22  20505453.537    20505452.897    20505458.005    20505457.314       -3328.396       -3328.396       -2588.755       -2588.754   109459606.618   109459567.621    85135228.792    85135226.799          55.500          54.500          50.250          48.750
> 2019 01 25 00 08 30.0000000  0 25
E02  26216919.420    26216924.290        2162.591        1614.942   137770882.163   102880867.556          46.000          48.000
E07  27769557.398    27769565.408        2745.318        2050.099   145930035.422   108973733.191          42.250          43.500
E15  25872839.106    25872846.511       -3064.363       -2288.307   135962723.415   101530606.561          46.000          47.750
E20  25105276.604                        1353.785                   131929124.219                          37.500
E27  24706102.072    24706107.592       -1852.775       -1383.564   129831476.297    96952082.576          50.500          52.250
E30  21830456.917    21830461.996         307.535         229.644   114719871.435    85667449.322          53.500          56.000
G01  24428085.331    24428085.110    24428087.498    24428087.842    24428089.413       -3806.390       -3806.390       -2966.068       -2966.018       -2842.426   128370601.763   128370469.762   100028941.030   100028943.043    95861065.250          41.750          26.250          26.250          41.500          46.250
G04  22698191.695    22698190.584    22698191.044                                        2600.298        2600.298        2026.247                                   119279824.796   119279821.823    92945322.448                                          45.750          34.500          34.500
G07  20314356.066    20314355.885    20314354.438    20314354.350                        -506.542        -506.542        -394.712        -394.701                   106752862.456   106752697.469    83183927.780    83183929.787                          53.500          46.000          46.000          52.750
G08  20447744.782    20447744.367    20447745.826    20447746.333    20447747.894         912.861         912.861         711.328         711.327         681.691   107453671.875   107453667.882    83730143.242    83730150.252    80241393.496          54.750          47.750          47.750          53.500          57.750
G09  23501446.903    23501446.596    23501447.031    23501448.069    23501450.852        3288.859        3288.859        2562.771        2562.749        2455.971   123500978.707   123500958.721    96234519.539    96234523.533    92224748.213          44.500          30.250          30.250          43.000          48.250
G11  22440514.993    22440514.439    22440513.270                                       -3239.906       -3239.906       -2524.614                                   117925843.529   117925739.547    91890193.495                                          46.500          36.500          36.500
G16  24417179.649    24417178.628    24417178.353                                        3135.852        3135.852        2443.514                                   128313188.663   128313189.662    99984315.530                                          40.750          25.250          25.250
G18  22692080.408    22692079.984    22692080.077                                       -3182.935       -3182.935       -2480.194                                   119247721.972   119247707.985    92920298.349                                          43.000          33.250          33.250
G27  21915726.780    21915726.481    21915727.790    21915727.337    21915729.959        2780.907        2780.907        2166.911        2166.940        2076.648   115167976.110   115167976.120    89741294.156    89741289.159    86002075.758          49.500          42.500          42.500          50.250          53.750
G28  23552663.576    23552664.091    23552663.473                                       -2429.379       -2429.379       -1893.011                                   123770116.320   123770113.326    96444251.593                                          40.000          26.000          26.000
G30  21656985.787    21656985.423    21656986.557    21656986.830    21656989.600       -2412.301       -2412.301       -1879.767       -1879.758       -1801.427   113808264.390   113808254.406    88681765.408    88681779.414    84986706.937          48.750          41.500          41.500          49.250          54.750
R02  23541127.041    23541127.950    23541132.499    23541131.639        3271.947        3271.947        2544.882        2544.870   125619989.709   125619979.708    97704441.551    97704436.543          41.500          41.750          43.000          42.000
R03  23142237.087    23142237.084    23142242.631    23142241.907         638.757         638.757         496.787         496.790   123882234.529   123882217.531    96352845.506    96352836.506          43.000          43.250          41.750          41.000
R10  23754690.134    23754688.422    23754699.217    23754695.852        3519.212        3519.212        2737.271        2737.212   126625896.089   126625904.094    98486806.824    98486810.806          45.500          44.000          35.750          33.750
R11  19829907.997    19829907.417    19829911.164    19829911.496        1355.133        1355.133        1054.003        1053.995   105965051.149   105965054.152    82417268.238    82417262.235          55.000          54.250          51.250          50.000
R12  19761145.033    19761144.301                                       -1693.127       -1693.127                                   105560512.169   105560528.169                                          52.750          51.750
R20  23650216.440    23650215.595    23650220.830    23650221.359        4196.244        4196.244        3263.667        3263.692   126468395.141   126468392.152    98364323.371    98364318.368          36.000          35.250          39.000          38.750
R21  19806315.254    19806315.277    19806319.815    19806320.007        1182.597        1182.597         919.813         919.804   105987639.793   105987629.799    82434832.968    82434833.964          55.000          54.500          51.500          50.500
R22  20486800.464    20486800.104    20486805.068    20486805.099       -3309.401       -3309.401       -2573.963       -2573.952   109360039.865   109360000.866    85057788.016    85057786.014          54.750          54.500          50.000          49.250
> 2019 01 25 00 09 00.0000000  0 26
E02  26229275.961    26229281.548        2166.587        1617.880   137835818.728   102929359.050          45.750          48.000
E07  27785234.548    27785241.174        2746.715        2051.081   146012415.112   109035250.470          42.000          43.500
E15  25855358.773    25855366.345       -3059.513       -2284.703   135870864.439   101462010.607          45.750          48.250
E20  25113040.250                        1365.651                   131969917.134                          38.000
E27  24695534.739    24695540.155       -1849.384       -1381.035   129775943.688    96910613.429          50.750          52.250
E30  21832232.274    21832237.670         314.576         234.916   114729202.597    85674417.398          53.750          56.000
G01  24406356.946    24406356.706    24406359.039    24406359.127    24406362.000       -3805.768       -3805.768       -2965.502       -2965.521       -2841.960   128256420.195   128256288.211    99939968.397    99939970.418    95775799.868          40.750          25.500          25.500          40.750          46.500
G04  22713069.236    22713068.860    22713069.631                                        2612.164        2612.164        2035.432                                   119358011.487   119358008.503    93006247.107                                          44.500          34.750          34.750
G07  20311513.608    20311513.621    20311512.296    20311512.295                        -489.232        -489.232        -381.232        -381.223                   106737926.405   106737761.414    83172289.298    83172291.307                          53.500          46.500          46.500          53.000
G08  20453003.825    20453003.417    20453004.826    20453005.116    20453006.962         929.541         929.541         724.321         724.324         694.141   107481308.049   107481304.055    83751677.925    83751684.937    80262030.902          54.500          48.000          48.000          53.250          57.750
G09  23520236.436    23520235.971    23520237.223    23520237.154    23520241.485        3294.056        3294.056        2566.799        2566.858        2459.861   123599723.588   123599703.591    96311463.581    96311467.598    92298486.245          43.500          29.500          29.500          42.250          48.750
G11  22422047.127    22422046.904    22422045.261                                       -3230.005       -3230.005       -2516.915                                   117828794.500   117828690.507    91814570.879                                          47.750          36.250          36.250
G16  24435084.565    24435083.965    24435082.753                                        3136.898        3136.898        2444.261                                   128407280.014   128407281.033   100057633.468                                          41.000          23.250          23.250
G18  22673939.517    22673939.118    22673939.421                                       -3172.475       -3172.475       -2472.084                                   119152390.355   119152376.366    92846013.973                                          45.250          34.000          34.000
G27  21931632.785    21931632.058    21931633.077    21931633.307    21931635.613        2791.410        2791.410        2175.126        2175.114        2084.485   115251561.489   115251561.500    89806425.614    89806420.613    86064493.404          49.500          42.500          42.500          50.250          53.750
G28  23538804.868    23538804.209    23538802.645                                       -2425.913       -2425.913       -1890.414                                   123697285.157   123697282.179    96387500.053                                          39.500          27.000          27.000
G30  21643247.084    21643246.420    21643247.670    21643247.583    21643250.828       -2400.783       -2400.783       -1870.737       -1870.741       -1792.790   113736067.189   113736057.203    88625507.857    88625521.860    84932793.454          48.750          41.250          41.250          49.250          54.750
R02  23559550.315    23559551.258    23559555.805    23559556.379        3282.441        3282.441        2553.042        2553.043   125718305.734   125718295.730    97780909.530    97780904.526          42.500          42.250          42.500          41.250
R03  23145885.190    23145885.302    23145891.231    23145890.693         663.209         663.209         515.808         515.823   123901763.208   123901746.220    96368034.486    96368025.494          44.500          44.500          42.250          41.250
R10  23774509.838    23774508.839    23774515.889    23774517.605        3524.613        3524.613        2741.419        2741.411   126731552.880   126731560.881    98568984.308    98568988.308          44.500          43.500          35.750          34.500
R11  19837559.213    19837558.863    19837563.574    19837563.377        1370.758        1370.758        1066.133        1066.142   106005939.455   106005942.460    82449070.256    82449064.257          55.000          54.000          51.500          50.000
R12  19751672.288    19751671.831                                       -1680.179       -1680.179                                   105509912.854   105509928.856                                          52.500          51.500
R13  24132720.221    24132717.986    24132724.824    24132723.112       -3727.295       -3727.295       -2899.048       -2899.043   128867368.233   128867361.243   100230175.763   100230169.782          37.000          36.000          33.250          31.750
R20  23673783.387    23673778.972    23673786.848    23673784.660        4203.855        4203.855        3269.640        3269.584   126594395.129   126594392.088    98462323.290    98462318.293          37.500          35.750          40.250          38.750
R21  19813017.213    19813017.468    19813022.503    19813022.130        1208.458        1208.458         939.920         939.919   106023504.519   106023494.524    82462727.757    82462728.754          54.750          54.250          51.750          50.250
R22  20468256.002    20468255.216    20468261.110    20468260.040       -3290.273       -3290.273       -2559.107       -2559.114   109261044.818   109261005.816    84980791.897    84980789.893          55.500          54.500          50.250          49.500
> 2019 01 25 00 09 30.0000000  0 27
E02  26241656.119    26241661.660        2170.580        1620.881   137900875.862   102977940.627          45.750          48.250
E07  27800917.529    27800925.229        2748.073        2052.144   146094834.669   109096797.534          41.500          44.000
E15  25837906.359    25837914.224       -3054.439       -2280.929   135779154.175   101393525.710          46.000          48.000
E20  25120870.008                        1377.464                   132011063.701                          37.250
E27  24684986.444    24684991.793       -1845.981       -1378.507   129720513.123    96869220.488          50.750          52.250
E30  21834048.456    21834053.773         321.660         240.208   114738745.811    85681543.822          53.500          56.000
G01  24384632.645    24384632.218    24384636.624    24384634.443    24384637.550       -3805.006       -3805.006       -2964.977       -2964.966       -2841.424   128142260.059   128142128.076    99851012.539    99851014.543    95690550.492          39.750          25.500          25.500          41.500          46.750
G04  22728015.601    22728014.914    22728015.173                                        2623.965        2623.965        2044.659                                   119436553.583   119436550.585    93067448.726                                          44.250          34.250          34.250
G07  20308770.836    20308770.351    20308768.801    20308768.816                        -471.864        -471.864        -367.676        -367.677                   106723509.771   106723344.783    83161055.564    83161057.570                          53.500          46.250          46.250          53.000
G08  20458357.954    20458357.243    20458358.749    20458359.283    20458360.902         946.142         946.142         737.265         737.271         706.560   107509443.548   107509439.556    83773601.695    83773608.705    80283041.184          54.750          47.500          47.500          53.250          57.500
G09  23539057.769    23539056.549    23539057.774    23539057.747    23539061.493        3299.206        3299.206        2570.849        2570.848        2463.714   123698622.073   123698602.082    96388527.356    96388531.357    92372339.000          45.000          31.000          31.000          43.250          49.500
G11  22403636.396    22403636.064    22403634.139                                       -3220.077       -3220.077       -2509.174                                   117732044.248   117731940.262    91739181.082                                          48.000          36.750          36.750
G13  25095730.772                                                                       -2769.060                                                                   131878979.273                                                                          32.000
G16  24452993.987    24452993.757    24452994.001                                        3137.683        3137.683        2445.000                                   128501398.004   128501399.015   100130972.092                                          40.500          24.000          24.000
G18  22655858.652    22655857.810    22655859.135                                       -3161.913       -3161.913       -2463.847                                   119057374.927   119057360.937    92771976.020                                          45.250          34.000          34.000
G27  21947598.059    21947597.765    21947599.043    21947599.014    21947601.145        2801.864        2801.864        2183.281        2183.276        2092.310   115335461.185   115335461.195    89871802.013    89871797.015    86127145.788          49.250          42.500          42.500          50.250          53.750
G28  23524965.869    23524965.230    23524963.801                                       -2422.630       -2422.630       -1887.785                                   123624556.823   123624553.829    96330828.659                                          38.500          28.500          28.500
G30  21629574.467    21629573.986    21629575.332    21629575.444    21629578.349       -2389.221       -2389.221       -1861.728       -1861.725       -1784.145   113664216.726   113664206.741    88569520.498    88569534.503    84879138.901          47.750          42.000          42.000          49.500          54.750
R02  23578033.345    23578033.118    23578038.920    23578039.070        3292.778        3292.778        2561.004        2561.007   125816933.487   125816923.498    97857620.006    97857615.010          43.500          43.750          42.750          41.500
R03  23149670.815    23149670.572    23149676.429    23149676.110         687.686         687.686         534.915         534.882   123922026.485   123922009.485    96383794.773    96383785.771          43.750          43.250          42.500          41.750
R10  23794362.056    23794361.256    23794369.822    23794368.438        3530.110        3530.110        2745.669        2745.634   126837373.603   126837381.608    98651289.332    98651293.319          46.000          44.750          36.250          34.750
R11  19845298.330    19845298.318    19845302.284    19845302.335        1386.340        1386.340        1078.260        1078.265   106047296.059   106047299.063    82481236.496    82481230.496          55.000          54.000          51.250          50.000
R12  19742273.201    19742272.661                                       -1667.141       -1667.141                                   105459702.714   105459718.715                                          52.500          51.750
R13  24111767.469    24111770.868    24111777.546    24111777.339       -3729.163       -3729.163       -2900.280       -2900.333   128755525.059   128755518.068   100143186.687   100143180.694          31.500          32.500          32.500          31.250
R20  23697383.422    23697382.852    23697388.796    23697387.426        4210.869        4210.869        3275.110        3275.090   126720612.109   126720609.142    98560492.122    98560487.110          36.000          36.500          40.000          38.750
R21  19819864.618    19819864.728    19819869.470    19819869.297        1234.254        1234.254         959.998         959.994   106060145.274   106060135.277    82491226.122    82491227.123          54.750          54.250          51.500          50.250
R22  20449818.080    20449817.829    20449822.739    20449822.655       -3271.030       -3271.030       -2544.137       -2544.136   109162624.886   109162585.891    84904243.093    84904241.087          55.250          54.500          50.500          49.250
> 2019 01 25 00 10 00.0000000  0 27
E02  26254059.658    26254064.890        2174.603        1623.835   137966053.373   103026612.077          45.500          48.000
E07  27816609.294    27816616.363        2749.280        2053.041   146177292.077   109158372.843          41.500          43.250
E15  25820484.320    25820490.968       -3049.410       -2277.140   135687594.374   101325153.170          46.500          48.000
E20  25128765.559                        1389.019                   132052562.548                          36.750
E27  24674457.384    24674463.210       -1842.520       -1375.883   129665185.297    96827904.266          50.250          52.250
E30  21835905.055    21835910.177         328.696         245.457   114748501.488    85688828.906          53.500          56.000
G01  24362913.854    24362913.317    24362916.637    24362916.556    24362918.280       -3804.151       -3804.151       -2964.264       -2964.233       -2840.755   128028124.445   128027992.450    99762075.780    99762077.777    95605319.428          40.750          24.000          24.000          40.750          46.750
G04  22743028.634    22743028.184    22743028.175                                        2635.623        2635.623        2053.823                                   119515448.135   119515445.144    93128925.002                                          44.500          34.250          34.250
G07  20306126.238    20306126.135    20306124.548    20306124.493                        -454.522        -454.522        -354.161        -354.152                   106709613.922   106709448.931    83150227.626    83150229.636                          54.000          46.250          46.250          52.750
G08  20463806.480    20463806.079    20463807.586    20463808.127    20463809.733         962.770         962.770         750.223         750.215         718.959   107538077.609   107538073.616    83795913.956    83795920.964    80304423.765          54.500          47.750          47.750          53.250          57.750
G09  23557905.161    23557904.857    23557906.049    23557905.560    23557909.228        3304.073        3304.073        2574.559        2574.617        2467.353   123797671.118   123797651.127    96465708.403    96465712.415    92446304.158          44.250          30.500          30.500          43.250          49.250
G11  22385283.006    22385282.270    22385280.702                                       -3209.910       -3209.910       -2501.260                                   117635595.281   117635491.292    91664026.057                                          47.500          36.750          36.750
G13  25079954.558                                                                       -2756.654                                                                   131796093.340                                                                          32.750
G16  24470908.142    24470908.661    24470907.703                                        3138.681        3138.681        2445.657                                   128595541.898   128595542.921   100204330.936                                          39.500          23.000          23.000
G18  22637838.407    22637838.023    22637838.669                                       -3151.166       -3151.166       -2455.434                                   118962678.868   118962664.881    92698186.896                                          44.750          33.250          33.250
G27  21963623.065    21963622.539    21963623.656    21963623.970    21963626.040        2812.241        2812.241        2191.335        2191.326        2100.036   115419672.608   115419672.611    89937421.299    89937416.304    86190030.942          49.000          42.250          42.250          50.000          53.750
G28  23511144.642    23511144.730    23511143.380                                       -2419.088       -2419.088       -1884.951                                   123551931.155   123551928.166    96274237.243                                          38.500          27.500          27.500
G30  21615968.414    21615967.614    21615968.874    21615969.234    21615971.800       -2377.554       -2377.554       -1852.634       -1852.631       -1775.450   113592715.310   113592705.318    88513805.114    88513819.120    84825744.991          48.500          41.750          41.750          49.500          54.750
R02  23596575.334    23596574.877    23596578.878    23596579.144        3302.912        3302.912        2568.889        2568.874   125915868.339   125915858.334    97934569.297    97934564.298          46.500          45.250          42.500          41.000
R03  23153593.057    23153593.857    23153599.111    23153598.556         712.094         712.094         553.819         553.799   123943023.051   123943006.061    96400125.418    96400116.413          45.500          45.000          43.250          42.250
R10  23814243.020    23814242.623    23814254.092    23814251.811        3535.589        3535.589        2749.811        2749.850   126943357.438   126943365.427    98733721.156    98733725.162          44.750          44.250          38.000          35.750
R11  19853125.427    19853125.132    19853129.036    19853129.317        1401.983        1401.983        1090.436        1090.436   106089121.030   106089124.035    82513767.033    82513761.031          54.750          53.750          51.000          50.000
R12  19732946.788    19732946.454                                       -1654.088       -1654.088                                   105409884.488   105409900.493                                          52.750          51.500
R13  24090818.496    24090817.711    24090819.978                       -3731.289       -3731.289       -2902.101                   128643624.595   128643617.574   100056153.024                          30.250          29.500          28.250
R20  23721030.795    23721025.954    23721031.880    23721030.972        4217.898        4217.898        3280.581        3280.579   126847042.487   126847039.448    98658826.807    98658821.776          39.250          36.250          38.750          38.500
R21  19826856.074    19826856.575    19826860.920    19826861.093        1260.035        1260.035         980.042         980.033   106097559.962   106097549.967    82520326.445    82520327.441          55.000          54.250          51.500          50.250
R22  20431489.187    20431488.765    20431493.214    20431493.615       -3251.686       -3251.686       -2529.084       -2529.094   109064783.515   109064744.516    84828144.263    84828142.254          55.500          54.750          50.000          49.250
> 2019 01 25 00 10 30.0000000  0 27
E02  26266485.460    26266490.001        2178.636        1626.900   138031351.260   103075373.453          45.500          47.750
E07  27832306.905    27832314.598        2750.311        2053.766   146259785.320   109219974.903          41.000          43.250
E15  25803090.362    25803096.514       -3044.379       -2273.428   135596186.755   101256894.254          47.500          48.000
E20  25136730.196                        1400.841                   132094412.273                          37.250
E27  24663948.629    24663954.303       -1839.092       -1373.354   129609960.840    96786665.229          50.750          52.000
E30  21837801.583    21837807.234         335.825         250.766   114758470.069    85696272.979          53.500          56.000
G01  24341197.871    24341198.942    24341201.729    24341200.367    24341204.078       -3803.031       -3803.031       -2963.414       -2963.389       -2839.948   127914016.501   127913884.486    99673160.502    99673162.509    95520109.012          39.750          21.000          21.000          37.750          46.000
G04  22758108.123    22758108.078    22758106.994                                        2647.285        2647.285        2062.832                                   119594692.255   119594689.261    93190673.662                                          44.000          34.500          34.500
G07  20303581.292    20303581.235    20303579.547    20303579.281                        -437.115        -437.115        -340.603        -340.595                   106696240.002   106696075.014    83139806.389    83139808.396                          53.750          46.500          46.500          52.750
G08  20469349.876    20469349.372    20469351.020    20469351.515    20469353.156         979.262         979.262         763.067         763.057         731.269   107567208.321   107567204.330    83818613.212    83818620.220    80326177.219          54.750          47.500          47.500          53.250          57.750
G09  23576781.025    23576781.016    23576782.772    23576782.887    23576786.460        3308.898        3308.898        2578.300        2578.346        2470.912   123896867.631   123896847.637    96543004.382    96543008.397    92520379.451          42.500          30.500          30.500          44.500          49.000
G11  22366987.166    22366986.914    22366984.962                                       -3199.753       -3199.753       -2493.311                                   117539450.386   117539346.387    91589107.972                                          46.500          37.000          37.000
G13  25064254.654                                                                       -2744.131                                                                   131713581.228                                                                          35.500
G16  24488829.732    24488827.847    24488827.151                                        3139.497        3139.497        2446.364                                   128689711.400   128689712.412   100277709.723                                          40.750          24.000          24.000
G18  22619880.044    22619879.622    22619879.250                                       -3140.459       -3140.459       -2447.120                                   118868305.542   118868291.561    92624649.264                                          43.000          33.750          33.750
G27  21979707.097    21979706.631    21979707.294    21979707.406    21979709.426        2822.464        2822.464        2199.361        2199.356        2107.705   115504193.194   115504193.203    90003281.509    90003276.511    86253146.973          49.750          42.000          42.000          49.500          53.250
G28  23497344.662    23497343.575    23497342.751                                       -2415.770       -2415.770       -1882.379                                   123479408.333   123479405.339    96217725.946                                          41.500          28.000          28.000
G30  21602429.096    21602428.045    21602429.609    21602429.858    21602432.367       -2365.847       -2365.847       -1843.536       -1843.520       -1766.712   113521565.212   113521555.219    88458363.483    88458377.494    84772613.431          48.500          42.000          42.000          49.750          54.750
R02  23615172.572    23615171.066    23615176.951    23615177.135        3312.966        3312.966        2576.715        2576.730   126015106.151   126015096.162    98011754.252    98011749.260          45.500          45.000          42.250          41.250
R03  23157651.399    23157652.519    23157658.617    23157657.671         736.394         736.394         572.851         572.833   123964751.365   123964734.371    96417025.194    96417016.200          46.000          45.250          42.250          41.250
R10  23834157.036    23834155.714    23834164.324    23834163.481        3540.887        3540.887        2754.091        2754.111   127049503.575   127049511.581    98816279.275    98816283.273          45.750          44.750          37.250          35.750
R11  19861039.640    19861039.920    19861043.666    19861044.033        1417.594        1417.594        1102.581        1102.575   106131414.269   106131417.272    82546661.768    82546655.767          55.000          53.750          51.250          50.000
R12  19723694.507    19723694.231                                       -1640.888       -1640.888                                   105360459.954   105360475.954                                          52.500          51.750
R13  24069854.452    24069855.905    24069857.743                       -3732.581       -3732.581       -2903.092                   128531669.423   128531663.410    99969078.118                          31.000          27.750          26.500
R20  23744704.353    23744708.651    23744713.978    23744714.332        4224.563        4224.563        3285.850        3285.824   126973682.061   126973679.082    98757324.274    98757319.274          35.750          36.750          40.000          38.500
R21  19833992.545    19833992.537    19833997.182    19833997.222        1285.710        1285.710        1000.001         999.999   106135746.048   106135736.048    82550026.732    82550027.728          54.750          54.250          51.750          50.250
R22  20413268.951    20413268.718    20413274.777    20413273.945       -3232.267       -3232.267       -2513.993       -2513.987   108967524.164   108967485.170    84752498.125    84752496.126          55.000          54.750          51.000          49.500
> 2019 01 25 00 11 00.0000000  0 27
E02  26278934.022    26278938.986        2182.594        1629.835   138096769.442   103124224.701          45.750          47.750
E07  27848011.707    27848018.109        2751.266        2054.515   146342312.430   109281602.264          40.000          43.000
E15  25785724.689    25785731.337       -3039.098       -2269.506   135504933.072   101188750.301          47.000          48.250
E20  25144760.783                        1412.184                   132136611.286                          36.000
E27  24653459.908    24653465.219       -1835.642       -1370.774   129554840.420    96745503.876          51.250          52.000
E30  21839739.592    21839744.823         342.973         256.102   114768651.894    85703876.290          53.500          56.250
G01  24319490.694    24319491.106    24319492.669    24319493.364    24319495.506       -3802.021       -3802.021       -2962.705       -2962.666       -2839.244   127799939.182   127799807.194    99584269.139    99584271.154    95434921.506          40.000          23.250          23.250          39.500          45.250
G04  22773253.890    22773253.598    22773253.745                                        2658.842        2658.842        2071.683                                   119674283.001   119674280.012    93252692.399                                          43.750          34.500          34.500
G07  20301135.668    20301135.600    20301134.109    20301134.160                        -419.616        -419.616        -326.977        -326.979                   106683389.325   106683224.337    83129792.875    83129794.880                          53.250          46.250          46.250          53.000
G08  20474987.064    20474986.842    20474988.611    20474988.917    20474990.675         995.773         995.773         775.929         775.934         743.603   107596833.842   107596829.853    83841698.036    83841705.045    80348300.179          54.250          47.500          47.500          53.250          57.500
G09  23595686.420    23595685.049    23595687.077    23595687.239    23595689.741        3313.734        3313.734        2582.173        2582.123        2474.565   123996208.565   123996188.581    96620412.869    96620416.866    92594562.599          41.750          28.750          28.750          44.500          47.750
G11  22348749.864    22348748.758    22348747.554                                       -3189.449       -3189.449       -2485.265                                   117443612.391   117443508.396    91514429.025                                          46.750          37.500          37.500
G13  25048622.466                                                                       -2731.964                                                                   131631444.953                                                                          31.750
G16  24506754.877    24506753.463    24506753.696                                        3140.319        3140.319        2447.007                                   128783905.708   128783906.710   100351107.837                                          41.750          24.750          24.750
G18  22601983.013    22601982.884    22601982.752                                       -3129.494       -3129.494       -2438.520                                   118774258.507   118774244.506    92551365.884                                          42.500          33.250          33.250
G27  21995849.376    21995848.508    21995849.244    21995849.064    21995851.846        2832.677        2832.677        2207.275        2207.292        2115.323   115589020.425   115589020.432    90069380.645    90069375.648    86316491.989          49.500          42.250          42.250          49.750          53.500
G28  23483563.915    23483562.425    23483561.817                                       -2412.334       -2412.334       -1879.841                                   123406988.703   123406985.713    96161295.109                                          39.750          28.750          28.750
G30  21588956.771    21588956.055    21588957.196    21588957.435    21588960.305       -2353.913       -2353.913       -1834.191       -1834.204       -1757.774   113450768.748   113450758.756    88403197.413    88403211.418    84719745.946          48.500          42.000          42.000          49.250          54.750
R02  23633824.462    23633824.094    23633829.656    23633829.771        3322.856        3322.856        2584.458        2584.471   126114642.027   126114632.021    98089171.024    98089166.006          46.000          45.750          41.750          40.750
R03  23161848.188    23161847.897    23161853.830    23161853.059         760.735         760.735         591.717         591.750   123987209.868   123987192.862    96434492.926    96434483.929          45.750          44.500          43.000          41.500
R10  23854100.495    23854099.120    23854108.436    23854106.786        3546.306        3546.306        2758.295        2758.272   127155810.604   127155818.614    98898962.523    98898966.520          46.250          45.250          37.500          35.750
R11  19869042.289    19869042.114    19869046.070    19869046.272        1433.239        1433.239        1114.734        1114.728   106174176.181   106174179.179    82579921.031    82579915.024          54.750          54.000          50.750          50.000
R12  19714516.742    19714516.021                                       -1627.676       -1627.676                                   105311431.339   105311447.339                                          52.750          51.750
R13  24048877.045    24048875.172    24048883.585                       -3734.612       -3734.612       -2904.537                   128419659.708   128419653.721    99881959.968                          29.250          28.750          22.500
R20  23768431.928    23768429.303    23768432.043    23768433.478        4231.484        4231.484        3291.149        3291.139   127100527.145   127100524.127    98855981.518    98855976.515          38.000          35.750          37.250          37.750
R21  19841271.692    19841272.162    19841276.736    19841276.697        1311.300        1311.300        1019.893        1019.880   106174701.177   106174691.181    82580325.170    82580326.169          54.500          54.250          51.250          50.500
R22  20395158.849    20395158.423    20395163.732    20395163.226       -3212.632       -3212.632       -2498.707       -2498.713   108870850.432   108870811.433    84677307.468    84677305.465          55.250          54.500          50.250          49.000
> 2019 01 25 00 11 30.0000000  0 27
E02  26291405.060    26291410.506        2186.573        1632.771   138162307.717   103173165.559          45.500          48.000
E07  27863721.981    27863728.581        2752.385        2055.337   146424871.372   109343253.406          39.250          42.500
E15  25768389.313    25768396.310       -3033.958       -2265.631   135413835.031   101120722.588          47.000          48.250
E20  25152856.239                        1423.782                   132179158.329                          36.000
E27  24642990.501    24642996.280       -1832.080       -1368.120   129499824.701    96704420.713          50.750          52.500
E30  21841717.486    21841722.892         350.108         261.447   114779047.414    85711639.187          54.000          56.250
G01  24297789.950    24297788.462    24297791.717    24297792.097    24297794.235       -3800.850       -3800.850       -2961.765       -2961.728       -2838.350   127685895.653   127685763.666    99495404.134    99495406.153    95349759.209          41.250          24.250          24.250          39.750          45.500
G04  22788464.871    22788464.304    22788464.442                                        2670.129        2670.129        2080.647                                   119754217.438   119754214.448    93314978.946                                          43.250          34.250          34.250
G07  20298790.474    20298790.115    20298788.585    20298788.687                        -402.124        -402.124        -313.342        -313.339                   106671063.220   106670898.232    83120188.119    83120190.124                          53.750          46.500          46.500          52.750
G08  20480718.995    20480718.472    20480720.057    20480720.605    20480722.061        1012.195        1012.195         788.729         788.724         755.873   107626952.800   107626948.808    83865167.352    83865174.363    80370791.609          55.000          47.750          47.750          53.250          57.500
G09  23614616.580    23614616.497    23614616.721    23614616.773    23614620.984        3318.355        3318.355        2585.700        2585.701        2477.975   124095690.790   124095670.791    96697931.423    96697935.428    92668851.222          42.250          28.250          28.250          43.500          47.750
G11  22330571.405    22330570.701    22330569.084                                       -3179.029       -3179.029       -2477.133                                   117348083.954   117347979.967    91439991.309                                          48.750          37.750          37.750
G13  25033065.586                                                                       -2719.037                                                                   131549687.339                                                                          35.750
G16  24524683.475    24524683.254    24524682.232                                        3140.921        3140.921        2447.518                                   128878124.185   128878125.198   100424524.798                                          41.500          25.750          25.750
G18  22584149.528    22584148.980    22584148.492                                       -3118.359       -3118.359       -2429.950                                   118680540.964   118680526.971    92478339.234                                          45.750          34.000          34.000
G27  22012048.643    22012048.414    22012049.186    22012049.506    22012051.742        2842.719        2842.719        2215.112        2215.108        2122.812   115674151.672   115674151.683    90135716.688    90135711.693    86380064.037          49.500          42.250          42.250          49.500          53.750
G28  23469802.478    23469801.423    23469800.326                                       -2408.771       -2408.771       -1876.975                                   123334672.287   123334669.293    96104944.666                                          42.250          28.000          28.000
G30  21575552.040    21575551.540    21575552.930    21575552.892    21575555.854       -2342.059       -2342.059       -1825.016       -1825.007       -1748.968   113380328.147   113380318.154    88348308.642    88348322.652    84667144.209          49.500          41.750          41.750          49.500          54.750
R02  23652533.624    23652532.231    23652536.744    23652537.597        3332.524        3332.524        2591.922        2591.936   126214472.085   126214462.093    98166816.618    98166811.612          46.500          46.250          39.000          38.750
R03  23166179.727    23166179.489    23166182.920    23166183.299         785.060         785.060         610.572         610.563   124010396.889   124010379.885    96452527.247    96452518.247          46.000          45.250          41.250          40.250
R10  23874074.171    23874072.072    23874079.682    23874080.259        3551.510        3551.510        2762.287        2762.318   127262277.289   127262285.286    98981769.893    98981773.913          46.250          45.250          36.500          34.500
R11  19877132.755    19877132.294    19877136.366    19877135.997        1448.834        1448.834        1126.884        1126.886   106217406.863   106217409.869    82613544.900    82613538.897          55.000          53.750          51.000          49.750
R12  19705412.591    19705412.742                                       -1614.344       -1614.344                                   105262800.635   105262816.635                                          52.750          52.000
R13  24027892.775    24027893.566    24027893.763                       -3736.218       -3736.218       -2905.837                   128307588.120   128307579.112    99794784.549                          31.250          28.250          26.500
R20  23792184.350    23792187.989    23792192.955    23792191.300        4238.305        4238.305        3296.427        3296.467   127227573.673   127227570.664    98954795.474    98954790.483          34.000          34.750          37.500          36.750
R21  19848695.164    19848695.288    19848699.418    19848699.794        1336.817        1336.817        1039.756        1039.754   106214423.181   106214413.181    82611220.057    82611221.060          55.000          54.250          51.500          50.250
R22  20377159.086    20377158.521    20377163.664    20377163.490       -3192.998       -3192.998       -2483.449       -2483.447   108774765.353   108774726.358    84602574.653    84602572.651          55.500          54.500          50.500          49.250
> 2019 01 25 00 12 00.0000000  0 27
E02  26303899.971    26303905.028        2190.635        1635.876   138227966.095   103222196.133          46.000          47.750
E07  27879438.793    27879445.267        2753.376        2056.098   146507460.192   109404926.818          39.500          43.000
E15  25751084.017    25751090.726       -3028.737       -2261.709   135322894.378   101052812.385          47.250          48.500
E20  25161017.341                        1435.468                   132222051.953                          35.250
E27  24632541.323    24632547.338       -1828.603       -1365.500   129444914.344    96663416.236          50.750          52.500
E30  21843736.512    21843741.843         357.216         266.754   114789657.004    85719561.932          53.750          56.250
G01  24276092.366    24276093.839    24276096.769    24276096.054    24276098.255       -3799.471       -3799.471       -2960.532       -2960.593       -2837.235   127571889.021   127571757.029    99406567.847    99406569.859    95264624.451          38.500          22.750          22.750          39.500          44.500
G04  22803740.914    22803740.703    22803741.001                                        2681.512        2681.512        2089.455                                   119834492.587   119834489.591    93377531.001                                          44.000          34.500          34.500
G07  20296544.994    20296544.644    20296543.146    20296543.069                        -384.599        -384.599        -299.678        -299.675                   106659262.604   106659097.611    83110992.831    83110994.840                          53.250          46.500          46.500          53.250
G08  20486544.198    20486543.537    20486545.114    20486545.678    20486547.148        1028.546        1028.546         801.465         801.467         768.070   107657563.827   107657559.834    83889020.100    83889027.109    80393650.494          54.750          47.750          47.750          53.250          57.500
G09  23633573.269    23633572.080    23633574.127    23633574.761    23633577.975        3322.898        3322.898        2589.312        2589.312        2481.444   124195311.283   124195291.280    96775557.737    96775561.762    92743243.096          41.250          27.250          27.250          43.250          47.750
G11  22312452.473    22312452.029    22312450.445                                       -3168.627       -3168.627       -2469.056                                   117252868.150   117252764.150    91365797.164                                          48.750          37.250          37.250
G13  25017582.534    25017581.333    25017580.086                                       -2706.128       -2706.128       -2108.667                                   131468311.096   131468277.111   102442813.566                                          36.750          16.250          16.250
G16  24542617.195    24542616.091    24542614.827                                        3141.771        3141.771        2448.205                                   128972366.405   128972367.411   100497960.248                                          40.500          25.250          25.250
G18  22566378.586    22566378.745    22566378.638                                       -3107.255       -3107.255       -2421.295                                   118587156.436   118587142.452    92405572.101                                          45.500          33.500          33.500
G27  22028306.213    22028305.757    22028306.262    22028306.978    22028309.017        2852.704        2852.704        2222.956        2222.942        2130.307   115759584.484   115759584.491    90202287.716    90202282.713    86443861.269          49.250          42.000          42.000          50.000          53.500
G28  23456061.422    23456060.432    23456059.267                                       -2405.426       -2405.426       -1874.304                                   123262459.428   123262456.434    96048674.936                                          41.500          29.750          29.750
G30  21562215.977    21562215.314    21562216.566    21562216.830    21562219.660       -2330.162       -2330.162       -1815.703       -1815.701       -1740.058   113310245.730   113310235.739    88293698.972    88293712.972    84614809.945          48.000          41.750          41.750          49.500          55.000
R02  23671296.055    23671295.032    23671301.176    23671299.791        3342.100        3342.100        2599.477        2599.397   126314591.512   126314581.503    98244687.258    98244682.254          47.000          46.750          36.750          35.750
R03  23170647.049    23170646.980    23170651.072    23170651.947         809.317         809.317         629.524         629.512   124034310.993   124034294.003    96471127.111    96471118.122          46.500          45.750          42.250          41.250
R10  23894074.806    23894074.833    23894081.778    23894082.469        3556.964        3556.964        2766.540        2766.500   127368902.765   127368910.755    99064700.915    99064704.904          44.250          43.750          34.250          33.250
R11  19885310.401    19885310.302    19885313.923    19885313.917        1464.464        1464.464        1139.046        1139.037   106261106.274   106261109.280    82647533.328    82647527.325          55.000          54.000          51.250          49.750
R12  19696383.563    19696383.467                                       -1601.042       -1601.042                                   105214570.833   105214586.841                                          52.750          51.750
R13  24006890.922    24006893.574    24006896.028                       -3737.626       -3737.626       -2906.921                   128195468.839   128195459.819    99707579.944                          31.500          32.000          26.500
R20  23815983.170    23815982.300    23815990.033    23815988.034        4244.782        4244.782        3301.410        3301.417   127354817.959   127354814.963    99053763.267    99053758.256          36.750          34.000          38.250          37.250
R21  19856261.014    19856261.225    19856265.247    19856265.464        1362.236        1362.236        1059.537        1059.528   106254909.619   106254899.619    82642709.519    82642710.516          55.250          54.250          51.750          50.250
R22  20359269.850    20359269.497    20359274.254    20359274.343       -3173.206       -3173.206       -2468.032       -2468.027   108679272.288   108679233.288    84528302.310    84528300.304          55.250          54.250          50.750          49.000
> 2019 01 25 00 12 30.0000000  0 27
E02  26316417.248    26316422.358        2194.597        1638.853   138293744.446   103271316.282          45.750          48.000
E07  27895159.924    27895166.523        2754.415        2056.753   146590076.792   109466621.015          40.500          42.750
E15  25733808.599    25733815.890       -3023.444       -2257.766   135232112.831   100985020.996          47.000          48.750
E20  25169247.230                        1447.050                   132265290.628                          35.250
E27  24622112.760    24622118.332       -1825.054       -1362.845   129390110.032    96622490.945          51.000          52.500
E30  21845796.287    21845801.625         364.400         272.104   114800481.091    85727644.853          53.250          56.000
G01  24254407.491    24254407.324    24254410.011    24254409.278    24254411.445       -3798.181       -3798.181       -2959.644       -2959.622       -2836.276   127457922.231   127457790.249    99317762.647    99317764.650    95179519.477          41.750          24.500          24.500          39.000          44.250
G04  22819081.464    22819080.975    22819080.179                                        2692.673        2692.673        2098.183                                   119915105.532   119915102.551    93440346.285                                          43.750          34.250          34.250
G07  20294399.202    20294399.199    20294397.691    20294397.864                        -366.976        -366.976        -285.942        -285.940                   106647989.031   106647824.042    83102208.237    83102210.241                          52.750          46.500          46.500          53.000
G08  20492462.187    20492461.741    20492463.489    20492464.168    20492465.700        1044.906        1044.906         814.221         814.224         780.296   107688664.761   107688660.767    83913254.597    83913261.605    80416875.223          54.500          47.500          47.500          53.250          57.750
G09  23652556.247    23652556.428    23652557.224    23652557.793    23652560.956        3327.344        3327.344        2592.763        2592.839        2484.785   124295066.928   124295046.945    96853289.391    96853293.404    92817735.936          43.000          29.250          29.250          42.750          47.500
G11  22294393.246    22294392.723    22294391.478                                       -3158.097       -3158.097       -2460.863                                   117157967.465   117157863.473    91291848.596                                          49.000          37.750          37.750
G13  25002170.575    25002169.707    25002165.483                                       -2693.243       -2693.243       -2098.569                                   131387318.478   131387284.506   102379702.478                                          38.750          17.750          17.750
G16  24560555.958    24560554.285    24560554.294                                        3142.544        3142.544        2448.679                                   129066631.647   129066632.658   100571413.632                                          40.750          24.250          24.250
G18  22548672.680    22548672.118    22548672.121                                       -3095.946       -3095.946       -2412.402                                   118494107.997   118494094.010    92333066.823                                          46.500          34.250          34.250
G27  22044620.742    22044620.113    22044621.196    22044621.236    22044623.310        2862.680        2862.680        2230.708        2230.687        2137.735   115845316.238   115845316.243    90269091.686    90269086.689    86507881.743          49.250          42.250          42.250          50.000          53.500
G28  23442339.458    23442338.971    23442337.525                                       -2401.855       -2401.855       -1871.597                                   123190350.201   123190347.212    95992485.915                                          42.500          28.250          28.250
G30  21548948.248    21548947.497    21548949.100    21548949.423    21548952.009       -2318.059       -2318.059       -1806.252       -1806.277       -1731.011   113240523.784   113240513.795    88239370.193    88239384.201    84562744.865          48.250          42.000          42.000          50.000          55.000
R02  23690111.006    23690110.841    23690115.945    23690114.229        3351.559        3351.559        2606.741        2606.734   126414995.626   126414985.623    98322779.429    98322774.397          47.000          46.750          36.000          35.250
R03  23175249.840    23175250.448    23175254.466    23175254.685         833.399         833.399         648.233         648.209   124058950.389   124058933.398    96490291.098    96490282.089          46.000          45.500          42.000          41.500
R10  23914107.787    23914105.964    23914115.015    23914114.296        3562.017        3562.017        2770.419        2770.329   127475685.461   127475693.461    99147754.110    99147758.110          42.750          42.000          35.000          33.250
R11  19893575.560    19893575.598    19893579.648    19893579.595        1480.069        1480.069        1151.163        1151.180   106305274.608   106305277.611    82681886.464    82681880.467          54.750          54.000          51.500          50.000
R12  19687430.263    19687430.155                                       -1587.521       -1587.521                                   105166743.373   105166759.372                                          52.750          51.500
R13  23985891.654    23985889.332    23985894.632                       -3739.827       -3739.827       -2908.656                   128083302.214   128083293.217    99620339.362                          34.500          32.750          27.750
R20  23839816.290    23839815.107    23839821.379    23839819.561        4251.068        4251.068        3306.288        3306.330   127482256.157   127482253.156    99152881.851    99152876.848          37.500          35.500          37.750          37.250
R21  19863969.332    19863969.451    19863973.815    19863973.767        1387.603        1387.603        1079.255        1079.254   106296157.851   106296147.851    82674791.480    82674792.473          55.000          54.250          51.500          50.250
R22  20341492.345    20341491.996    20341496.529    20341496.886       -3153.268       -3153.268       -2452.542       -2452.537   108584374.595   108584335.600    84454493.035    84454491.031          55.250          54.750          50.500          49.250
> 2019 01 25 00 13 00.0000000  0 27
E02  26328957.545    26328962.010        2198.532        1641.771   138359642.706   103320525.981          45.750          47.750
E07  27910886.736    27910892.847        2755.219        2057.492   146672719.222   109528334.490          41.500          42.750
E15  25716564.450    25716570.687       -3018.017       -2253.715   135141492.130   100917349.726          47.000          48.750
E20  25177541.340                        1458.455                   132308872.874                          35.250
E27  24611704.112    24611709.498       -1821.534       -1360.250   129335412.447    96581645.348          51.000          52.250
E30  21847896.802    21847902.183         371.541         277.448   114811520.084    85735888.258          53.250          56.000
G01  24232728.726    24232728.334    24232731.085    24232730.942    24232732.811       -3796.778       -3796.778       -2958.556       -2958.544       -2835.242   127343998.574   127343866.576    99228990.994    99228992.983    95094446.652          42.750          27.500          27.500          40.750          44.500
G04  22834484.884    22834484.752    22834483.931                                        2703.847        2703.847        2106.843                                   119996053.288   119996050.290    93503422.445                                          44.000          33.750          33.750
G07  20292354.531    20292354.222    20292353.025    20292353.152                        -349.383        -349.383        -272.255        -272.250                   106637243.397   106637078.409    83093835.014    83093837.021                          53.250          46.500          46.500          53.000
G08  20498473.589    20498473.059    20498474.880    20498475.218    20498476.968        1061.088        1061.088         826.826         826.829         792.374   107720254.111   107720250.121    83937869.684    83937876.693    80440464.681          54.750          47.750          47.750          53.500          57.750
G09  23671564.305    23671564.244    23671565.034    23671565.312    23671569.472        3331.812        3331.812        2596.211        2596.186        2488.008   124394954.682   124394934.687    96931123.998    96931128.002    92892327.434          43.500          29.500          29.500          42.000          47.750
G11  22276395.198    22276394.155    22276392.992                                       -3147.448       -3147.448       -2452.556                                   117063384.628   117063280.631    91218147.706                                          48.250          37.250          37.250
G13  24986828.780    24986829.121    24986828.586                                       -2680.692       -2680.692       -2088.865                                   131306712.852   131306678.859   102316892.891                                          35.500          15.250          15.250
G16  24578497.809    24578497.457    24578495.488                                        3143.321        3143.321        2449.397                                   129160919.634   129160920.648   100644884.767                                          40.250          24.750          24.750
G18  22531029.871    22531029.608    22531030.319                                       -3084.611       -3084.611       -2403.620                                   118401398.872   118401384.890    92260825.981                                          44.500          34.500          34.500
G27  22060990.798    22060990.389    22060991.457    22060991.405    22060993.826        2872.550        2872.550        2238.344        2238.356        2145.089   115931344.412   115931344.425    90336126.630    90336121.638    86572123.572          48.750          41.500          41.500          49.500          53.500
G28  23428636.547    23428635.145    23428634.868                                       -2398.430       -2398.430       -1868.849                                   123118344.672   123118341.698    95936377.756                                          41.500          27.250          27.250
G30  21535749.777    21535748.892    21535750.415    21535750.975    21535753.280       -2305.941       -2305.941       -1796.866       -1796.860       -1721.996   113171164.561   113171154.570    88185324.046    88185338.050    84510950.643          48.750          41.750          41.750          49.500          55.000
R02  23708980.363    23708979.406    23708982.576    23708983.452        3360.738        3360.738        2613.904        2613.967   126515680.372   126515670.376    98401089.796    98401084.802          47.000          46.250          36.000          35.250
R03  23179989.184    23179987.775    23179992.984    23179992.333         857.520         857.520         666.974         666.946   124084313.429   124084296.435    96510017.897    96510008.903          46.500          45.000          42.750          41.500
R10  23934166.609    23934166.348    23934170.221    23934173.916        3567.306        3567.306        2774.528        2774.517   127582624.870   127582632.887    99230929.209    99230933.212          40.750          40.500          31.250          31.000
R11  19901929.670    19901929.148    19901932.484    19901932.872        1495.695        1495.695        1163.334        1163.333   106349911.935   106349914.936    82716604.383    82716598.380          55.250          54.250          51.000          49.750
R12  19678552.862    19678552.586                                       -1574.062       -1574.062                                   105119320.574   105119336.576                                          52.500          51.750
R13  23964874.561    23964874.303    23964876.110                       -3741.371       -3741.371       -2909.867                   127971085.038   127971076.039    99533060.022                          30.250          27.750          27.500
R20  23863679.511    23863681.340    23863689.262    23863687.838        4257.256        4257.256        3311.243        3311.265   127609884.100   127609881.102    99252148.032    99252143.034          34.750          34.750          38.000          36.750
R21  19871819.055    19871819.660    19871823.787    19871823.923        1412.875        1412.875        1098.917        1098.912   106338165.575   106338155.577    82707464.152    82707465.149          55.000          54.500          51.500          50.250
R22  20323826.857    20323826.521    20323831.546    20323830.992       -3133.309       -3133.309       -2437.013       -2437.017   108490075.520   108490036.525    84381149.340    84381147.336          55.250          54.750          50.500          49.000
> 2019 01 25 00 13 30.0000000  0 27
E02  26341519.722    26341524.743        2202.610        1644.733   138425660.786   103369825.155          45.000          47.750
E07  27926616.620    27926624.472        2755.923        2058.024   146755385.482   109590065.761          40.750          44.250
E15  25699350.669    25699357.159       -3012.544       -2249.658   135051034.006   100849799.851          47.000          48.750
E20  25185898.962                        1470.027                   132352797.279                          36.000
E27  24601315.802    24601321.378       -1817.886       -1357.499   129280822.291    96540879.978          50.750          52.250
E30  21850038.373    21850043.779         378.746         282.837   114822774.361    85744292.432          53.500          56.000
G01  24211057.239    24211058.053    24211060.023    24211060.439    24211062.471       -3795.165       -3795.165       -2957.294       -2957.239       -2834.022   127230121.063   127229989.069    99140255.337    99140257.349    95009408.311          40.500          26.500          26.500          40.500          45.000
G04  22849950.492    22849951.171    22849951.880                                        2714.705        2714.705        2115.391                                   120077332.871   120077329.893    93566757.162                                          42.750          33.250          33.250
G07  20290410.668    20290410.129    20290408.724    20290408.713                        -331.745        -331.745        -258.504        -258.496                   106627026.852   106626861.864    83085874.074    83085876.081                          53.000          46.500          46.500          53.000
G08  20504577.306    20504577.002    20504578.697    20504579.433    20504580.785        1077.299        1077.299         839.448         839.452         804.475   107752330.274   107752326.282    83962864.097    83962871.107    80464417.664          55.250          47.750          47.750          53.500          57.750
G09  23690596.405    23690595.629    23690598.657    23690598.740    23690601.655        3335.968        3335.968        2599.443        2599.461        2491.170   124494971.475   124494951.481    97009059.144    97009063.143    92967015.268          43.250          29.750          29.750          43.500          48.000
G11  22258457.257    22258457.261    22258455.647                                       -3136.671       -3136.671       -2444.149                                   116969122.598   116969018.603    91144696.774                                          48.750          37.750          37.750
G13  24971564.021    24971564.932    24971564.258                                       -2667.295       -2667.295       -2078.407                                   131226496.107   131226462.146   102254386.485                                          33.000          11.500          11.500
G16  24596445.245    24596442.937    24596442.522                                        3143.896        3143.896        2449.790                                   129255229.613   129255230.622   100718373.052                                          40.000          23.750          23.750
G18  22513454.143    22513454.081    22513453.970                                       -3073.083       -3073.083       -2394.669                                   118309032.911   118309018.929    92188852.526                                          46.500          34.500          34.500
G27  22077417.697    22077417.053    22077418.300    22077418.413    22077420.621        2882.262        2882.262        2245.902        2245.903        2152.325   116017666.465   116017666.477    90403390.565    90403385.573    86636584.847          49.000          41.500          41.500          49.750          53.250
G28  23414954.420    23414953.784    23414952.879                                       -2394.994       -2394.994       -1866.311                                   123046443.015   123046440.015    95880350.505                                          41.750          27.500          27.500
G30  21522620.337    21522620.183    21522621.285    21522621.598    21522624.400       -2293.655       -2293.655       -1787.259       -1787.272       -1712.802   113102170.382   113102160.392    88131562.354    88131576.361    84459429.022          48.500          42.000          42.000          49.750          55.500
R02  23727898.999    23727898.828    23727900.342    23727904.112        3369.905        3369.905        2621.047        2621.068   126616640.881   126616630.876    98479614.615    98479609.622          45.500          45.500          36.500          36.000
R03  23184859.825    23184860.462    23184865.075    23184865.259         881.559         881.559         685.639         685.682   124110398.548   124110381.549    96530306.296    96530297.300          45.000          44.500          41.750          41.250
R10  23954258.920    23954258.111    23954265.328    23954267.489        3572.392        3572.392        2778.465        2778.586   127689719.889   127689727.887    99314225.329    99314229.333          43.000          42.000          35.000          33.250
R11  19910370.339    19910370.022    19910373.776    19910373.621        1511.422        1511.422        1175.583        1175.581   106395018.184   106395021.185    82751687.018    82751681.018          55.000          54.250          51.250          49.750
R12  19669751.818    19669751.292                                       -1560.429       -1560.429                                   105072304.746   105072320.745                                          52.750          51.750
R13  23943852.995    23943851.098    23943853.967    23943856.421       -3742.928       -3742.928       -2911.134       -2911.117   127858822.059   127858812.090    99445743.704    99445753.693          35.250          33.250          31.250          30.500
R20  23887586.438    23887583.391    23887587.600    23887587.847        4263.460        4263.460        3316.155        3316.104   127737698.273   127737695.278    99351559.076    99351554.062          35.250          33.500          36.500          36.000
R21  19879811.644    19879811.415    19879815.356    19879815.517        1438.042        1438.042        1118.481        1118.482   106380930.232   106380920.236    82740725.557    82740726.557          55.000          54.500          51.500          50.250
R22  20306274.305    20306273.587    20306278.969    20306278.524       -3113.176       -3113.176       -2421.363       -2421.369   108396378.332   108396339.339    84308273.766    84308271.759          55.500          55.000          50.500          49.250
> 2019 01 25 00 14 00.0000000  0 27
E02  26354105.627    26354111.108        2206.693        1647.817   138491798.537   103419213.679          45.500          48.250
E07  27942351.853    27942359.525        2756.583        2058.498   146838073.611   109651813.343          40.750          44.500
E15  25682168.242    25682175.355       -3007.073       -2245.530   134960740.190   100782372.679          47.250          49.250
E20  25194322.495                        1481.287                   132397062.269                          35.250
E27  24590948.280    24590953.722       -1814.259       -1354.790   129226340.205    96500195.315          51.000          52.500
E30  21852220.907    21852226.458         385.928         288.198   114834244.336    85752857.673          53.500          56.000
G01  24189397.436    24189397.323    24189400.354    24189400.049    24189401.395       -3793.362       -3793.362       -2955.906       -2955.892       -2832.700   127116292.806   127116160.815    99051558.050    99051560.069    94924406.775          40.500          26.250          26.250          41.750          44.500
G04  22865481.861    22865480.902    22865481.226                                        2725.694        2725.694        2123.855                                   120158941.355   120158938.366    93630348.176                                          43.750          33.000          33.000
G07  20288567.243    20288566.991    20288565.471    20288565.531                        -314.034        -314.034        -244.697        -244.701                   106617340.424   106617175.432    83078326.202    83078328.209                          53.500          46.250          46.250          52.750
G08  20510773.794    20510773.230    20510774.908    20510775.349    20510776.914        1093.461        1093.461         852.045         852.048         816.547   107784891.527   107784887.539    83988236.509    83988243.517    80488732.891          55.000          47.750          47.750          53.500          57.500
G09  23709653.548    23709653.358    23709654.356    23709654.519    23709658.195        3340.235        3340.235        2602.798        2602.764        2494.329   124595114.290   124595094.301    97087092.515    97087096.531    93041797.212          43.500          30.000          30.000          42.750          48.250
G11  22240581.033    22240580.687    22240579.599                                       -3125.844       -3125.844       -2435.683                                   116875183.984   116875080.004    91071497.868                                          48.750          37.500          37.500
G13  24956374.832    24956376.332    24956374.500                                       -2654.442       -2654.442       -2068.317                                   131146670.779   131146636.777   102192184.959                                          35.750          13.500          13.500
G16  24614395.719    24614395.332    24614393.422                                        3144.757        3144.757        2450.450                                   129349561.071   129349562.075   100791878.054                                          40.000          24.000          24.000
G18  22495943.473    22495942.372    22495943.110                                       -3061.468       -3061.468       -2385.601                                   118217013.085   118216999.101    92117148.772                                          46.500          34.250          34.250
G27  22093899.305    22093898.910    22093900.068    22093900.120    22093902.570        2891.973        2891.973        2253.497        2253.501        2159.605   116104279.861   116104279.871    90470881.527    90470876.532    86701263.681          48.750          41.000          41.000          49.500          53.250
G28  23401291.645    23401290.677    23401289.375                                       -2391.580       -2391.580       -1863.535                                   122974645.613   122974642.618    95824404.496                                          42.000          27.750          27.750
G30  21509560.687    21509560.226    21509561.992    21509562.084    21509565.177       -2281.422       -2281.422       -1777.712       -1777.707       -1703.641   113033543.455   113033533.466    88078086.838    88078100.843    84408181.653          48.250          42.000          42.000          50.250          55.250
R02  23746869.586    23746869.795    23746872.805    23746875.176        3378.916        3378.916        2628.049        2628.037   126717872.592   126717862.590    98558350.426    98558345.413          45.250          44.750          37.000          37.000
R03  23189867.597    23189867.736    23189873.395    23189872.491         905.497         905.497         704.203         704.213   124137203.676   124137186.677    96551154.729    96551145.729          45.000          44.250          42.250          40.500
R10  23974379.584    23974378.581    23974386.378    23974385.020        3577.468        3577.468        2782.513        2782.569   127796969.048   127796977.044    99397641.351    99397645.388          43.750          42.500          33.000          31.750
R11  19918899.445    19918898.583    19918902.498    19918902.595        1527.021        1527.021        1187.691        1187.691   106440593.651   106440596.653    82787134.602    82787128.599          55.000          54.000          51.000          49.750
R12  19661026.821    19661026.103                                       -1546.716       -1546.716                                   105025698.056   105025714.056                                          52.750          51.750
R13  23922814.806    23922814.776    23922827.720    23922824.803       -3744.469       -3744.469       -2912.157       -2912.131   127746512.166   127746502.203    99358391.619    99358401.623          30.000          31.250          32.250          31.500
R20  23911517.514    23911519.910    23911524.972    23911524.987        4269.392        4269.392        3320.675        3320.610   127865694.518   127865691.479    99451111.682    99451106.669          32.000          32.250          36.500          36.250
R21  19887943.651    19887943.660    19887948.045    19887948.054        1463.180        1463.180        1138.057        1138.047   106424449.160   106424439.160    82774573.615    82774574.614          54.750          54.250          51.500          50.250
R22  20288834.468    20288834.402    20288839.777    20288839.308       -3092.944       -3092.944       -2405.612       -2405.612   108303286.320   108303247.323    84235868.878    84235866.874          55.500          54.750          51.000          49.500
> 2019 01 25 00 14 30.0000000  0 27
E02  26366713.392    26366719.532        2210.606        1650.803   138558055.938   103468691.532          45.500          48.250
E07  27958091.786    27958098.157        2757.376        2059.068   146920781.608   109713575.787          41.500          43.750
E15  25665017.764    25665024.127       -3001.517       -2241.413   134870612.362   100715069.434          47.000          48.750
E20  25202810.329                        1492.487                   132441666.436                          35.500
E27  24580601.284    24580607.043       -1810.624       -1352.118   129171966.899    96459591.882          51.000          52.500
E30  21854444.787    21854450.229         393.115         293.551   114845930.412    85761584.285          53.750          56.250
G01  24167746.502    24167746.223    24167748.964    24167747.863    24167751.323       -3791.626       -3791.626       -2954.579       -2954.546       -2831.476   127002516.896   127002384.896    98962901.599    98962903.611    94839444.322          38.500          27.000          27.000          42.500          45.500
G04  22881073.254    22881072.699    22881071.963                                        2736.510        2736.510        2132.312                                   120240875.729   120240872.744    93694193.129                                          43.250          32.750          32.750
G07  20286824.915    20286824.829    20286823.317    20286823.257                        -296.322        -296.322        -230.903        -230.895                   106608185.251   106608020.261    83071192.301    83071194.309                          53.500          46.500          46.500          53.000
G08  20517061.997    20517061.278    20517063.205    20517063.730    20517065.090        1109.535        1109.535         864.578         864.584         828.564   107817936.257   107817932.267    84013985.653    84013992.662    80513409.156          55.000          47.750          47.750          53.500          57.750
G09  23728733.163    23728732.625    23728735.442    23728735.409    23728738.516        3344.130        3344.130        2605.866        2605.842        2497.266   124695380.037   124695360.054    97165221.648    97165225.652    93116670.960          43.250          29.500          29.500          43.750          48.250
G11  22222767.198    22222766.840    22222765.344                                       -3114.977       -3114.977       -2427.260                                   116781571.567   116781467.577    90998553.133                                          48.000          37.750          37.750
G13  24941260.617                                                                       -2641.268                                                                   131067239.364                                                                          35.000
G16  24632349.638    24632350.089    24632347.323                                        3145.459        3145.459        2450.889                                   129443913.029   129443914.035   100865399.044                                          39.250          23.500          23.500
G18  22478498.848    22478498.349    22478498.511                                       -3049.828       -3049.828       -2376.510                                   118125342.756   118125328.777    92045717.365                                          45.750          35.000          35.000
G27  22110436.038    22110436.200    22110436.935    22110437.170    22110439.369        2901.514        2901.514        2260.952        2260.927        2166.724   116191182.057   116191182.055    90538597.526    90538592.528    86766158.181          48.500          41.250          41.250          49.000          53.250
G28  23387648.926    23387648.584    23387646.368                                       -2388.059       -2388.059       -1860.819                                   122902952.342   122902949.347    95768539.615                                          42.750          28.750          28.750
G30  21496572.164    21496571.577    21496572.957    21496573.066    21496576.194       -2269.061       -2269.061       -1768.099       -1768.083       -1694.405   112965286.078   112965276.088    88024899.276    88024913.288    84357210.246          48.750          42.250          42.250          49.500          55.250
R02  23765889.909    23765890.027    23765896.842    23765895.525        3387.678        3387.678        2634.906        2634.880   126819371.616   126819361.611    98637294.071    98637289.069          42.750          43.250          38.000          36.750
R03  23195010.071    23195010.059    23195014.917    23195014.392         929.449         929.449         722.925         722.918   124164727.309   124164710.311    96572562.023    96572553.037          45.250          44.500          42.750          41.750
R10  23994526.990    23994526.506    23994537.794    23994534.045        3582.718        3582.718        2786.513        2786.534   127904371.257   127904379.248    99481176.422    99481180.424          43.000          42.000          35.250          32.750
R11  19927515.473    19927515.545    19927519.094    19927519.166        1542.609        1542.609        1199.804        1199.817   106486638.303   106486641.307    82822947.105    82822941.105          55.250          54.250          51.000          49.750
R12  19652378.767    19652378.501                                       -1533.028       -1533.028                                   104979502.421   104979518.422                                          53.000          51.750
R13  23901775.730    23901775.961    23901781.928    23901783.306       -3745.517       -3745.517       -2913.336       -2913.203   127634157.545   127634147.569    99271004.693    99271014.701          33.000          31.750          29.750          29.500
R20  23935487.981    23935485.054    23935495.549    23935494.398        4275.635        4275.635        3325.409        3325.435   127993869.164   127993866.244    99550803.128    99550798.122          33.000          30.750          36.000          35.750
R21  19896216.434    19896216.694    19896221.276    19896220.837        1488.215        1488.215        1157.512        1157.520   106468719.872   106468709.874    82809006.399    82809007.393          54.750          54.250          51.000          50.000
R22  20271509.934    20271509.324    20271514.257    20271514.015       -3072.621       -3072.621       -2389.825       -2389.819   108210802.686   108210763.686    84163937.179    84163935.177          56.000          55.250          51.000          49.750
> 2019 01 25 00 15 00.0000000  0 26
E02  26379345.363    26379350.535        2214.544        1653.704   138624432.884   103518258.667          45.750          48.250
E07  27973833.034    27973839.939        2757.886        2059.456   147003507.439   109775351.544          41.000          43.000
E15  25647898.649    25647905.592       -2995.814       -2237.208   134780652.262   100647891.454          47.750          49.000
E20  25211361.096                        1503.885                   132486608.249                          35.000
E27  24570275.103    24570280.936       -1807.013       -1349.362   129117703.088    96419070.223          51.000          52.750
E30  21856709.820    21856715.314         400.347         298.976   114857832.998    85770472.578          53.500          56.000
G01  24146105.692    24146105.154    24146109.489    24146109.307    24146110.646       -3789.677       -3789.677       -2952.994       -2952.981       -2829.957   126888796.479   126888664.499    98874288.405    98874290.423    94754523.339          39.500          27.500          27.500          43.000          47.000
G04  22896725.613    22896725.528    22896725.650                                        2747.290        2747.290        2140.739                                   120323132.997   120323130.004    93758289.689                                          42.500          33.750          33.750
G07  20285184.268    20285184.122    20285182.486    20285182.466                        -278.504        -278.504        -217.029        -217.038                   106599562.580   106599397.593    83064473.340    83064475.345                          53.750          46.500          46.500          53.250
G08  20523441.687    20523441.174    20523442.940    20523443.480    20523444.946        1125.538        1125.538         877.057         877.057         840.513   107851462.462   107851458.471    84040109.969    84040116.976    80538444.962          55.000          47.750          47.750          53.500          57.500
G09  23747835.686    23747835.682    23747837.999    23747837.872    23747840.978        3348.137        3348.137        2608.989        2608.969        2500.247   124795765.706   124795745.708    97243444.219    97243448.226    93191634.258          42.500          29.250          29.250          43.500          48.000
G11  22205015.897    22205015.672    22205013.993                                       -3103.877       -3103.877       -2418.566                                   116688287.984   116688184.005    90925864.657                                          46.750          38.000          38.000
G16  24650308.969    24650308.078    24650306.218                                        3146.029        3146.029        2451.467                                   129538285.547   129538286.548   100938936.028                                          39.000          23.500          23.500
G18  22461121.573    22461121.503    22461121.544                                       -3037.937       -3037.937       -2367.246                                   118034025.358   118034011.361    91974560.973                                          44.000          35.500          35.500
G27  22127027.375    22127027.158    22127028.340    22127028.469    22127030.981        2911.060        2911.060        2268.346        2268.347        2173.830   116278370.499   116278370.503    90606536.582    90606531.594    86831266.444          48.250          41.000          41.000          48.750          53.250
G28  23374025.594    23374024.645    23374023.579                                       -2384.639       -2384.639       -1858.177                                   122831363.808   122831360.826    95712756.371                                          41.750          28.000          28.000
G30  21483653.762    21483653.039    21483654.769    21483655.076    21483657.829       -2256.690       -2256.690       -1758.435       -1758.439       -1685.165   112897400.535   112897390.549    87972001.462    87972015.469    84306516.503          48.750          42.000          42.000          49.750          55.250
R02  23784960.299    23784960.362    23784966.132    23784964.129        3396.367        3396.367        2641.667        2641.623   126921133.033   126921123.026    98716441.830    98716436.813          43.250          43.000          35.500          35.500
R03  23200284.570    23200285.377    23200290.179    23200290.338         953.239         953.239         741.422         741.377   124192967.496   124192950.503    96594526.613    96594517.612          45.750          44.750          41.500          41.750
R10  24014704.147    24014703.001    24014713.877    24014712.013        3587.697        3587.697        2790.517        2790.397   128011925.403   128011933.395    99564829.674    99564833.671          43.250          42.500          34.750          32.750
R11  19936220.279    19936219.748    19936223.808    19936223.602        1558.270        1558.270        1211.995        1211.986   106533152.010   106533155.016    82859124.435    82859118.432          55.000          54.250          51.000          49.750
R12  19643808.248    19643807.788                                       -1519.166       -1519.166                                   104933720.310   104933736.314                                          52.500          51.750
R13  23880728.092    23880728.826    23880733.250    23880734.167       -3747.209       -3747.209       -2914.331       -2914.323   127521759.820   127521749.831    99183584.287    99183594.295          35.250          34.500          32.250          31.000
R20  23959493.057    23959490.221    23959500.076    23959496.097        4281.511        4281.511        3330.144        3330.120   128122218.403   128122215.359    99650630.238    99650625.224          33.500          31.000          35.750          34.750
R21  19904629.815    19904629.916    19904634.332    19904633.866        1513.086        1513.086        1176.860        1176.858   106513739.731   106513729.734    82844021.842    82844022.843          55.000          54.250          51.250          50.000
R22  20254299.426    20254298.588    20254303.457    20254303.168       -3052.199       -3052.199       -2373.937       -2373.934   108118930.555   108118891.559    84092481.096    84092479.097          56.000          55.250          50.750          49.500
> 2019 01 25 00 15 30.0000000  0 26
E02  26391998.921    26392004.619        2218.493        1656.694   138690929.244   103567914.981          45.500          48.000
E07  27989576.833    27989585.183        2758.309        2059.749   147086249.180   109837139.177          39.250          41.250
E15  25630812.283    25630818.800       -2990.186       -2232.908   134690861.630   100580840.020          47.500          48.750
E20  25219979.338                        1514.676                   132531886.143                          35.500
E27  24559970.081    24559975.948       -1803.306       -1346.620   129063549.468    96378630.836          51.250          52.500
E30  21859016.014    21859021.578         407.608         304.372   114869952.497    85779522.851          53.500          56.250
G01  24124477.236    24124477.156    24124479.383    24124479.628    24124481.550       -3787.722       -3787.722       -2951.476       -2951.451       -2828.484   126775134.736   126775002.746    98785720.847    98785722.850    94669646.116          41.250          29.000          29.000          42.250          47.750
G04  22912440.213    22912440.213    22912439.555                                        2757.939        2757.939        2149.056                                   120405710.150   120405707.167    93822635.519                                          43.750          33.500          33.500
G07  20283644.961    20283644.584    20283643.245    20283643.006                        -260.746        -260.746        -203.170        -203.175                   106591473.482   106591308.497    83058170.151    83058172.156                          53.500          46.500          46.500          53.000
G08  20529912.745    20529912.329    20529914.195    20529914.587    20529916.175        1141.521        1141.521         889.506         889.517         852.448   107885468.886   107885464.893    84066608.480    84066615.490    80563839.370          55.000          47.750          47.750          53.500          57.500
G09  23766960.807    23766961.214    23766962.057    23766962.310    23766965.887        3351.878        3351.878        2611.834        2611.855        2503.023   124896268.188   124896248.188    97321757.810    97321761.815    93266684.781          42.000          28.000          28.000          43.500          47.250
G11  22187327.922    22187327.339    22187325.930                                       -3092.908       -3092.908       -2410.052                                   116595335.925   116595231.938    90853434.466                                          48.500          38.250          38.250
G16  24668268.063    24668267.164    24668269.940                                        3146.773        3146.773        2451.972                                   129632677.945   129632678.948   101012488.513                                          35.000          19.250          19.250
G18  22443811.968    22443811.937    22443812.404                                       -3026.059       -3026.059       -2357.982                                   117943064.097   117943050.118    91903682.088                                          46.250          35.250          35.250
G27  22143673.122    22143672.840    22143673.311    22143673.368    22143676.111        2920.419        2920.419        2275.671        2275.671        2180.846   116365842.664   116365842.673    90674696.712    90674691.714    86896586.564          48.250          41.000          41.000          49.000          53.000
G28  23360423.237    23360422.404    23360420.621                                       -2380.920       -2380.920       -1855.319                                   122759879.743   122759876.742    95657054.518                                          44.000          29.250          29.250
G30  21470806.764    21470806.300    21470807.818    21470807.938    21470810.893       -2244.168       -2244.168       -1748.690       -1748.708       -1675.837   112829889.092   112829879.105    87919395.152    87919409.160    84256102.123          48.250          42.000          42.000          49.500          55.250
R02  23804079.807    23804079.262    23804085.159    23804084.895        3404.838        3404.838        2648.257        2648.268   127023152.314   127023142.311    98795790.164    98795785.164          42.250          41.500          38.250          37.000
R03  23205695.857    23205694.825    23205699.525    23205698.000         977.044         977.044         759.930         759.895   124221922.344   124221905.342    96617047.064    96617038.058          45.250          44.500          41.000          40.500
R10  24034907.291    24034907.464    24034916.928    24034914.620        3592.721        3592.721        2794.366        2794.306   128119630.595   128119638.599    99648600.417    99648604.410          42.250          42.000          32.250          31.000
R11  19945012.527    19945012.070    19945015.814    19945015.886        1573.910        1573.910        1224.164        1224.149   106580134.869   106580137.872    82895666.652    82895660.649          55.000          54.250          50.750          50.000
R12  19635315.431    19635314.962                                       -1505.315       -1505.315                                   104888353.788   104888369.799                                          52.500          51.750
R13  23859671.739    23859672.810    23859680.598    23859677.374       -3748.877       -3748.877       -2915.792       -2915.796   127409320.279   127409310.269    99096131.345    99096141.343          35.750          34.750          32.500          32.500
R20  23983520.879    23983522.213    23983530.461    23983529.272        4286.638        4286.638        3333.963        3333.955   128250738.237   128250735.251    99750590.143    99750585.140          30.750          30.750          34.000          33.250
R21  19913182.351    19913182.337    19913186.615    19913186.726        1537.969        1537.969        1196.214        1196.208   106559506.290   106559496.291    82879618.046    82879619.051          55.000          54.250          51.250          50.250
R22  20237203.612    20237203.012    20237207.683    20237207.868       -3031.647       -3031.647       -2357.943       -2357.948   108027673.261   108027634.261    84021503.215    84021501.215          56.000          55.000          50.750          49.500
> 2019 01 25 00 16 00.0000000  0 26
E02  26404675.830    26404680.978        2222.563        1659.680   138757544.976   103617660.438          45.750          47.750
E07  28005326.018    28005333.271        2758.614        2059.988   147169004.783   109898937.131          41.000          41.500
E15  25613757.723    25613764.739       -2984.456       -2228.663   134601242.126   100513916.388          47.000          48.500
E20  25228657.078                        1525.689                   132577498.794                          35.000
E27  24549686.270    24549691.796       -1799.554       -1343.811   129009506.748    96338274.264          51.500          52.500
E30  21861363.775    21861369.207         414.858         309.772   114882289.305    85788735.406          53.500          56.000
G01  24102859.330    24102859.353    24102861.447    24102862.008    24102863.804       -3785.762       -3785.762       -2949.819       -2949.839       -2826.920   126661534.737   126661402.750    98697201.424    98697203.429    94584815.036          40.000          27.250          27.250          41.000          46.750
G04  22928213.259    22928213.586    22928214.279                                        2768.510        2768.510        2157.235                                   120488604.245   120488601.256    93887228.301                                          41.750          33.750          33.750
G07  20282207.448    20282207.107    20282205.696    20282205.834                        -242.906        -242.906        -189.270        -189.266                   106583919.086   106583754.095    83052283.605    83052285.611                          53.000          46.500          46.500          53.250
G08  20536475.223    20536474.723    20536476.371    20536476.817    20536478.365        1157.490        1157.490         901.932         901.934         864.351   107919953.645   107919949.652    84093479.723    84093486.732    80589590.975          55.250          47.750          47.750          53.250          57.500
G09  23786107.205    23786107.056    23786107.950    23786108.621    23786113.015        3355.668        3355.668        2614.800        2614.799        2505.860   124996884.406   124996864.425    97400160.023    97400164.030    93341820.235          41.750          28.000          28.000          42.750          47.000
G11  22169703.430    22169702.839    22169701.700                                       -3081.713       -3081.713       -2401.286                                   116502718.235   116502614.250    90781264.860                                          48.750          38.000          38.000
G16  24686236.327    24686236.141    24686234.999                                        3147.562        3147.562        2452.537                                   129727089.566   129727090.569   101086055.955                                          38.000          20.500          20.500
G18  22426571.426    22426571.051    22426571.213                                       -3014.025       -3014.025       -2348.618                                   117852462.316   117852448.327    91833083.303                                          47.000          35.250          35.250
G27  22160371.767    22160371.477    22160372.063    22160372.565    22160375.215        2929.864        2929.864        2282.999        2282.996        2187.877   116453596.032   116453596.036    90743075.968    90743070.969    86962116.681          47.750          40.750          40.750          48.500          53.250
G28  23346839.050    23346838.581    23346837.903                                       -2377.496       -2377.496       -1852.595                                   122688500.493   122688497.507    95601434.344                                          43.000          28.750          28.750
G30  21458031.340    21458030.915    21458032.189    21458032.178    21458035.523       -2231.547       -2231.547       -1738.831       -1738.847       -1666.402   112762754.008   112762744.020    87867082.105    87867096.111    84205968.790          48.250          42.000          42.000          49.750          55.250
R02  23823246.190    23823245.966    23823250.452    23823249.366        3413.287        3413.287        2654.778        2654.736   127125424.822   127125414.840    98875335.477    98875330.463          40.500          39.500          37.500          36.500
R03  23211236.674    23211236.910    23211239.814    23211241.721        1000.749        1000.749         778.344         778.365   124251589.889   124251572.897    96640121.846    96640112.859          45.500          44.750          40.500          40.250
R10  24055143.293    24055141.582    24055149.655    24055150.409        3597.568        3597.568        2798.223        2798.213   128227486.294   128227494.295    99732488.126    99732492.118          43.000          42.000          35.250          33.000
R11  19953892.011    19953891.944    19953895.930    19953896.057        1589.598        1589.598        1236.351        1236.342   106627587.070   106627590.068    82932573.912    82932567.910          54.750          54.000          51.000          49.750
R12  19626901.380    19626900.754                                       -1491.288       -1491.288                                   104843405.304   104843421.308                                          53.000          51.750
R13  23838608.694    23838606.762    23838613.746    23838614.710       -3750.198       -3750.198       -2916.577       -2916.645   127296840.056   127296830.026    99008646.804    99008656.807          33.750          32.750          32.500          32.500
R20  24007593.333    24007588.014    24007598.763    24007594.210        4292.288        4292.288        3338.353        3338.386   128379425.260   128379422.226    99850680.028    99850675.055          33.250          28.500          33.000          32.500
R21  19921873.941    19921873.931    19921877.820    19921878.230        1562.708        1562.708        1215.436        1215.436   106606016.647   106606006.650    82915792.780    82915793.778          54.750          54.250          51.250          50.250
R22  20220223.313    20220223.004    20220228.327    20220227.920       -3010.969       -3010.969       -2341.865       -2341.872   107937033.757   107936994.758    83951005.841    83951003.839          55.750          55.000          51.000          49.750
> 2019 01 25 00 16 30.0000000  0 26
E02  26417375.682    26417379.866        2226.441        1662.603   138824279.909   103667494.928          46.250          47.250
E07  28021076.733    28021083.857        2759.010        2060.332   147251772.302   109960744.037          41.500          41.750
E15  25596736.848    25596743.671       -2978.731       -2224.360   134511795.505   100447121.835          46.750          49.000
E20  25237401.270                        1536.859                   132623444.435                          36.000
E27  24539423.602    24539428.861       -1795.879       -1341.097   128955575.582    96298000.997          51.250          52.500
E30  21863752.908    21863758.248         422.080         315.215   114894843.810    85798110.526          53.500          56.000
G01  24081253.284    24081253.395    24081256.005    24081256.549    24081259.080       -3783.281       -3783.281       -2948.028       -2948.059       -2825.209   126547999.652   126547867.651    98608732.548    98608734.538    94500032.365          38.500          25.750          25.750          40.500          47.000
G04  22944047.376    22944047.751    22944048.485                                        2778.783        2778.783        2165.290                                   120571812.202   120571809.216    93952065.646                                          42.250          33.250          33.250
G07  20280871.365    20280871.401    20280869.914    20280869.734                        -225.019        -225.019        -175.346        -175.335                   106576900.193   106576735.206    83046814.340    83046816.347                          52.500          46.500          46.500          52.750
G08  20543128.026    20543127.673    20543129.226    20543129.799    20543131.321        1173.295        1173.295         914.245         914.254         876.154   107954914.860   107954910.866    84120722.229    84120729.238    80615698.377          55.000          47.500          47.500          53.250          57.250
G09  23805274.304    23805275.372    23805277.903    23805278.248    23805279.807        3359.279        3359.279        2617.561        2617.521        2508.467   125097611.443   125097591.431    97478648.587    97478652.592    93417038.446          41.750          28.750          28.750          43.750          46.250
G11  22152142.998    22152142.134    22152140.907                                       -3070.398       -3070.398       -2392.526                                   116410437.457   116410333.478    90709357.768                                          48.750          38.250          38.250
G16  24704205.691    24704204.453    24704204.583                                        3148.007        3148.007        2452.832                                   129821520.091   129821521.103   101159638.218                                          36.250          21.500          21.500
G18  22409399.953    22409398.875    22409399.761                                       -3001.893       -3001.893       -2339.166                                   117762223.453   117762209.459    91762767.332                                          47.250          35.000          35.000
G27  22177124.300    22177123.672    22177124.178    22177124.321    22177127.130        2939.029        2939.029        2290.161        2290.152        2194.723   116541628.075   116541628.083    90811672.369    90811667.371    87027854.905          48.500          41.000          41.000          48.500          53.000
G28  23333276.969    23333275.551    23333274.597                                       -2374.022       -2374.022       -1849.974                                   122617226.171   122617223.196    95545895.941                                          44.250          29.000          29.000
G30  21445328.290    21445327.680    21445329.193    21445329.328    21445332.046       -2218.909       -2218.909       -1729.055       -1729.061       -1657.012   112695997.550   112695987.558    87815064.080    87815078.091    84156118.189          48.750          42.500          42.500          49.750          55.500
R02  23842459.711    23842458.141    23842461.581    23842462.300        3421.439        3421.439        2661.109        2661.110   127227946.431   127227936.427    98955074.435    98955069.426          40.750          39.250          38.500          37.500
R03  23216912.174    23216912.035    23216915.345    23216916.607        1024.369        1024.369         796.761         796.721   124281968.313   124281951.323    96663749.506    96663740.494          46.000          45.250          41.250          40.500
R10  24075405.235    24075403.205    24075410.725    24075410.617        3602.562        3602.562        2802.058        2802.006   128335490.326   128335498.325    99816491.245    99816495.258          42.500          41.250          32.500          30.750
R11  19962859.887    19962859.824    19962864.020    19962863.583        1605.242        1605.242        1248.511        1248.508   106675508.437   106675511.443    82969846.086    82969840.084          55.000          54.000          51.000          49.750
R12  19618564.929    19618564.682    19618613.227                       -1477.274       -1477.274       -1148.936                   104798876.858   104798892.863    81510217.771                          52.750          51.750          16.500
R13  23817534.980    23817535.942    23817544.257    23817540.048       -3751.086       -3751.086       -2917.658       -2917.754   127184320.874   127184310.884    98921132.008    98921141.987          34.500          33.750          32.500          32.250
R20  24031685.591    24031683.872    24031690.515    24031692.429        4297.978        4297.978        3342.787        3342.761   128508275.602   128508272.518    99950896.920    99950891.921          30.250          29.000          33.250          33.250
R21  19930703.982    19930704.018    19930708.537    19930708.607        1587.419        1587.419        1234.675        1234.673   106653268.296   106653258.299    82952544.060    82952545.060          54.750          54.250          51.500          50.250
R22  20203360.208    20203359.575    20203364.468    20203364.276       -2990.261       -2990.261       -2325.751       -2325.756   107847015.251   107846976.252    83880991.462    83880989.458          55.750          55.000          51.000          49.500
> 2019 01 25 00 17 00.0000000  0 26
E02  26430096.483    26430102.648        2230.353        1665.533   138891133.973   103717418.344          45.000          48.000
E07  28036827.929    28036835.965        2759.434        2060.622   147334549.748   110022558.361          41.750          41.250
E15  25579748.536    25579755.871       -2972.799       -2219.932   134422523.423   100380457.631          47.000          49.250
E20  25246207.921                        1547.990                   132669721.645                          36.250
E27  24529181.657    24529187.529       -1792.061       -1338.221   128901756.723    96257811.608          50.750          52.750
E30  21866183.503    21866188.804         429.406         320.662   114907616.429    85807648.521          53.750          56.250
G01  24059662.906    24059661.376    24059664.077    24059664.058    24059665.031       -3781.184       -3781.184       -2946.362       -2946.337       -2823.587   126434532.596   126434400.595    98520316.684    98520318.697    94415300.533          39.000          25.000          25.000          39.250          44.750
G04  22959940.815    22959941.156    22959941.011                                        2789.108        2789.108        2173.452                                   120655331.049   120655328.063    94017145.253                                          42.250          33.000          33.000
G07  20279638.080    20279637.982    20279636.387    20279636.646                        -207.104        -207.104        -161.360        -161.363                   106570417.982   106570252.994    83041763.266    83041765.272                          53.250          46.500          46.500          53.000
G08  20549871.387    20549870.972    20549872.511    20549872.816    20549874.477        1189.116        1189.116         926.581         926.586         887.977   107990350.828   107990346.834    84148334.666    84148341.676    80642160.296          55.250          47.750          47.750          53.250          57.250
G09  23824464.207    23824463.771    23824464.747    23824464.503    23824467.357        3362.963        3362.963        2620.427        2620.433        2511.244   125198446.156   125198426.162    97557221.089    97557225.100    93492337.095          43.500          28.500          28.500          42.500          45.250
G11  22134646.698    22134646.714    22134645.360                                       -3059.040       -3059.040       -2383.723                                   116318496.665   116318392.682    90637715.591                                          48.500          38.750          38.750
G16  24722179.684    24722177.855    24722177.401                                        3148.701        3148.701        2453.555                                   129915968.528   129915969.517   101233234.305                                          37.500          20.250          20.250
G18  22392297.056    22392297.023    22392296.822                                       -2989.570       -2989.570       -2329.556                                   117672350.465   117672336.478    91692736.461                                          47.000          35.000          35.000
G27  22193928.569    22193928.070    22193928.913    22193929.173    22193931.596        2948.292        2948.292        2297.371        2297.365        2201.650   116629936.299   116629936.311    90880483.982    90880478.976    87093799.374          48.000          40.750          40.750          48.750          53.000
G28  23319732.741    23319732.413    23319731.765                                       -2370.572       -2370.572       -1847.224                                   122546057.197   122546054.204    95490439.600                                          43.250          28.000          28.000
G30  21432697.206    21432696.840    21432698.438    21432698.586    21432701.239       -2206.202       -2206.202       -1719.132       -1719.136       -1647.503   112629621.986   112629611.986    87763342.868    87763356.873    84106552.025          48.250          42.500          42.500          50.250          55.500
R02  23861716.185    23861714.124    23861720.635    23861721.422        3429.534        3429.534        2667.498        2667.542   127330712.579   127330702.583    99035003.606    99034998.608          39.000          38.250          39.250          38.250
R03  23222720.713    23222720.174    23222724.512    23222723.425        1048.076        1048.076         815.175         815.198   124313055.438   124313038.448    96687928.427    96687919.430          46.250          45.250          40.750          39.500
R10  24095694.125    24095692.784    24095701.911    24095700.233        3607.584        3607.584        2805.863        2805.862   128443642.166   128443650.156    99900609.373    99900613.379          43.000          41.500          33.750          32.250
R11  19971915.608    19971915.211    19971919.544    19971919.301        1620.854        1620.854        1260.647        1260.656   106723899.048   106723902.048    83007483.218    83007477.219          54.750          54.000          50.750          49.750
R12  19610309.299    19610308.022                                       -1463.164       -1463.164                                   104754770.792   104754786.798                                          53.000          51.750
R13  23796458.913    23796457.341    23796465.740    23796463.623       -3752.354       -3752.354       -2918.560       -2918.571   127071764.652   127071754.634    98833588.341    98833598.320          35.000          33.750          31.750          31.250
R20  24055805.244    24055808.582    24055821.049    24055815.745        4302.943        4302.943        3346.778        3346.776   128637285.179   128637282.202   100051237.762   100051148.754          29.500          30.000          33.250          31.500
R21  19939671.755    19939672.023    19939676.515    19939676.268        1611.958        1611.958        1253.751        1253.748   106701258.348   106701248.353    82989869.667    82989870.664          54.750          54.250          51.250          50.000
R22  20186613.048    20186612.748    20186617.905    20186617.597       -2969.336       -2969.336       -2309.476       -2309.479   107757620.923   107757581.928    83811462.564    83811460.562          55.750          55.000          51.000          49.500
> 2019 01 25 00 17 30.0000000  0 25
E02  26442841.410    26442847.139        2234.426        1668.562   138958107.124   103767430.692          45.500          48.000
E07  28052582.161    28052589.013        2759.568        2060.714   147417335.134   110084378.614          41.500          40.250
E15  25562794.272    25562801.796       -2966.939       -2215.580   134333427.594   100313925.047          47.000          49.500
E20  25255076.098                        1559.123                   132716328.761                          36.500
E27  24518962.147    24518967.704       -1788.311       -1335.429   128848050.854    96217706.589          50.750          52.750
E30  21868655.683    21868660.947         436.646         326.053   114920607.528    85817349.661          54.000          56.250
G01  24038083.623    24038083.316    24038086.255    24038086.063    24038088.579       -3778.686       -3778.686       -2944.423       -2944.444       -2821.719   126321136.742   126321004.746    98431956.307    98431958.326    94330621.866          40.500          27.500          27.500          41.500          46.250
G04  22975892.591    22975891.914    22975892.518                                        2799.269        2799.269        2181.340                                   120739157.792   120739154.804    94082464.766                                          41.750          32.750          32.750
G07  20278507.225    20278506.815    20278505.432    20278505.563                        -189.188        -189.188        -147.420        -147.424                   106564473.650   106564308.659    83037131.314    83037133.319                          53.000          46.500          46.500          53.000
G08  20556704.655    20556704.074    20556705.687    20556706.131    20556707.703        1204.823        1204.823         938.832         938.829         899.718   108026259.823   108026255.831    84176315.699    84176322.709    80668975.453          55.250          47.500          47.500          53.250          57.250
G09  23843671.624    23843671.724    23843673.800    23843673.369    23843676.112        3366.449        3366.449        2623.224        2623.192        2513.890   125299385.525   125299365.529    97635875.133    97635879.147    93567713.886          43.000          29.250          29.250          43.500          46.750
G11  22117216.621    22117216.092    22117214.405                                       -3047.620       -3047.620       -2374.812                                   116226898.009   116226794.022    90566340.048                                          49.250          38.500          38.500
G16  24740155.564    24740153.928    24740154.012                                        3149.088        3149.088        2453.832                                   130010434.750   130010435.759   101306844.340                                          38.750          20.500          20.500
G18  22375265.300    22375264.500    22375265.110                                       -2977.254       -2977.254       -2319.996                                   117582846.873   117582832.884    91622993.415                                          47.000          34.750          34.750
G27  22210785.033    22210784.642    22210785.638    22210785.732    22210787.942        2957.338        2957.338        2304.451        2304.438        2208.431   116718518.139   116718518.151    90949508.795    90949503.802    87159948.152          47.500          41.250          41.250          49.000          52.500
G28  23306210.801    23306210.297    23306208.893                                       -2366.988       -2366.988       -1844.402                                   122474993.272   122474990.289    95435065.149                                          44.250          28.000          28.000
G30  21420139.467    21420138.945    21420140.250    21420140.566    21420143.362       -2193.290       -2193.290       -1709.050       -1709.042       -1637.837   112563629.527   112563619.540    87711920.194    87711934.200    84057271.964          48.500          42.750          42.750          50.250          55.500
R02  23881017.897    23881017.719    23881023.531    23881024.446        3437.613        3437.613        2673.685        2673.709   127433718.828   127433708.830    99115119.552    99115114.549          40.000          39.750          40.250          38.500
R03  23228657.530    23228657.223    23228661.775    23228662.479        1071.572        1071.572         833.398         833.408   124344849.525   124344832.527    96712657.099    96712648.114          42.750          41.750          39.000          38.500
R11  19981058.704    19981058.712    19981063.015    19981062.749        1636.447        1636.447        1272.792        1272.789   106772758.640   106772761.642    83045485.112    83045479.110          54.750          53.750          50.750          49.750
R12  19602131.477    19602130.731                                       -1448.976       -1448.976                                   104711088.982   104711104.985                                          52.750          51.750
R13  23775374.295    23775374.452    23775376.574    23775378.814       -3753.717       -3753.717       -2919.514       -2919.572   126959172.414   126959162.401    98746016.633    98746026.626          36.000          35.250          32.000          32.000
R20  24079965.472    24079964.856    24079967.673    24079968.467        4307.860        4307.860        3350.403        3350.509   128766450.595   128766447.596   100151699.658   100151610.706          33.250          30.250          29.500          31.000
R21  19948777.577    19948777.850    19948782.088    19948782.082        1636.431        1636.431        1272.795        1272.799   106749984.189   106749974.191    83027767.541    83027768.540          55.000          54.250          51.500          50.250
R22  20169984.261    20169983.549    20169988.668    20169988.595       -2948.390       -2948.390       -2293.178       -2293.179   107668853.792   107668814.793    83742421.469    83742419.471          55.750          55.000          50.750          49.750
> 2019 01 25 00 18 00.0000000  0 25
E02  26455607.750    26455614.136        2238.405        1671.527   139025199.184   103817531.868          45.250          47.500
E07  28068336.039    28068343.114        2759.805        2060.838   147500126.485   110146203.298          41.250          39.000
E15  25545874.240    25545881.122       -2960.949       -2211.115   134244509.772   100247525.388          47.750          49.500
E20  25264009.728                        1569.961                   132763264.351                          37.750
E27  24508763.804    24508769.264       -1784.495       -1332.563   128794458.733    96177686.513          51.500          52.500
E30  21871169.281    21871174.730         443.982         331.550   114933817.535    85827214.281          53.750          56.000
G01  24016519.843    24016518.472    24016521.300    24016521.992    24016523.282       -3776.149       -3776.149       -2942.325       -2942.333       -2819.746   126207815.286   126207683.304    98343653.960    98343655.963    94245998.735          40.000          27.750          27.750          42.500          45.750
G04  22991902.622    22991902.444    22991902.562                                        2809.524        2809.524        2189.219                                   120823289.400   120823286.402    94148021.860                                          42.250          32.500          32.500
G07  20277478.380    20277478.068    20277476.777    20277476.630                        -171.213        -171.213        -133.407        -133.387                   106559067.955   106558902.968    83032919.087    83032921.097                          53.500          46.750          46.750          53.250
G08  20563627.673    20563626.900    20563628.546    20563629.234    20563630.591        1220.505        1220.505         951.055         951.053         911.424   108062640.148   108062636.156    84204664.010    84204671.017    80696142.585          55.250          47.500          47.500          53.000          57.250
G09  23862898.965    23862898.860    23862900.335    23862901.578    23862903.834        3369.675        3369.675        2625.725        2625.692        2516.293   125400426.500   125400406.513    97714608.342    97714612.348    93643166.552          42.750          29.250          29.250          42.500          46.750
G11  22099851.388    22099850.805    22099849.160                                       -3036.025       -3036.025       -2365.746                                   116135644.370   116135540.378    90495233.344                                          48.500          38.250          38.250
G16  24758134.871    24758134.277    24758132.664                                        3149.704        3149.704        2454.261                                   130104917.867   130104918.899   101380467.528                                          37.500          19.750          19.750
G18  22358304.006    22358304.438    22358304.407                                       -2964.815       -2964.815       -2310.280                                   117493715.990   117493702.015    91553540.819                                          47.250          35.750          35.750
G27  22227692.904    22227692.584    22227694.162    22227693.962    22227696.117        2966.264        2966.264        2311.365        2311.375        2215.071   116807371.121   116807371.131    91018744.885    91018739.884    87226299.412          47.500          40.750          40.750          49.250          52.500
G28  23292706.933    23292705.822    23292705.915                                       -2363.460       -2363.460       -1841.651                                   122404034.925   122404031.937    95379772.976                                          43.500          27.750          27.750
G30  21407654.719    21407654.320    21407655.609    21407655.808    21407658.642       -2180.466       -2180.466       -1699.043       -1699.037       -1628.248   112498022.453   112498012.457    87660797.799    87660811.804    84008279.673          49.500          42.750          42.750          50.000          55.500
R02  23900366.862    23900366.232    23900372.063    23900371.967        3445.372        3445.372        2679.736        2679.718   127536960.434   127536950.430    99195418.547    99195413.552          42.500          41.500          41.500          40.000
R03  23234728.869    23234729.095    23234733.658    23234733.064        1095.028        1095.028         851.679         851.708   124377348.394   124377331.411    96737934.026    96737925.033          44.750          43.750          38.500          38.500
R11  19990290.051    19990289.977    19990294.440    19990293.770        1652.098        1652.098        1284.967        1284.964   106822087.326   106822090.327    83083851.863    83083845.863          54.750          53.750          50.750          49.500
R12  19594033.509    19594033.128                                       -1434.714       -1434.714                                   104667833.822   104667849.826                                          52.500          51.500
R13  23754283.316    23754282.406    23754292.381    23754286.971       -3754.476       -3754.476       -2920.263       -2920.216   126846545.903   126846535.897    98658418.265    98658428.295          37.000          36.500          33.500          32.500
R20  24104148.550    24104147.864    24104149.275    24104151.953        4313.032        4313.032        3354.936        3354.919   128895768.088   128895765.046   100252279.887   100252190.949          33.250          32.000          29.250          29.750
R21  19958019.754    19958020.241    19958024.629    19958024.556        1660.812        1660.812        1291.771        1291.760   106799442.735   106799432.736    83066235.306    83066236.304          55.000          54.250          51.250          50.000
R22  20153473.329    20153473.119    20153477.985    20153477.637       -2927.349       -2927.349       -2276.820       -2276.830   107580716.937   107580677.939    83673870.601    83673868.601          56.000          55.250          51.250          49.750
> 2019 01 25 00 18 30.0000000  0 25
E02  26468398.059    26468403.687        2242.469        1674.528   139092410.050   103867721.768          45.000          47.250
E07  28084091.685    28084098.894        2759.917        2060.909   147582921.849   110208031.014          42.000          39.500
E15  25528987.930    25528994.807       -2954.841       -2206.559   134155771.609   100181259.892          48.000          49.500
E20  25273002.677                        1580.952                   132810526.800                          36.750
E27  24498586.990    24498592.651       -1780.739       -1329.763   128740981.063    96137751.894          51.000          52.250
E30  21873724.816    21873730.255         451.335         337.020   114947246.857    85837242.662          53.750          56.250
G01  23994968.522    23994970.096    23994971.675    23994972.539    23994974.261       -3773.559       -3773.559       -2940.404       -2940.403       -2817.887   126094571.350   126094439.342    98255411.934    98255413.965    94161433.495          37.500          26.000          26.000          42.250          47.250
G04  23007969.915    23007968.997    23007969.938                                        2819.494        2819.494        2196.926                                   120907722.811   120907719.819    94213814.100                                          42.250          32.250          32.250
G07  20276552.517    20276552.298    20276550.738    20276550.542                        -153.207        -153.207        -119.396        -119.397                   106554201.780   106554036.792    83029127.261    83029129.266                          53.250          46.500          46.500          53.000
G08  20570639.665    20570639.212    20570640.921    20570641.497    20570642.979        1236.139        1236.139         963.224         963.231         923.090   108099489.936   108099485.946    84233378.136    84233385.144    80723660.291          55.000          47.500          47.500          53.250          57.250
G09  23882146.237    23882145.590    23882147.462    23882146.682    23882150.741        3372.974        3372.974        2628.354        2628.332        2518.822   125501566.083   125501546.085    97793418.422    97793422.420    93718692.837          42.500          28.250          28.250          42.000          47.500
G11  22082553.005    22082552.476    22082550.632                                       -3024.409       -3024.409       -2356.688                                   116044738.730   116044634.750    90424397.801                                          49.250          39.000          39.000
G16  24776116.539    24776117.132    24776114.996                                        3150.239        3150.239        2454.741                                   130199417.696   130199418.704   101454103.672                                          37.500          20.250          20.250
G18  22341415.293    22341414.137    22341414.045                                       -2952.140       -2952.140       -2300.338                                   117404960.935   117404946.952    91484381.063                                          48.000          35.250          35.250
G27  22244652.406    22244651.925    22244652.808    22244652.940    22244655.745        2975.278        2975.278        2318.408        2318.383        2221.796   116896492.744   116896492.757    91088190.314    91088185.318    87292851.279          47.500          40.750          40.750          49.000          52.750
G28  23279224.851    23279223.548    23279222.317                                       -2360.019       -2360.019       -1838.899                                   122333182.108   122333179.129    95324563.007                                          44.500          28.500          28.500
G30  21395244.031    21395243.698    21395244.731    21395244.950    21395247.876       -2167.537       -2167.537       -1688.987       -1688.995       -1618.612   112432803.002   112432793.013    87609977.454    87609991.460    83959576.843          49.000          42.750          42.750          50.000          55.750
R02  23919758.233    23919757.445    23919761.695    23919762.030        3452.924        3452.924        2685.508        2685.534   127640433.560   127640423.544    99275897.613    99275892.608          43.750          42.500          42.000          41.000
R03  23240930.852    23240930.887    23240936.984    23240936.492        1118.317        1118.317         869.754         869.755   124410549.799   124410532.809    96763757.388    96763748.381          42.750          42.250          40.750          39.500
R11  19999609.027    19999609.178    19999613.007    19999612.741        1667.771        1667.771        1297.156        1297.165   106871885.118   106871888.121    83122583.486    83122577.484          54.750          54.000          50.750          49.750
R12  19586015.730    19586015.884                                       -1420.359       -1420.359                                   104625007.522   104625023.524                                          52.500          51.500
R13  23733185.505    23733185.952    23733194.883    23733189.692       -3755.858       -3755.858       -2921.069       -2921.161   126733887.141   126733877.146    98570794.883    98570804.854          38.000          36.250          34.000          33.000
R20  24128355.224    24128357.253    24128362.008    24128362.326        4317.929        4317.929        3358.433        3358.362   129025233.655   129025230.672   100352975.464   100352886.441          32.000          32.000          30.500          29.000
R21  19967399.323    19967399.213    19967403.405    19967403.559        1685.122        1685.122        1310.645        1310.650   106849631.563   106849621.565    83105271.057    83105272.058          55.000          54.250          51.750          50.250
R22  20137080.610    20137080.345    20137085.106    20137085.280       -2906.257       -2906.257       -2260.417       -2260.427   107493213.373   107493174.373    83605812.290    83605810.286          55.750          55.250          51.000          49.750
> 2019 01 25 00 19 00.0000000  0 26
E02  26481210.282    26481215.757        2246.245        1677.403   139159739.598   103918000.325          44.750          46.750
E07  28099847.133    28099855.385        2760.024        2061.063   147665719.282   110269860.288          40.250          40.000
E15  25512135.516    25512143.277       -2948.876       -2202.069   134067214.774   100115129.809          47.250          49.500
E20  25282057.893                        1591.752                   132858114.510                          37.250
E27  24488432.804    24488438.221       -1776.791       -1326.850   128687618.592    96097903.300          51.250          52.250
E30  21876322.001    21876327.590         458.591         342.446   114960895.888    85847435.122          53.500          56.000
G01  23973435.871    23973435.179    23973437.891    23973437.979    23973440.297       -3770.866       -3770.866       -2938.395       -2938.383       -2815.947   125981408.061   125981276.082    98167232.871    98167234.873    94076928.552          38.500          26.750          26.750          42.500          47.500
G04  23024094.042    23024093.104    23024093.642                                        2829.380        2829.380        2204.665                                   120992455.016   120992452.022    94279839.189                                          42.000          32.500          32.500
G07  20275729.271    20275729.304    20275727.445    20275727.567                        -135.155        -135.155        -105.315        -105.318                   106549876.369   106549711.379    83025756.806    83025758.808                          52.500          46.750          46.750          53.000
G08  20577740.810    20577740.523    20577742.177    20577742.742    20577744.402        1251.701        1251.701         975.363         975.365         934.727   108136807.597   108136803.606    84262456.835    84262463.845    80751527.379          55.000          47.250          47.250          53.250          57.500
G09  23901411.093    23901410.482    23901412.608    23901412.324    23901414.011        3376.060        3376.060        2630.707        2630.723        2521.104   125602801.234   125602781.228    97872302.908    97872306.904    93794290.468          43.000          29.250          29.250          43.000          46.500
G11  22065320.991    22065319.978    22065318.854                                       -3012.629       -3012.629       -2347.458                                   115954183.917   115954079.928    90353835.632                                          48.500          38.750          38.750
G13  24808673.516                                                                       -2519.175                                                                   130370469.132                                                                          33.500
G16  24794103.553    24794102.908    24794102.102                                        3150.680        3150.680        2455.029                                   130293933.612   130293934.628   101527752.426                                          38.500          20.500          20.500
G18  22324597.361    22324596.690    22324596.561                                       -2939.501       -2939.501       -2290.534                                   117316584.939   117316570.950    91415516.670                                          46.500          35.000          35.000
G27  22261662.143    22261662.057    22261662.655    22261662.403    22261665.377        2984.004        2984.004        2325.181        2325.176        2228.285   116985880.467   116985880.482    91157843.093    91157838.095    87359601.862          47.000          40.500          40.500          48.500          52.750
G28  23265761.911    23265760.844    23265760.454                                       -2356.505       -2356.505       -1836.269                                   122262435.438   122262432.467    95269435.748                                          44.750          28.750          28.750
G30  21382907.511    21382906.746    21382907.731    21382908.160    21382911.172       -2154.481       -2154.481       -1678.808       -1678.800       -1608.848   112367973.438   112367963.449    87559460.918    87559474.925    83911165.163          48.500          42.750          42.750          49.750          55.250
R02  23939189.358    23939190.270    23939195.490    23939195.076        3460.504        3460.504        2691.539        2691.542   127744132.980   127744122.973    99356552.670    99356547.675          42.500          41.750          41.500          40.750
R03  23247264.273    23247264.056    23247269.066    23247270.298        1141.724        1141.724         887.972         887.940   124444451.961   124444434.959    96790125.697    96790116.699          42.500          42.000          40.750          39.500
R11  20009015.382    20009015.615    20009019.353    20009019.828        1683.356        1683.356        1309.293        1309.291   106922151.720   106922154.724    83161679.732    83161673.734          54.500          54.000          51.000          49.750
R12  19578080.044    19578079.496                                       -1405.994       -1405.994                                   104582612.357   104582628.360                                          52.500          51.500
R13  23712082.261    23712082.954    23712086.922    23712085.473       -3756.985       -3756.985       -2922.082       -2922.148   126621196.872   126621186.879    98483146.968    98483156.964          38.000          36.750          33.750          33.250
R20  24152602.562    24152596.184    24152599.138    24152600.017        4322.843        4322.843        3362.144        3362.115   129154843.752   129154840.758   100453783.283   100453694.254          34.000          30.500          29.000          29.000
R21  19976913.580    19976913.992    19976918.096    19976918.145        1709.292        1709.292        1329.463        1329.459   106900547.475   106900537.483    83144872.333    83144873.331          55.000          54.250          51.500          50.250
R22  20120807.492    20120807.277    20120812.042    20120811.613       -2884.945       -2884.945       -2243.847       -2243.841   107406346.191   107406307.194    83538248.934    83538246.935          55.750          55.000          50.500          49.750
> 2019 01 25 00 19 30.0000000  0 26
E02  26494046.143    26494051.058        2250.232        1680.395   139227187.696   103968367.332          45.000          46.750
E07  28115603.230    28115610.672        2759.937        2060.999   147748516.762   110331689.584          41.000          40.500
E15  25495318.462    25495325.872       -2942.775       -2197.536   133978841.001   100049136.445          47.500          49.500
E20  25291175.281                        1602.355                   132906025.918                          37.000
E27  24478300.096    24478305.870       -1772.986       -1323.984   128634372.018    96058141.261          51.000          52.750
E30  21878961.213    21878966.850         465.966         347.960   114974765.019    85857791.946          53.750          56.000
G01  23951916.954    23951917.577    23951920.253    23951919.367    23951921.574       -3767.838       -3767.838       -2936.063       -2936.114       -2813.770   125868328.733   125868196.734    98079119.144    98079121.139    93992486.237          39.500          27.000          27.000          42.250          47.500
G04  23040274.048    23040273.480    23040273.958                                        2839.100        2839.100        2212.337                                   121077482.975   121077479.989    94346094.712                                          42.000          32.500          32.500
G07  20275009.435    20275008.949    20275007.592    20275007.449                        -117.069        -117.069         -91.261         -91.263                   106546092.420   106545927.431    83022808.272    83022810.279                          52.250          46.500          46.500          53.000
G08  20584930.850    20584930.541    20584932.153    20584932.773    20584934.312        1267.207        1267.207         987.422         987.428         946.284   108174591.082   108174587.091    84291898.514    84291905.523    80779742.324          55.000          47.500          47.500          53.000          57.500
G09  23920693.155    23920692.415    23920693.451    23920693.774    23920696.776        3379.156        3379.156        2633.016        2633.060        2523.355   125704128.895   125704108.906    97951259.482    97951263.503    93869957.214          42.000          27.750          27.750          42.500          46.000
G11  22048156.351    22048155.260    22048153.712                                       -3000.790       -3000.790       -2338.314                                   115863981.913   115863877.923    90283548.369                                          48.750          38.750          38.750
G13  24794337.001                                                                       -2504.975                                                                   130295115.476                                                                          35.500
G16  24812091.981    24812090.691    24812091.111                                        3151.269        3151.269        2455.526                                   130388465.288   130388466.307   101601413.394                                          37.500          21.500          21.500
G18  22307852.602    22307852.076    22307851.543                                       -2926.676       -2926.676       -2280.476                                   117228591.552   117228577.569    91346950.394                                          47.750          35.500          35.500
G27  22278722.329    22278722.077    22278723.036    22278723.516    22278725.542        2992.738        2992.738        2331.985        2332.003        2234.833   117075531.811   117075531.823    91227701.280    91227696.284    87426549.295          47.000          40.750          40.750          49.000          52.750
G28  23252320.738    23252319.831    23252317.871                                       -2352.955       -2352.955       -1833.472                                   122191794.819   122191791.813    95214391.099                                          46.000          30.250          30.250
G30  21370645.501    21370644.850    21370645.956    21370646.141    21370649.154       -2141.394       -2141.394       -1668.603       -1668.601       -1599.079   112303536.007   112303526.011    87509249.932    87509263.938    83863046.306          48.750          42.750          42.750          50.000          55.750
R02  23958666.289    23958665.901    23958671.148    23958671.229        3467.669        3467.669        2697.150        2697.117   127848054.653   127848044.655    99437380.620    99437375.604          44.750          43.500          43.000          41.500
R03  23253729.806    23253728.387    23253732.513    23253732.804        1164.969        1164.969         906.148         906.088   124479052.558   124479035.558    96817037.324    96817028.324          43.250          41.500          38.750          38.250
R11  20018510.466    20018510.085    20018513.924    20018514.189        1698.987        1698.987        1321.444        1321.444   106972887.356   106972890.359    83201140.780    83201134.780          55.000          54.000          50.750          49.750
R12  19570224.398    19570224.013                                       -1391.554       -1391.554                                   104540650.147   104540666.149                                          52.500          51.500
R13  23690973.153    23690972.225    23690978.016    23690978.550       -3757.596       -3757.596       -2922.545       -2922.690   126508477.316   126508467.312    98395476.222    98395486.222          38.000          36.750          34.250          33.000
R20  24176861.035    24176858.807    24176863.868                        4327.354        4327.354        3365.702                   129284594.457   129284591.407   100554700.373                          31.000          28.000          30.000
R21  19986564.207    19986564.377    19986568.594    19986568.565        1733.380        1733.380        1348.177        1348.167   106952187.829   106952177.832    83185037.052    83185038.049          55.250          54.250          51.000          50.000
R22  20104654.205    20104653.847    20104658.081    20104658.191       -2863.602       -2863.602       -2227.245       -2227.237   107320118.393   107320079.392    83471182.887    83471180.887          56.000          55.250          50.500          49.500
> 2019 01 25 00 20 00.0000000  0 26
E02  26506903.119    26506908.748        2254.292        1683.365   139294754.266   104018822.843          45.000          47.250
E07  28131359.741    28131366.994        2759.819        2060.900   147831312.330   110393517.407          40.750          41.000
E15  25478536.277    25478544.239       -2936.624       -2192.917   133890651.947    99983280.994          47.250          49.250
E20  25300353.151                        1613.229                   132954259.431                          37.250
E27  24468190.287    24468195.428       -1769.055       -1321.072   128581242.098    96018466.334          51.500          52.750
E30  21881642.584    21881647.892         473.363         353.476   114988854.665    85868313.435          53.750          56.250
G01  23930414.920    23930415.237    23930417.796    23930417.934    23930419.700       -3764.999       -3764.999       -2933.778       -2933.760       -2811.515   125755336.421   125755204.433    97991073.216    97991075.224    93908108.915          40.000          28.000          28.000          42.000          47.250
G04  23056509.872    23056509.655    23056510.314                                        2848.851        2848.851        2219.986                                   121162803.651   121162800.670    94412578.330                                          41.750          32.500          32.500
G07  20274392.459    20274392.277    20274390.662    20274390.766                         -99.010         -99.010         -77.165         -77.154                   106542850.872   106542685.886    83020282.391    83020284.399                          51.500          46.750          46.750          53.000
G08  20592209.529    20592208.858    20592210.529    20592211.093    20592212.518        1282.644        1282.644         999.452         999.457         957.811   108212838.643   108212834.651    84321701.812    84321708.823    80808303.821          55.250          47.500          47.500          53.250          57.500
G09  23939991.768    23939990.946    23939992.076    23939992.065    23939995.010        3382.020        3382.020        2635.318        2635.358        2525.558   125805546.089   125805526.111    98030285.869    98030289.888    93945690.824          41.250          26.500          26.500          41.500          45.000
G11  22031058.578    22031058.003    22031056.817                                       -2988.895       -2988.895       -2328.947                                   115774135.765   115774031.772    90213538.409                                          48.250          38.750          38.750
G13  24780075.880                                                                       -2490.873                                                                   130220183.582                                                                          34.500
G16  24830084.026    24830082.751    24830081.515                                        3151.913        3151.913        2455.996                                   130483011.813   130483012.832   101675085.973                                          39.250          22.500          22.500
G18  22291181.259    22291181.158    22291180.363                                       -2913.780       -2913.780       -2270.503                                   117140983.803   117140969.822    91278684.629                                          47.750          35.250          35.250
G27  22295833.171    22295832.138    22295832.588    22295832.665    22295835.002        3001.398        3001.398        2338.702        2338.703        2241.253   117165444.287   117165444.294    91297762.959    91297757.958    87493691.737          47.250          40.250          40.250          48.250          52.500
G28  23238896.784    23238896.451    23238895.819                                       -2349.353       -2349.353       -1830.594                                   122121260.388   122121257.412    95159429.233                                          44.000          29.750          29.750
G30  21358458.206    21358457.807    21358458.882    21358459.309    21358462.239       -2128.189       -2128.189       -1658.366       -1658.357       -1589.258   112239492.930   112239482.938    87459346.240    87459360.249    83815221.937          48.250          43.000          43.000          50.500          55.750
R02  23978182.980    23978181.360    23978185.778    23978186.279        3474.965        3474.965        2702.717        2702.717   127952193.925   127952183.907    99518377.757    99518372.751          44.750          43.750          41.500          41.250
R03  23260322.338    23260322.248    23260327.848    23260325.406        1188.277        1188.277         924.221         924.182   124514349.499   124514332.509    96844490.481    96844481.471          42.750          41.500          38.500          38.750
R11  20028093.070    20028092.310    20028096.773    20028096.223        1714.620        1714.620        1333.593        1333.600   107024091.684   107024094.683    83240966.366    83240960.363          54.500          53.750          50.750          49.500
R12  19562450.376    19562450.253                                       -1376.995       -1376.995                                   104499123.155   104499139.156                                          52.500          51.500
R13  23669858.592    23669859.392    23669862.270    23669861.807       -3758.663       -3758.663       -2923.518       -2923.534   126395729.725   126395719.709    98307783.686    98307793.670          37.750          37.000          31.750          31.250
R20  24201155.145    24201148.520    24201156.632                        4331.534        4331.534        3368.904                   129414482.610   129414479.580   100655724.479                          27.250          24.750          24.250
R21  19996349.699    19996349.565    19996353.541    19996353.677        1757.421        1757.421        1366.897        1366.897   107004549.689   107004539.692    83225762.949    83225763.946          55.500          54.500          51.250          50.000
R22  20088621.286    20088620.860    20088625.482    20088625.398       -2842.103       -2842.103       -2210.519       -2210.523   107234532.874   107234493.873    83404616.383    83404614.380          56.000          55.250          51.250          50.000
> 2019 01 25 00 20 30.0000000  0 25
E02  26519783.239    26519788.763        2258.088        1686.222   139362439.154   104069366.685          45.000          47.500
E07  28147114.150    28147121.224        2759.531        2060.663   147914104.000   110455342.257          40.000          40.500
E15  25461790.469    25461797.720       -2930.236       -2188.210   133802649.273    99917564.750          47.250          49.250
E20  25309592.836                        1623.627                   133002813.513                          36.750
E27  24458101.976    24458107.457       -1765.180       -1318.162   128528229.561    95978879.059          51.750          53.000
E30  21884365.790    21884371.084         480.724         358.992   115003165.197    85878999.875          53.750          56.000
G01  23908929.754    23908930.676    23908932.567    23908932.763    23908935.156       -3761.958       -3761.958       -2931.383       -2931.387       -2809.225   125642434.172   125642302.172    97903097.470    97903099.485    93823798.833          40.000          27.250          27.250          42.000          47.250
G04  23072800.807    23072801.253    23072800.437                                        2858.418        2858.418        2227.348                                   121248413.977   121248410.990    94479287.655                                          42.250          32.500          32.500
G07  20273879.108    20273878.835    20273877.301    20273877.350                         -80.860         -80.860         -63.019         -63.013                   106540152.900   106539987.908    83018180.071    83018182.080                          51.750          46.500          46.500          52.750
G08  20599575.586    20599575.127    20599576.763    20599576.993    20599578.751        1298.025        1298.025        1011.447        1011.446         969.306   108251548.464   108251544.470    84351865.308    84351872.319    80837210.504          55.250          47.500          47.500          53.000          57.500
G09  23959305.694    23959305.142    23959308.639    23959308.104    23959310.333        3384.944        3384.944        2637.487        2637.496        2527.621   125907049.751   125907029.774    98109379.589    98109383.588    94021488.989          39.250          25.750          25.750          41.500          44.500
G11  22014029.783    22014028.897    22014027.750                                       -2976.927       -2976.927       -2319.701                                   115684647.980   115684543.986    90143807.682                                          47.250          38.750          38.750
G13  24765898.299    24765897.061    24765896.152                                       -2476.423       -2476.423       -1929.681                                   130145675.337   130145683.353   101412220.735                                          36.500          14.250          14.250
G16  24848078.918    24848077.205    24848076.561                                        3152.338        3152.338        2456.407                                   130577572.738   130577573.751   101748769.781                                          39.500          21.750          21.750
G18  22274584.150    22274583.791    22274583.703                                       -2900.758       -2900.758       -2260.327                                   117053765.053   117053751.064    91210721.986                                          46.750          35.750          35.750
G27  22312990.848    22312990.602    22312991.479    22312991.624    22312994.127        3009.953        3009.953        2345.429        2345.430        2247.705   117255615.422   117255615.419    91368026.181    91368021.178    87561027.323          46.000          40.000          40.000          48.750          52.000
G28  23225495.729    23225495.219    23225493.115                                       -2345.828       -2345.828       -1827.913                                   122050832.537   122050829.542    95104550.388                                          45.250          30.250          30.250
G30  21346346.612    21346346.230    21346347.834    21346347.845    21346350.632       -2114.892       -2114.892       -1647.977       -1647.976       -1579.308   112175846.445   112175836.455    87409751.585    87409765.587    83767693.723          48.250          43.000          43.000          50.500          55.750
R02  23997737.281    23997736.115    23997741.999    23997741.863        3481.789        3481.789        2708.021        2708.021   128056546.578   128056536.584    99599540.942    99599535.936          46.000          45.250          42.000          40.500
R03  23267046.004    23267045.799    23267049.355    23267050.189        1211.370        1211.370         942.188         942.153   124550340.318   124550323.327    96872483.363    96872474.372          42.500          41.250          39.500          38.750
R11  20037762.259    20037761.922    20037766.284    20037766.245        1730.266        1730.266        1345.767        1345.773   107075764.531   107075767.534    83281156.356    83281150.354          54.500          53.500          50.750          49.750
R12  19554758.864    19554758.375                                       -1362.361       -1362.361                                   104458033.722   104458049.721                                          52.500          51.750
R13  23648739.311    23648739.750    23648744.971    23648741.870       -3759.469       -3759.469       -2924.042       -2924.121   126282955.528   126282945.523    98220070.425    98220080.430          37.000          36.000          32.250          32.000
R21  20006268.611    20006268.664    20006273.055    20006273.040        1781.339        1781.339        1385.489        1385.484   107057630.118   107057620.118    83267047.719    83267048.721          55.000          54.500          51.250          50.000
R22  20072708.875    20072708.622    20072714.184    20072713.570       -2820.584       -2820.584       -2193.782       -2193.794   107149592.400   107149553.402    83338551.586    83338549.584          55.750          55.250          51.500          50.250
> 2019 01 25 00 21 00.0000000  0 25
E02  26532685.671    26532691.737        2262.134        1689.226   139430242.270   104119998.816          44.750          47.750
E07  28162867.057    28162874.848        2759.555        2060.684   147996889.909   110517162.908          38.750          41.500
E15  25445080.228    25445086.453       -2923.995       -2183.492   133714834.693    99851988.939          47.500          49.000
E20  25318893.457                        1634.429                   133051686.490                          36.000
E27  24448036.598    24448042.115       -1761.187       -1315.156   128475335.174    95939380.015          51.250          52.750
E30  21887131.028    21887136.455         488.048         364.480   115017697.006    85889851.555          53.500          56.000
G01  23887462.511    23887463.105    23887465.978    23887466.483    23887468.445       -3758.813       -3758.813       -2928.933       -2928.962       -2806.887   125529625.507   125529493.519    97815194.655    97815196.657    93739558.649          39.750          26.500          26.500          41.000          47.250
G04  23089146.284    23089146.303    23089146.770                                        2867.953        2867.953        2234.695                                   121334310.924   121334307.931    94546220.315                                          41.500          31.500          31.500
G07  20273469.126    20273469.134    20273467.493    20273467.305                         -62.700         -62.700         -48.872         -48.878                   106537999.190   106537834.203    83016501.837    83016503.843                          52.250          46.500          46.500          53.000
G08  20607029.660    20607028.916    20607030.647    20607031.316    20607032.539        1313.321        1313.321        1023.365        1023.375         980.730   108290718.708   108290714.717    84382387.580    84382394.592    80866461.017          55.250          47.500          47.500          53.500          57.500
G09  23978638.530    23978636.931    23978638.593    23978638.912    23978642.618        3387.606        3387.606        2639.625        2639.676        2529.679   126008636.917   126008616.920    98188538.415    98188542.443    94097349.528          39.750          26.250          26.250          41.000          45.750
G11  21997069.360    21997068.885    21997067.686                                       -2964.839       -2964.839       -2310.294                                   115595521.363   115595417.368    90074358.401                                          46.750          39.250          39.250
G13  24751800.808    24751801.239    24751799.347                                       -2462.235       -2462.235       -1918.703                                   130071593.102   130071601.130   101354494.353                                          39.500          19.000          19.000
G16  24866075.116    24866075.110    24866074.967                                        3152.737        3152.737        2456.623                                   130672147.734   130672148.751   101822464.495                                          40.000          23.250          23.250
G18  22258061.850    22258060.869    22258060.887                                       -2887.657       -2887.657       -2250.125                                   116966938.643   116966924.647    91143065.076                                          46.500          35.750          35.750
G27  22330199.104    22330198.718    22330199.628    22330199.773    22330201.888        3018.479        3018.479        2352.025        2352.055        2254.049   117346042.684   117346042.697    91438488.990    91438483.994    87628554.200          46.250          40.000          40.000          48.750          52.250
G28  23212113.144    23212112.668    23212111.808                                       -2342.315       -2342.315       -1825.126                                   121980511.239   121980508.244    95049754.603                                          44.500          30.250          30.250
G30  21334310.644    21334310.257    21334311.772    21334312.245    21334314.927       -2101.639       -2101.639       -1637.574       -1637.584       -1569.346   112112598.774   112112588.775    87360467.683    87360481.690    83720463.318          48.000          42.750          42.750          50.500          55.500
R02  24017331.445    24017331.478    24017336.045    24017336.748        3488.864        3488.864        2713.596        2713.562   128161107.663   128161097.663    99680866.234    99680861.215          46.250          45.500          41.500          40.750
R03  23273898.160    23273897.484    23273903.518    23273902.555        1234.278        1234.278         959.997         959.971   124587023.029   124587006.035    96901014.298    96901005.309          40.750          40.250          39.500          39.250
R11  20047520.233    20047519.737    20047523.515    20047523.643        1745.850        1745.850        1357.909        1357.892   107127905.933   107127908.937    83321710.777    83321704.772          55.000          53.750          50.750          49.500
R12  19547148.638    19547148.322                                       -1347.617       -1347.617                                   104417383.698   104417399.706                                          52.500          51.500
R13  23627613.138    23627614.088    23627623.856    23627621.172       -3760.377       -3760.377       -2924.592       -2924.646   126170156.518   126170146.534    98132337.984    98132347.985          34.750          34.500          35.750          34.250
R21  20016321.408    20016321.668    20016325.692    20016326.209        1805.072        1805.072        1403.976        1403.953   107111426.187   107111416.186    83308889.114    83308890.109          54.750          54.250          51.250          50.250
R22  20056918.531    20056917.911    20056922.393    20056922.683       -2798.935       -2798.935       -2176.952       -2176.953   107065300.178   107065261.182    83272990.986    83272988.985          56.000          55.250          51.000          50.000
> 2019 01 25 00 21 30.0000000  0 24
E02  26545610.199    26545616.332        2265.987        1692.134   139498163.500   104170719.179          45.250          47.500
E07  28178619.190    28178627.196        2759.225        2060.542   148079668.080   110578977.772          38.750          40.750
E15  25428405.320    25428412.198       -2917.610       -2178.731   133627209.846    99786554.827          47.500          49.000
E20  25328254.184                        1645.059                   133100876.791                          36.750
E27  24437993.541    24437999.055       -1757.228       -1312.230   128422559.645    95899969.726          51.250          53.000
E30  21889938.250    21889943.910         495.474         369.984   115032450.483    85900868.754          53.500          56.250
G01  23866015.878    23866015.439    23866017.733    23866017.704    23866020.307       -3755.399       -3755.399       -2926.249       -2926.303       -2804.345   125416913.466   125416781.488    97727367.133    97727369.121    93655390.613          41.000          25.750          25.750          40.750          47.750
G04  23105546.623    23105546.389    23105546.264                                        2877.406        2877.406        2242.195                                   121420491.460   121420488.480    94613373.955                                          42.500          31.250          31.250
G07  20273163.025    20273162.776    20273161.202    20273161.070                         -44.521         -44.521         -34.695         -34.689                   106536390.429   106536225.436    83015248.251    83015250.259                          52.500          46.500          46.500          53.000
G08  20614570.710    20614570.117    20614571.775    20614571.938    20614573.783        1328.546        1328.546        1035.246        1035.244         992.109   108330347.753   108330343.760    84413267.359    84413274.369    80896054.141          55.500          47.500          47.500          53.250          57.500
G09  23997984.575    23997984.334    23997986.539    23997986.157    23997989.840        3390.142        3390.142        2641.739        2641.764        2531.659   126110304.561   126110284.546    98267759.929    98267763.933    94173270.133          39.250          25.500          25.500          41.750          46.250
G11  21980178.168    21980177.800    21980176.021                                       -2952.690       -2952.690       -2300.786                                   115506758.628   115506654.643    90005192.656                                          47.500          39.000          39.000
G13  24737786.037    24737784.825    24737783.267                                       -2447.959       -2447.959       -1907.573                                   129997939.488   129997947.476   101297101.864                                          39.750          19.500          19.500
G16  24884076.077    24884074.800    24884074.264                                        3153.312        3153.312        2457.130                                   130766736.053   130766737.061   101896169.619                                          41.250          24.500          24.500
G18  22241614.335    22241614.158    22241613.528                                       -2874.400       -2874.400       -2239.755                                   116880507.843   116880493.848    91075716.432                                          48.250          35.750          35.750
G27  22347454.869    22347454.603    22347455.729    22347456.138    22347457.920        3026.956        3026.956        2358.656        2358.670        2260.397   117436723.631   117436723.643    91509149.476    91509144.489    87696270.491          46.250          40.250          40.250          49.250          52.250
G28  23198752.685    23198751.706    23198750.745                                       -2338.663       -2338.663       -1822.295                                   121910296.744   121910293.758    94995042.029                                          44.750          30.500          30.500
G30  21322351.439    21322351.150    21322352.494    21322353.058    21322355.639       -2088.175       -2088.175       -1627.128       -1627.139       -1559.342   112049752.147   112049742.155    87311496.298    87311510.302    83673532.403          48.750          43.000          43.000          50.500          55.750
R03  23280880.314    23280879.980    23280882.882    23280883.063        1257.227        1257.227         977.827         977.802   124624395.224   124624378.228    96930081.546    96930072.553          42.500          41.500          40.000          40.250
R11  20057365.223    20057364.927    20057368.857    20057368.784        1761.463        1761.463        1370.023        1370.041   107180515.639   107180518.642    83362629.435    83362623.437          55.000          54.000          50.750          49.500
R12  19539621.665    19539621.390                                       -1332.888       -1332.888                                   104377175.769   104377191.776                                          52.750          51.500
R13  23606486.842    23606487.472    23606489.601    23606492.599       -3761.101       -3761.101       -2925.324       -2925.300   126057334.176   126057324.172    98044587.283    98044597.289          35.750          35.250          33.000          33.500
R21  20026508.286    20026508.061    20026512.486    20026512.408        1828.787        1828.787        1422.403        1422.400   107165934.959   107165924.960    83351284.832    83351285.829          55.000          54.250          51.500          50.250
R22  20041249.108    20041248.906    20041254.104    20041253.669       -2777.158       -2777.158       -2160.017       -2160.018   106981658.970   106981619.975    83207936.721    83207934.720          56.000          55.250          51.500          50.000
